[{"id": 390643, "min_date": "2018-07-09T01:18:00Z", "max_date": "2018-07-09T01:18:00Z", "count_points": 2, "latitude": 51.58514, "longitude": 32.7211, "city": "Sosnytsya", "images": []}, {"id": 390644, "min_date": "2018-07-09T01:18:00Z", "max_date": "2018-07-09T01:18:00Z", "count_points": 1, "latitude": 50.231, "longitude": 33.34825, "city": "Sencha", "images": []}, {"id": 390645, "min_date": "2018-07-09T01:24:00Z", "max_date": "2018-07-09T01:24:00Z", "count_points": 1, "latitude": 47.63261, "longitude": 30.16461, "city": "Lyubashivka", "images": []}, {"id": 390646, "min_date": "2018-07-09T09:24:00Z", "max_date": "2018-07-09T11:06:00Z", "count_points": 24, "latitude": 45.07514, "longitude": 35.24513, "city": "Nasypnoe", "images": []}, {"id": 390647, "min_date": "2018-07-09T09:30:00Z", "max_date": "2018-07-09T09:30:00Z", "count_points": 2, "latitude": 48.82377, "longitude": 37.60699, "city": "Sloviansk", "images": []}, {"id": 390648, "min_date": "2018-07-09T09:30:00Z", "max_date": "2018-07-09T09:30:00Z", "count_points": 1, "latitude": 48.80062, "longitude": 31.33895, "city": "Shpola", "images": []}, {"id": 390649, "min_date": "2018-07-09T09:30:00Z", "max_date": "2018-07-09T09:20:00Z", "count_points": 5, "latitude": 48.70909, "longitude": 31.31289, "city": "Shpola", "images": []}, {"id": 390650, "min_date": "2018-07-09T09:30:00Z", "max_date": "2018-07-09T09:30:00Z", "count_points": 1, "latitude": 49.60046, "longitude": 29.42803, "city": "Topory", "images": []}, {"id": 390651, "min_date": "2018-07-09T09:30:00Z", "max_date": "2018-07-09T09:30:00Z", "count_points": 3, "latitude": 46.81415, "longitude": 34.18642, "city": "Nyzhni Sirohozy", "images": []}, {"id": 390652, "min_date": "2018-07-09T09:30:00Z", "max_date": "2018-07-09T09:30:00Z", "count_points": 2, "latitude": 46.83413, "longitude": 34.16721, "city": "Nyzhni Sirohozy", "images": []}, {"id": 390653, "min_date": "2018-07-09T09:30:00Z", "max_date": "2018-07-11T18:39:00Z", "count_points": 3, "latitude": 46.57393, "longitude": 34.47702, "city": "Ivanivka", "images": []}, {"id": 390654, "min_date": "2018-07-09T09:30:00Z", "max_date": "2018-07-09T09:30:00Z", "count_points": 1, "latitude": 46.71829, "longitude": 35.02797, "city": "Yakymivka", "images": []}, {"id": 390655, "min_date": "2018-07-09T09:30:00Z", "max_date": "2018-07-09T09:30:00Z", "count_points": 1, "latitude": 47.36526, "longitude": 34.64726, "city": "Dniprovka", "images": []}, {"id": 390656, "min_date": "2018-07-09T09:30:00Z", "max_date": "2018-07-09T09:30:00Z", "count_points": 2, "latitude": 46.3012, "longitude": 32.12054, "city": "Bekhtery", "images": []}, {"id": 390657, "min_date": "2018-07-09T09:30:00Z", "max_date": "2018-07-09T09:30:00Z", "count_points": 1, "latitude": 46.75714, "longitude": 32.10351, "city": "Shevchenkove", "images": []}, {"id": 390658, "min_date": "2018-07-09T09:30:00Z", "max_date": "2018-07-09T09:30:00Z", "count_points": 1, "latitude": 48.13343, "longitude": 31.29134, "city": "Pomichna", "images": []}, {"id": 390659, "min_date": "2018-07-09T09:30:00Z", "max_date": "2018-07-09T09:30:00Z", "count_points": 3, "latitude": 48.50499, "longitude": 29.49154, "city": "Viytivka", "images": []}, {"id": 390660, "min_date": "2018-07-09T09:30:00Z", "max_date": "2018-07-09T07:42:00Z", "count_points": 8, "latitude": 47.79263, "longitude": 36.01973, "city": "Ternuvate", "images": []}, {"id": 390661, "min_date": "2018-07-09T09:30:00Z", "max_date": "2018-07-09T11:03:00Z", "count_points": 5, "latitude": 47.14291, "longitude": 35.78447, "city": "Tokmak", "images": []}, {"id": 390662, "min_date": "2018-07-09T09:30:00Z", "max_date": "2018-07-09T09:30:00Z", "count_points": 5, "latitude": 47.61895, "longitude": 35.83863, "city": "Preobrazhenka", "images": []}, {"id": 390663, "min_date": "2018-07-09T09:30:00Z", "max_date": "2018-07-09T09:30:00Z", "count_points": 1, "latitude": 48.10224, "longitude": 37.75702, "city": "Avdiyivka", "images": []}, {"id": 390664, "min_date": "2018-07-09T09:30:00Z", "max_date": "2018-07-09T09:20:00Z", "count_points": 5, "latitude": 47.72711, "longitude": 36.77466, "city": "Velyka Novosilka", "images": []}, {"id": 390665, "min_date": "2018-07-09T09:30:00Z", "max_date": "2018-07-09T09:30:00Z", "count_points": 2, "latitude": 47.98935, "longitude": 29.92346, "city": "Savran", "images": []}, {"id": 390666, "min_date": "2018-07-09T09:30:00Z", "max_date": "2018-07-09T09:21:00Z", "count_points": 7, "latitude": 48.11065, "longitude": 29.78292, "city": "Peschana", "images": []}, {"id": 390667, "min_date": "2018-07-09T09:30:00Z", "max_date": "2018-07-09T09:20:00Z", "count_points": 3, "latitude": 48.08316, "longitude": 32.41185, "city": "Ustynivka", "images": []}, {"id": 390668, "min_date": "2018-07-09T09:30:00Z", "max_date": "2018-07-09T11:03:00Z", "count_points": 18, "latitude": 47.97651, "longitude": 32.7386, "city": "Dolynska", "images": []}, {"id": 390669, "min_date": "2018-07-09T09:30:00Z", "max_date": "2018-07-09T09:30:00Z", "count_points": 2, "latitude": 47.96085, "longitude": 32.3253, "city": "Bobrynets", "images": []}, {"id": 390670, "min_date": "2018-07-09T09:30:00Z", "max_date": "2018-07-09T09:21:00Z", "count_points": 8, "latitude": 47.61067, "longitude": 32.63058, "city": "Novyy Buh", "images": []}, {"id": 390671, "min_date": "2018-07-09T09:30:00Z", "max_date": "2018-07-09T09:30:00Z", "count_points": 2, "latitude": 46.82314, "longitude": 31.77459, "city": "Parutyne", "images": []}, {"id": 390672, "min_date": "2018-07-09T09:30:00Z", "max_date": "2018-07-09T09:30:00Z", "count_points": 2, "latitude": 47.49376, "longitude": 31.78537, "city": "Nova Odesa", "images": []}, {"id": 390673, "min_date": "2018-07-09T09:30:00Z", "max_date": "2018-07-12T09:56:00Z", "count_points": 7, "latitude": 47.23253, "longitude": 36.91254, "city": "Rozivka", "images": []}, {"id": 390674, "min_date": "2018-07-09T09:30:00Z", "max_date": "2018-07-09T09:21:00Z", "count_points": 2, "latitude": 47.60342, "longitude": 30.56408, "city": "Mykolayivka", "images": []}, {"id": 390675, "min_date": "2018-07-09T09:30:00Z", "max_date": "2018-07-09T09:30:00Z", "count_points": 1, "latitude": 46.53658, "longitude": 33.24137, "city": "Nova Mayachka", "images": []}, {"id": 390676, "min_date": "2018-07-09T09:30:00Z", "max_date": "2018-07-09T09:30:00Z", "count_points": 2, "latitude": 47.93976, "longitude": 32.75605, "city": "Kazanka", "images": []}, {"id": 390677, "min_date": "2018-07-09T09:30:00Z", "max_date": "2018-07-14T19:10:00Z", "count_points": 11, "latitude": 46.73632, "longitude": 31.22469, "city": "Kobleve", "images": []}, {"id": 390678, "min_date": "2018-07-09T09:30:00Z", "max_date": "2018-07-09T09:30:00Z", "count_points": 4, "latitude": 47.68175, "longitude": 31.0466, "city": "Domanivka", "images": []}, {"id": 390679, "min_date": "2018-07-09T09:30:00Z", "max_date": "2018-07-09T09:30:00Z", "count_points": 1, "latitude": 47.84605, "longitude": 32.91268, "city": "Kazanka", "images": []}, {"id": 390680, "min_date": "2018-07-09T09:30:00Z", "max_date": "2018-07-09T09:30:00Z", "count_points": 1, "latitude": 49.66356, "longitude": 34.5168, "city": "Poltava", "images": []}, {"id": 390681, "min_date": "2018-07-09T09:30:00Z", "max_date": "2018-07-12T08:13:00Z", "count_points": 8, "latitude": 46.93733, "longitude": 33.8579, "city": "Hornostayivka", "images": []}, {"id": 390682, "min_date": "2018-07-09T09:30:00Z", "max_date": "2018-07-09T18:52:00Z", "count_points": 7, "latitude": 47.94365, "longitude": 33.59385, "city": "Kryvyi Rih", "images": []}, {"id": 390683, "min_date": "2018-07-09T09:30:00Z", "max_date": "2018-07-10T08:26:00Z", "count_points": 16, "latitude": 46.65129, "longitude": 34.11894, "city": "Askaniya-Nova", "images": []}, {"id": 390684, "min_date": "2018-07-09T09:30:00Z", "max_date": "2018-07-09T11:06:00Z", "count_points": 3, "latitude": 47.20338, "longitude": 35.54914, "city": "Tokmak", "images": []}, {"id": 390685, "min_date": "2018-07-09T09:30:00Z", "max_date": "2018-07-15T09:12:00Z", "count_points": 6, "latitude": 47.01745, "longitude": 33.97541, "city": "Velyka Lepetykha", "images": []}, {"id": 390686, "min_date": "2018-07-09T09:30:00Z", "max_date": "2018-07-09T20:29:00Z", "count_points": 3, "latitude": 46.6281, "longitude": 33.84969, "city": "Askaniya-Nova", "images": []}, {"id": 390687, "min_date": "2018-07-09T09:30:00Z", "max_date": "2018-07-12T00:24:00Z", "count_points": 6, "latitude": 47.10099, "longitude": 33.71099, "city": "Hornostayivka", "images": []}, {"id": 390688, "min_date": "2018-07-09T09:30:00Z", "max_date": "2018-07-13T08:56:00Z", "count_points": 6, "latitude": 46.49808, "longitude": 33.79042, "city": "Askaniya-Nova", "images": []}, {"id": 390689, "min_date": "2018-07-09T09:30:00Z", "max_date": "2018-07-09T11:03:00Z", "count_points": 17, "latitude": 47.48474, "longitude": 33.6047, "city": "Vysokopillya", "images": []}, {"id": 390690, "min_date": "2018-07-09T09:30:00Z", "max_date": "2018-07-09T09:21:00Z", "count_points": 7, "latitude": 47.7211, "longitude": 30.14633, "city": "Lyubashivka", "images": []}, {"id": 390691, "min_date": "2018-07-09T09:30:00Z", "max_date": "2018-07-09T09:30:00Z", "count_points": 1, "latitude": 47.76897, "longitude": 32.79401, "city": "Kazanka", "images": []}, {"id": 390692, "min_date": "2018-07-09T09:30:00Z", "max_date": "2018-07-09T11:03:00Z", "count_points": 4, "latitude": 47.81149, "longitude": 32.79384, "city": "Kazanka", "images": []}, {"id": 390693, "min_date": "2018-07-09T09:30:00Z", "max_date": "2018-07-09T09:30:00Z", "count_points": 1, "latitude": 47.83406, "longitude": 31.87701, "city": "Yelanets\u2019", "images": []}, {"id": 390694, "min_date": "2018-07-09T09:30:00Z", "max_date": "2018-07-09T11:04:00Z", "count_points": 2, "latitude": 48.13731, "longitude": 29.51153, "city": "Chechelnyk", "images": []}, {"id": 390695, "min_date": "2018-07-09T09:30:00Z", "max_date": "2018-07-09T11:06:00Z", "count_points": 3, "latitude": 47.83583, "longitude": 32.26799, "city": "Bobrynets", "images": []}, {"id": 390696, "min_date": "2018-07-09T09:30:00Z", "max_date": "2018-07-09T09:21:00Z", "count_points": 9, "latitude": 46.63255, "longitude": 34.25184, "city": "Novotroyits\u2019ke", "images": []}, {"id": 390697, "min_date": "2018-07-09T09:30:00Z", "max_date": "2018-07-09T09:21:00Z", "count_points": 7, "latitude": 46.63239, "longitude": 34.79194, "city": "Ivanivka", "images": []}, {"id": 390698, "min_date": "2018-07-09T09:30:00Z", "max_date": "2018-07-13T10:39:00Z", "count_points": 7, "latitude": 46.70661, "longitude": 34.45925, "city": "Ivanivka", "images": []}, {"id": 390699, "min_date": "2018-07-09T09:30:00Z", "max_date": "2018-07-10T10:08:00Z", "count_points": 20, "latitude": 46.43846, "longitude": 34.86368, "city": "Partyzany", "images": []}, {"id": 390700, "min_date": "2018-07-09T09:30:00Z", "max_date": "2018-07-15T19:53:00Z", "count_points": 10, "latitude": 46.65669, "longitude": 34.47209, "city": "Ivanivka", "images": []}, {"id": 390701, "min_date": "2018-07-09T09:30:00Z", "max_date": "2018-07-09T09:30:00Z", "count_points": 1, "latitude": 47.67745, "longitude": 33.38692, "city": "Shyroke", "images": []}, {"id": 390702, "min_date": "2018-07-09T09:30:00Z", "max_date": "2018-07-09T09:21:00Z", "count_points": 8, "latitude": 46.40442, "longitude": 34.40817, "city": "Novotroyits\u2019ke", "images": []}, {"id": 390703, "min_date": "2018-07-09T09:30:00Z", "max_date": "2018-07-15T10:54:00Z", "count_points": 9, "latitude": 47.82609, "longitude": 34.36373, "city": "Nikopol", "images": []}, {"id": 390704, "min_date": "2018-07-09T09:30:00Z", "max_date": "2018-07-09T09:30:00Z", "count_points": 1, "latitude": 46.76196, "longitude": 34.48418, "city": "Ivanivka", "images": []}, {"id": 390705, "min_date": "2018-07-09T09:30:00Z", "max_date": "2018-07-09T09:21:00Z", "count_points": 6, "latitude": 47.09952, "longitude": 35.0311, "city": "Matviyivka", "images": []}, {"id": 390706, "min_date": "2018-07-09T09:30:00Z", "max_date": "2018-07-09T11:03:00Z", "count_points": 11, "latitude": 48.4725, "longitude": 39.45197, "city": "Luhansk", "images": []}, {"id": 390707, "min_date": "2018-07-09T09:30:00Z", "max_date": "2018-07-09T09:20:00Z", "count_points": 3, "latitude": 48.70081, "longitude": 33.7797, "city": "Lykhivka", "images": []}, {"id": 390708, "min_date": "2018-07-09T09:30:00Z", "max_date": "2018-07-09T09:30:00Z", "count_points": 1, "latitude": 49.49329, "longitude": 34.84953, "city": "Mashivka", "images": []}, {"id": 390709, "min_date": "2018-07-09T09:30:00Z", "max_date": "2018-07-09T09:30:00Z", "count_points": 1, "latitude": 47.95356, "longitude": 38.36332, "city": "Zuhres", "images": []}, {"id": 390710, "min_date": "2018-07-09T09:30:00Z", "max_date": "2018-07-09T09:30:00Z", "count_points": 1, "latitude": 49.06248, "longitude": 38.04868, "city": "Serebryanka", "images": []}, {"id": 390711, "min_date": "2018-07-09T09:30:00Z", "max_date": "2018-07-14T11:22:00Z", "count_points": 40, "latitude": 46.66188, "longitude": 31.74815, "city": "Parutyne", "images": []}, {"id": 390712, "min_date": "2018-07-09T09:30:00Z", "max_date": "2018-07-09T11:06:00Z", "count_points": 3, "latitude": 47.75918, "longitude": 37.70321, "city": "Dokuchayevs\u2019k", "images": []}, {"id": 390713, "min_date": "2018-07-09T11:06:00Z", "max_date": "2018-07-09T11:06:00Z", "count_points": 3, "latitude": 47.40589, "longitude": 33.68417, "city": "Vysokopillya", "images": []}, {"id": 390714, "min_date": "2018-07-09T11:06:00Z", "max_date": "2018-07-09T11:03:00Z", "count_points": 6, "latitude": 47.67769, "longitude": 33.86142, "city": "Apostolove", "images": []}, {"id": 390715, "min_date": "2018-07-09T11:06:00Z", "max_date": "2018-07-09T11:06:00Z", "count_points": 2, "latitude": 47.58292, "longitude": 33.76705, "city": "Apostolove", "images": []}, {"id": 390716, "min_date": "2018-07-09T11:06:00Z", "max_date": "2018-07-09T11:03:00Z", "count_points": 4, "latitude": 47.60618, "longitude": 33.59772, "city": "Apostolove", "images": []}, {"id": 390717, "min_date": "2018-07-09T11:06:00Z", "max_date": "2018-07-09T11:06:00Z", "count_points": 2, "latitude": 47.9422, "longitude": 34.00018, "city": "Sofiyivka", "images": []}, {"id": 390718, "min_date": "2018-07-09T11:06:00Z", "max_date": "2018-07-09T11:06:00Z", "count_points": 1, "latitude": 47.95375, "longitude": 33.75049, "city": "Sofiyivka", "images": []}, {"id": 390719, "min_date": "2018-07-09T11:06:00Z", "max_date": "2018-07-11T10:51:00Z", "count_points": 11, "latitude": 46.78564, "longitude": 34.12654, "city": "Nyzhni Sirohozy", "images": []}, {"id": 390720, "min_date": "2018-07-09T11:06:00Z", "max_date": "2018-07-10T10:08:00Z", "count_points": 11, "latitude": 47.56243, "longitude": 36.16767, "city": "Zaliznychne", "images": []}, {"id": 390721, "min_date": "2018-07-09T11:06:00Z", "max_date": "2018-07-09T11:03:00Z", "count_points": 5, "latitude": 46.99812, "longitude": 33.22068, "city": "Dnipryany", "images": []}, {"id": 390722, "min_date": "2018-07-09T11:06:00Z", "max_date": "2018-07-09T11:06:00Z", "count_points": 3, "latitude": 48.70597, "longitude": 26.21773, "city": "Skala-Podil\u2019s\u2019ka", "images": []}, {"id": 390723, "min_date": "2018-07-09T11:06:00Z", "max_date": "2018-07-09T11:06:00Z", "count_points": 1, "latitude": 47.40399, "longitude": 29.99344, "city": "Zatyshshya", "images": []}, {"id": 390724, "min_date": "2018-07-09T11:06:00Z", "max_date": "2018-07-09T11:06:00Z", "count_points": 1, "latitude": 47.21158, "longitude": 32.46743, "city": "Bashtanka", "images": []}, {"id": 390725, "min_date": "2018-07-09T11:06:00Z", "max_date": "2018-07-09T11:06:00Z", "count_points": 4, "latitude": 48.60246, "longitude": 30.9155, "city": "Tyshkivka", "images": []}, {"id": 390726, "min_date": "2018-07-09T11:06:00Z", "max_date": "2018-07-09T11:06:00Z", "count_points": 1, "latitude": 48.55857, "longitude": 32.63961, "city": "Adzhamka", "images": []}, {"id": 390727, "min_date": "2018-07-09T11:06:00Z", "max_date": "2018-07-09T11:06:00Z", "count_points": 1, "latitude": 49.46218, "longitude": 29.67057, "city": "Tetiiv", "images": []}, {"id": 390728, "min_date": "2018-07-09T11:06:00Z", "max_date": "2018-07-09T11:03:00Z", "count_points": 13, "latitude": 46.69628, "longitude": 34.52102, "city": "Ivanivka", "images": []}, {"id": 390729, "min_date": "2018-07-09T11:06:00Z", "max_date": "2018-07-09T11:06:00Z", "count_points": 1, "latitude": 48.35413, "longitude": 32.20693, "city": "Kompaniyivka", "images": []}, {"id": 390730, "min_date": "2018-07-09T11:06:00Z", "max_date": "2018-07-09T11:06:00Z", "count_points": 3, "latitude": 48.44244, "longitude": 31.43905, "city": "Zlynka", "images": []}, {"id": 390731, "min_date": "2018-07-09T11:06:00Z", "max_date": "2018-07-15T08:44:00Z", "count_points": 5, "latitude": 46.86564, "longitude": 34.73408, "city": "Ivanivka", "images": []}, {"id": 390732, "min_date": "2018-07-09T11:06:00Z", "max_date": "2018-07-10T23:06:00Z", "count_points": 5, "latitude": 47.84584, "longitude": 36.01618, "city": "Ternuvate", "images": []}, {"id": 390733, "min_date": "2018-07-09T11:06:00Z", "max_date": "2018-07-09T11:04:00Z", "count_points": 6, "latitude": 48.18498, "longitude": 30.79962, "city": "Vil\u2019shanka", "images": []}, {"id": 390734, "min_date": "2018-07-09T11:06:00Z", "max_date": "2018-07-09T11:06:00Z", "count_points": 1, "latitude": 48.16065, "longitude": 31.24777, "city": "Lysa Hora", "images": []}, {"id": 390735, "min_date": "2018-07-09T11:06:00Z", "max_date": "2018-07-09T11:06:00Z", "count_points": 2, "latitude": 48.22132, "longitude": 37.40567, "city": "Selydove", "images": []}, {"id": 390736, "min_date": "2018-07-09T11:06:00Z", "max_date": "2018-07-09T11:06:00Z", "count_points": 1, "latitude": 48.06247, "longitude": 29.85072, "city": "Peschana", "images": []}, {"id": 390737, "min_date": "2018-07-09T11:06:00Z", "max_date": "2018-07-09T11:06:00Z", "count_points": 1, "latitude": 47.29142, "longitude": 31.50647, "city": "Nova Odesa", "images": []}, {"id": 390738, "min_date": "2018-07-09T11:06:00Z", "max_date": "2018-07-09T11:04:00Z", "count_points": 3, "latitude": 48.43763, "longitude": 29.21514, "city": "Obodivka", "images": []}, {"id": 390739, "min_date": "2018-07-09T11:06:00Z", "max_date": "2018-07-10T10:48:00Z", "count_points": 2, "latitude": 48.00561, "longitude": 31.86416, "city": "Rivne", "images": []}, {"id": 390740, "min_date": "2018-07-09T11:06:00Z", "max_date": "2018-07-09T11:06:00Z", "count_points": 1, "latitude": 47.94085, "longitude": 31.77282, "city": "Brats\u2019ke", "images": []}, {"id": 390741, "min_date": "2018-07-09T11:06:00Z", "max_date": "2018-07-09T11:06:00Z", "count_points": 6, "latitude": 47.0266, "longitude": 36.47567, "city": "Prymors\u2019k", "images": []}, {"id": 390742, "min_date": "2018-07-09T11:06:00Z", "max_date": "2018-07-09T11:06:00Z", "count_points": 1, "latitude": 46.96673, "longitude": 31.82264, "city": "Mykolayiv", "images": []}, {"id": 390743, "min_date": "2018-07-09T11:06:00Z", "max_date": "2018-07-09T11:06:00Z", "count_points": 1, "latitude": 47.40298, "longitude": 36.41227, "city": "Chapayevka", "images": []}, {"id": 390744, "min_date": "2018-07-09T11:06:00Z", "max_date": "2018-07-09T11:06:00Z", "count_points": 1, "latitude": 48.24946, "longitude": 29.89494, "city": "Hayvoron", "images": []}, {"id": 390745, "min_date": "2018-07-09T11:06:00Z", "max_date": "2018-07-09T11:06:00Z", "count_points": 2, "latitude": 47.50063, "longitude": 31.67458, "city": "Nova Odesa", "images": []}, {"id": 390746, "min_date": "2018-07-09T11:06:00Z", "max_date": "2018-07-09T11:06:00Z", "count_points": 3, "latitude": 47.42586, "longitude": 32.47545, "city": "Bashtanka", "images": []}, {"id": 390747, "min_date": "2018-07-09T11:06:00Z", "max_date": "2018-07-14T11:12:00Z", "count_points": 2, "latitude": 47.56959, "longitude": 35.73692, "city": "Orikhiv", "images": []}, {"id": 390748, "min_date": "2018-07-09T11:06:00Z", "max_date": "2018-07-09T11:06:00Z", "count_points": 1, "latitude": 47.98833, "longitude": 30.38532, "city": "Kryve Ozero", "images": []}, {"id": 390749, "min_date": "2018-07-09T11:06:00Z", "max_date": "2018-07-09T11:06:00Z", "count_points": 1, "latitude": 47.60224, "longitude": 33.37761, "city": "Shyroke", "images": []}, {"id": 390750, "min_date": "2018-07-09T11:06:00Z", "max_date": "2018-07-09T11:06:00Z", "count_points": 3, "latitude": 47.16181, "longitude": 35.11087, "city": "Tymoshivka", "images": []}, {"id": 390751, "min_date": "2018-07-09T11:06:00Z", "max_date": "2018-07-09T11:03:00Z", "count_points": 6, "latitude": 47.16906, "longitude": 34.1543, "city": "Verkhniy Rohachyk", "images": []}, {"id": 390752, "min_date": "2018-07-09T11:06:00Z", "max_date": "2018-07-13T10:39:00Z", "count_points": 15, "latitude": 46.75751, "longitude": 34.36861, "city": "Nyzhni Sirohozy", "images": []}, {"id": 390753, "min_date": "2018-07-09T11:06:00Z", "max_date": "2018-07-09T11:03:00Z", "count_points": 8, "latitude": 48.09521, "longitude": 34.15659, "city": "Sofiyivka", "images": []}, {"id": 390754, "min_date": "2018-07-09T11:06:00Z", "max_date": "2018-07-10T08:26:00Z", "count_points": 11, "latitude": 46.62287, "longitude": 35.20031, "city": "Yakymivka", "images": []}, {"id": 390755, "min_date": "2018-07-09T11:06:00Z", "max_date": "2018-07-09T11:06:00Z", "count_points": 1, "latitude": 50.34719, "longitude": 25.16229, "city": "Berestechko", "images": []}, {"id": 390756, "min_date": "2018-07-09T11:06:00Z", "max_date": "2018-07-09T11:04:00Z", "count_points": 2, "latitude": 50.8172, "longitude": 24.80689, "city": "Lokachi", "images": []}, {"id": 390757, "min_date": "2018-07-09T11:06:00Z", "max_date": "2018-07-09T11:03:00Z", "count_points": 3, "latitude": 47.69606, "longitude": 31.58649, "city": "Brats\u2019ke", "images": []}, {"id": 390758, "min_date": "2018-07-09T11:06:00Z", "max_date": "2018-07-09T11:06:00Z", "count_points": 2, "latitude": 46.63902, "longitude": 32.06025, "city": "Stanislav", "images": []}, {"id": 390759, "min_date": "2018-07-09T11:06:00Z", "max_date": "2018-07-09T11:06:00Z", "count_points": 1, "latitude": 48.36523, "longitude": 39.10719, "city": "Uspenka", "images": []}, {"id": 390760, "min_date": "2018-07-09T11:06:00Z", "max_date": "2018-07-09T11:06:00Z", "count_points": 1, "latitude": 48.2866, "longitude": 37.8928, "city": "Dzerzhyns\u2019k", "images": []}, {"id": 390761, "min_date": "2018-07-09T11:06:00Z", "max_date": "2018-07-09T11:06:00Z", "count_points": 1, "latitude": 48.09231, "longitude": 38.58139, "city": "Torez", "images": []}, {"id": 390762, "min_date": "2018-07-09T11:06:00Z", "max_date": "2018-07-09T11:04:00Z", "count_points": 3, "latitude": 48.70575, "longitude": 33.91728, "city": "Lykhivka", "images": []}, {"id": 390763, "min_date": "2018-07-09T23:24:00Z", "max_date": "2018-07-09T23:24:00Z", "count_points": 1, "latitude": 48.67526, "longitude": 38.58888, "city": "Pervomays\u2019k", "images": []}, {"id": 390764, "min_date": "2018-07-09T23:24:00Z", "max_date": "2018-07-10T19:34:00Z", "count_points": 23, "latitude": 46.89481, "longitude": 34.43923, "city": "Nyzhni Sirohozy", "images": []}, {"id": 390765, "min_date": "2018-07-09T23:24:00Z", "max_date": "2018-07-10T09:06:00Z", "count_points": 3, "latitude": 49.55671, "longitude": 38.75514, "city": "Bilokurakyne", "images": []}, {"id": 390766, "min_date": "2018-07-09T23:24:00Z", "max_date": "2018-07-10T01:00:00Z", "count_points": 4, "latitude": 46.69337, "longitude": 34.37191, "city": "Nyzhni Sirohozy", "images": []}, {"id": 390767, "min_date": "2018-07-09T23:24:00Z", "max_date": "2018-07-09T23:24:00Z", "count_points": 2, "latitude": 46.78015, "longitude": 34.52431, "city": "Ivanivka", "images": []}, {"id": 390768, "min_date": "2018-07-09T23:24:00Z", "max_date": "2018-07-09T23:24:00Z", "count_points": 3, "latitude": 48.47878, "longitude": 34.30072, "city": "Novomykolayivka", "images": []}, {"id": 390769, "min_date": "2018-07-09T23:24:00Z", "max_date": "2018-07-09T23:24:00Z", "count_points": 2, "latitude": 46.76298, "longitude": 34.19299, "city": "Nyzhni Sirohozy", "images": []}, {"id": 390770, "min_date": "2018-07-09T23:24:00Z", "max_date": "2018-07-09T23:24:00Z", "count_points": 1, "latitude": 46.70692, "longitude": 34.60109, "city": "Ivanivka", "images": []}, {"id": 390771, "min_date": "2018-07-09T23:24:00Z", "max_date": "2018-07-09T23:24:00Z", "count_points": 2, "latitude": 48.50379, "longitude": 34.26683, "city": "Novomykolayivka", "images": []}, {"id": 390772, "min_date": "2018-07-09T23:24:00Z", "max_date": "2018-07-12T08:13:00Z", "count_points": 17, "latitude": 48.25476, "longitude": 36.2909, "city": "Pokrovs\u2019ke", "images": []}, {"id": 390773, "min_date": "2018-07-09T23:24:00Z", "max_date": "2018-07-09T23:24:00Z", "count_points": 2, "latitude": 49.99209, "longitude": 36.21448, "city": "Kharkiv", "images": []}, {"id": 390774, "min_date": "2018-07-09T23:24:00Z", "max_date": "2018-07-09T23:24:00Z", "count_points": 1, "latitude": 46.76905, "longitude": 33.51934, "city": "Kakhovka", "images": []}, {"id": 390775, "min_date": "2018-07-09T23:24:00Z", "max_date": "2018-07-10T19:34:00Z", "count_points": 16, "latitude": 46.58197, "longitude": 33.37901, "city": "Chornyanka", "images": []}, {"id": 390776, "min_date": "2018-07-09T23:24:00Z", "max_date": "2018-07-09T23:24:00Z", "count_points": 3, "latitude": 49.20022, "longitude": 37.35931, "city": "Chervonyy Oskil", "images": []}, {"id": 390777, "min_date": "2018-07-09T23:24:00Z", "max_date": "2018-07-09T23:24:00Z", "count_points": 1, "latitude": 48.03161, "longitude": 39.32422, "city": "Roven\u2019ky", "images": []}, {"id": 390778, "min_date": "2018-07-09T23:24:00Z", "max_date": "2018-07-09T23:24:00Z", "count_points": 1, "latitude": 48.76205, "longitude": 32.43263, "city": "Yelyzavethradka", "images": []}, {"id": 390779, "min_date": "2018-07-09T23:24:00Z", "max_date": "2018-07-12T10:12:00Z", "count_points": 11, "latitude": 46.20872, "longitude": 29.09071, "city": "Tarutyne", "images": []}, {"id": 390780, "min_date": "2018-07-09T23:24:00Z", "max_date": "2018-07-10T00:37:00Z", "count_points": 9, "latitude": 47.41462, "longitude": 32.83408, "city": "Bereznehuvate", "images": []}, {"id": 390781, "min_date": "2018-07-09T23:24:00Z", "max_date": "2018-07-13T11:30:00Z", "count_points": 9, "latitude": 45.72536, "longitude": 28.74376, "city": "Kalcheva", "images": []}, {"id": 390782, "min_date": "2018-07-09T23:24:00Z", "max_date": "2018-07-09T23:24:00Z", "count_points": 1, "latitude": 46.38391, "longitude": 34.50761, "city": "Novotroyits\u2019ke", "images": []}, {"id": 390783, "min_date": "2018-07-09T23:24:00Z", "max_date": "2018-07-14T20:48:00Z", "count_points": 31, "latitude": 45.62563, "longitude": 28.73083, "city": "Kalcheva", "images": []}, {"id": 390784, "min_date": "2018-07-09T23:24:00Z", "max_date": "2018-07-09T23:24:00Z", "count_points": 1, "latitude": 47.63599, "longitude": 32.32915, "city": "Novyy Buh", "images": []}, {"id": 390785, "min_date": "2018-07-09T23:24:00Z", "max_date": "2018-07-09T18:52:00Z", "count_points": 4, "latitude": 47.88323, "longitude": 32.93805, "city": "Kazanka", "images": []}, {"id": 390786, "min_date": "2018-07-10T01:00:00Z", "max_date": "2018-07-12T19:22:00Z", "count_points": 31, "latitude": 47.05162, "longitude": 34.07246, "city": "Velyka Lepetykha", "images": []}, {"id": 390787, "min_date": "2018-07-10T01:00:00Z", "max_date": "2018-07-10T01:00:00Z", "count_points": 1, "latitude": 51.75605, "longitude": 32.21715, "city": "Koryukivka", "images": []}, {"id": 390788, "min_date": "2018-07-10T09:06:00Z", "max_date": "2018-07-15T10:54:00Z", "count_points": 10, "latitude": 47.31318, "longitude": 34.55929, "city": "Dniprovka", "images": []}, {"id": 390789, "min_date": "2018-07-10T09:06:00Z", "max_date": "2018-07-10T08:26:00Z", "count_points": 5, "latitude": 46.60411, "longitude": 34.39435, "city": "Ivanivka", "images": []}, {"id": 390790, "min_date": "2018-07-10T09:06:00Z", "max_date": "2018-07-13T08:56:00Z", "count_points": 19, "latitude": 48.11607, "longitude": 36.88139, "city": "Mezhova", "images": []}, {"id": 390791, "min_date": "2018-07-10T09:06:00Z", "max_date": "2018-07-13T20:05:00Z", "count_points": 10, "latitude": 48.18766, "longitude": 36.7811, "city": "Mezhova", "images": []}, {"id": 390792, "min_date": "2018-07-10T09:06:00Z", "max_date": "2018-07-10T10:48:00Z", "count_points": 2, "latitude": 48.3932, "longitude": 34.43107, "city": "Krynychky", "images": []}, {"id": 390793, "min_date": "2018-07-10T09:06:00Z", "max_date": "2018-07-10T09:06:00Z", "count_points": 1, "latitude": 49.02674, "longitude": 38.8552, "city": "Novoaydar", "images": []}, {"id": 390794, "min_date": "2018-07-10T09:06:00Z", "max_date": "2018-07-10T08:25:00Z", "count_points": 4, "latitude": 48.28475, "longitude": 37.83994, "city": "Dzerzhyns\u2019k", "images": []}, {"id": 390795, "min_date": "2018-07-10T09:06:00Z", "max_date": "2018-07-10T10:08:00Z", "count_points": 19, "latitude": 47.94955, "longitude": 38.25274, "city": "Shyroke", "images": []}, {"id": 390796, "min_date": "2018-07-10T09:06:00Z", "max_date": "2018-07-10T09:06:00Z", "count_points": 1, "latitude": 48.09261, "longitude": 38.43603, "city": "Shakhtars\u2019k", "images": []}, {"id": 390797, "min_date": "2018-07-10T09:06:00Z", "max_date": "2018-07-10T10:48:00Z", "count_points": 3, "latitude": 48.54677, "longitude": 38.34154, "city": "Popasna", "images": []}, {"id": 390798, "min_date": "2018-07-10T09:06:00Z", "max_date": "2018-07-10T10:48:00Z", "count_points": 4, "latitude": 47.9779, "longitude": 38.57743, "city": "Torez", "images": []}, {"id": 390799, "min_date": "2018-07-10T09:06:00Z", "max_date": "2018-07-12T08:13:00Z", "count_points": 8, "latitude": 47.39782, "longitude": 33.60838, "city": "Vysokopillya", "images": []}, {"id": 390800, "min_date": "2018-07-10T09:06:00Z", "max_date": "2018-07-10T10:48:00Z", "count_points": 4, "latitude": 47.61192, "longitude": 33.75937, "city": "Apostolove", "images": []}, {"id": 390801, "min_date": "2018-07-10T09:06:00Z", "max_date": "2018-07-10T08:26:00Z", "count_points": 10, "latitude": 46.21026, "longitude": 33.47799, "city": "Chaplynka", "images": []}, {"id": 390802, "min_date": "2018-07-10T09:06:00Z", "max_date": "2018-07-10T09:06:00Z", "count_points": 1, "latitude": 47.09867, "longitude": 35.58728, "city": "Tokmak", "images": []}, {"id": 390803, "min_date": "2018-07-10T09:06:00Z", "max_date": "2018-07-10T09:06:00Z", "count_points": 2, "latitude": 47.17607, "longitude": 35.21512, "city": "Mykhaylivka", "images": []}, {"id": 390804, "min_date": "2018-07-10T09:06:00Z", "max_date": "2018-07-10T09:06:00Z", "count_points": 4, "latitude": 47.20826, "longitude": 35.21164, "city": "Mykhaylivka", "images": []}, {"id": 390805, "min_date": "2018-07-10T09:06:00Z", "max_date": "2018-07-13T09:54:00Z", "count_points": 3, "latitude": 48.92324, "longitude": 36.40598, "city": "Lozova", "images": []}, {"id": 390806, "min_date": "2018-07-10T09:06:00Z", "max_date": "2018-07-13T20:05:00Z", "count_points": 9, "latitude": 47.20318, "longitude": 35.7688, "city": "Tokmak", "images": []}, {"id": 390807, "min_date": "2018-07-10T09:06:00Z", "max_date": "2018-07-10T09:06:00Z", "count_points": 1, "latitude": 48.60451, "longitude": 39.07911, "city": "Bile", "images": []}, {"id": 390808, "min_date": "2018-07-10T09:06:00Z", "max_date": "2018-07-14T11:12:00Z", "count_points": 6, "latitude": 47.89267, "longitude": 32.78477, "city": "Kazanka", "images": []}, {"id": 390809, "min_date": "2018-07-10T09:06:00Z", "max_date": "2018-07-10T09:06:00Z", "count_points": 2, "latitude": 47.88682, "longitude": 32.68544, "city": "Kazanka", "images": []}, {"id": 390810, "min_date": "2018-07-10T09:06:00Z", "max_date": "2018-07-10T08:25:00Z", "count_points": 12, "latitude": 47.59809, "longitude": 32.98972, "city": "Shyroke", "images": []}, {"id": 390811, "min_date": "2018-07-10T09:06:00Z", "max_date": "2018-07-15T10:27:00Z", "count_points": 4, "latitude": 47.60292, "longitude": 33.13958, "city": "Shyroke", "images": []}, {"id": 390812, "min_date": "2018-07-10T09:12:00Z", "max_date": "2018-07-10T09:12:00Z", "count_points": 1, "latitude": 47.897, "longitude": 32.26972, "city": "Bobrynets", "images": []}, {"id": 390813, "min_date": "2018-07-10T10:48:00Z", "max_date": "2018-07-10T08:26:00Z", "count_points": 10, "latitude": 45.80654, "longitude": 29.60448, "city": "Tatarbunary", "images": []}, {"id": 390814, "min_date": "2018-07-10T10:48:00Z", "max_date": "2018-07-10T10:48:00Z", "count_points": 4, "latitude": 47.37969, "longitude": 32.06054, "city": "Nova Odesa", "images": []}, {"id": 390815, "min_date": "2018-07-10T10:48:00Z", "max_date": "2018-07-10T08:26:00Z", "count_points": 8, "latitude": 46.1527, "longitude": 29.97551, "city": "Kulevcha", "images": []}, {"id": 390816, "min_date": "2018-07-10T10:48:00Z", "max_date": "2018-07-10T08:26:00Z", "count_points": 3, "latitude": 46.27083, "longitude": 29.9718, "city": "Starokozache", "images": []}, {"id": 390817, "min_date": "2018-07-10T10:48:00Z", "max_date": "2018-07-12T19:22:00Z", "count_points": 9, "latitude": 45.96317, "longitude": 30.19662, "city": "Serhiyivka", "images": []}, {"id": 390818, "min_date": "2018-07-10T10:48:00Z", "max_date": "2018-07-11T10:51:00Z", "count_points": 15, "latitude": 46.71138, "longitude": 30.34965, "city": "Teplodar", "images": []}, {"id": 390819, "min_date": "2018-07-10T10:48:00Z", "max_date": "2018-07-10T10:48:00Z", "count_points": 2, "latitude": 46.15527, "longitude": 29.88178, "city": "Kamyshevka Vtoraya", "images": []}, {"id": 390820, "min_date": "2018-07-10T10:48:00Z", "max_date": "2018-07-11T09:09:00Z", "count_points": 11, "latitude": 45.8763, "longitude": 29.56492, "city": "Tatarbunary", "images": []}, {"id": 390821, "min_date": "2018-07-10T10:48:00Z", "max_date": "2018-07-10T10:48:00Z", "count_points": 1, "latitude": 46.8693, "longitude": 31.35251, "city": "Berezanka", "images": []}, {"id": 390822, "min_date": "2018-07-10T10:48:00Z", "max_date": "2018-07-10T10:48:00Z", "count_points": 2, "latitude": 46.66879, "longitude": 31.35397, "city": "Rybakivka", "images": []}, {"id": 390823, "min_date": "2018-07-10T10:48:00Z", "max_date": "2018-07-10T10:48:00Z", "count_points": 2, "latitude": 47.62211, "longitude": 33.03805, "city": "Shyroke", "images": []}, {"id": 390824, "min_date": "2018-07-10T10:48:00Z", "max_date": "2018-07-14T11:12:00Z", "count_points": 2, "latitude": 46.51535, "longitude": 30.04457, "city": "Lymanske", "images": []}, {"id": 390825, "min_date": "2018-07-10T10:48:00Z", "max_date": "2018-07-10T10:08:00Z", "count_points": 5, "latitude": 47.04852, "longitude": 36.39765, "city": "Chernihivka", "images": []}, {"id": 390826, "min_date": "2018-07-10T10:48:00Z", "max_date": "2018-07-10T10:48:00Z", "count_points": 1, "latitude": 46.1491, "longitude": 30.02604, "city": "Kulevcha", "images": []}, {"id": 390827, "min_date": "2018-07-10T10:48:00Z", "max_date": "2018-07-10T19:34:00Z", "count_points": 4, "latitude": 46.93972, "longitude": 30.59675, "city": "Ivanivka", "images": []}, {"id": 390828, "min_date": "2018-07-10T10:48:00Z", "max_date": "2018-07-10T10:48:00Z", "count_points": 1, "latitude": 45.73167, "longitude": 29.57997, "city": "Tatarbunary", "images": []}, {"id": 390829, "min_date": "2018-07-10T10:48:00Z", "max_date": "2018-07-10T10:48:00Z", "count_points": 1, "latitude": 48.31195, "longitude": 31.94077, "city": "Rivne", "images": []}, {"id": 390830, "min_date": "2018-07-10T10:48:00Z", "max_date": "2018-07-12T10:12:00Z", "count_points": 8, "latitude": 50.41859, "longitude": 33.24165, "city": "Lokhvytsya", "images": []}, {"id": 390831, "min_date": "2018-07-10T10:48:00Z", "max_date": "2018-07-14T11:22:00Z", "count_points": 18, "latitude": 48.48867, "longitude": 32.60306, "city": "Adzhamka", "images": []}, {"id": 390832, "min_date": "2018-07-10T10:48:00Z", "max_date": "2018-07-10T10:48:00Z", "count_points": 3, "latitude": 47.89653, "longitude": 31.71915, "city": "Brats\u2019ke", "images": []}, {"id": 390833, "min_date": "2018-07-10T10:48:00Z", "max_date": "2018-07-10T10:48:00Z", "count_points": 1, "latitude": 46.42243, "longitude": 34.81189, "city": "Partyzany", "images": []}, {"id": 390834, "min_date": "2018-07-10T10:48:00Z", "max_date": "2018-07-11T10:30:00Z", "count_points": 3, "latitude": 46.68881, "longitude": 34.29465, "city": "Nyzhni Sirohozy", "images": []}, {"id": 390835, "min_date": "2018-07-10T10:48:00Z", "max_date": "2018-07-14T11:22:00Z", "count_points": 7, "latitude": 47.76565, "longitude": 33.12094, "city": "Shyroke", "images": []}, {"id": 390836, "min_date": "2018-07-10T10:48:00Z", "max_date": "2018-07-14T11:22:00Z", "count_points": 8, "latitude": 48.45464, "longitude": 32.55939, "city": "Adzhamka", "images": []}, {"id": 390837, "min_date": "2018-07-10T10:48:00Z", "max_date": "2018-07-12T09:56:00Z", "count_points": 24, "latitude": 47.32831, "longitude": 34.42181, "city": "Verkhniy Rohachyk", "images": []}, {"id": 390838, "min_date": "2018-07-10T10:48:00Z", "max_date": "2018-07-10T10:48:00Z", "count_points": 1, "latitude": 47.15122, "longitude": 35.05328, "city": "Tymoshivka", "images": []}, {"id": 390839, "min_date": "2018-07-10T10:48:00Z", "max_date": "2018-07-10T10:48:00Z", "count_points": 1, "latitude": 47.93592, "longitude": 32.00777, "city": "Bobrynets", "images": []}, {"id": 390840, "min_date": "2018-07-10T10:48:00Z", "max_date": "2018-07-10T10:48:00Z", "count_points": 1, "latitude": 46.1557, "longitude": 34.45674, "city": "Novooleksiyivka", "images": []}, {"id": 390841, "min_date": "2018-07-10T10:48:00Z", "max_date": "2018-07-10T08:26:00Z", "count_points": 2, "latitude": 46.73163, "longitude": 35.14095, "city": "Yakymivka", "images": []}, {"id": 390842, "min_date": "2018-07-10T10:48:00Z", "max_date": "2018-07-10T10:48:00Z", "count_points": 1, "latitude": 47.77651, "longitude": 36.51733, "city": "Hulyaypole", "images": []}, {"id": 390843, "min_date": "2018-07-10T10:48:00Z", "max_date": "2018-07-14T09:36:00Z", "count_points": 4, "latitude": 47.62363, "longitude": 36.75207, "city": "Velyka Novosilka", "images": []}, {"id": 390844, "min_date": "2018-07-10T10:48:00Z", "max_date": "2018-07-10T10:48:00Z", "count_points": 2, "latitude": 49.52706, "longitude": 35.60515, "city": "Berezivka", "images": []}, {"id": 390845, "min_date": "2018-07-10T10:48:00Z", "max_date": "2018-07-10T10:09:00Z", "count_points": 6, "latitude": 49.09537, "longitude": 34.40863, "city": "Tsarychanka", "images": []}, {"id": 390846, "min_date": "2018-07-10T10:48:00Z", "max_date": "2018-07-10T10:48:00Z", "count_points": 1, "latitude": 46.81529, "longitude": 34.01503, "city": "Kayiry", "images": []}, {"id": 390847, "min_date": "2018-07-10T10:48:00Z", "max_date": "2018-07-10T19:34:00Z", "count_points": 11, "latitude": 46.8659, "longitude": 34.13206, "city": "Nyzhni Sirohozy", "images": []}, {"id": 390848, "min_date": "2018-07-10T10:48:00Z", "max_date": "2018-07-10T10:48:00Z", "count_points": 4, "latitude": 45.85415, "longitude": 34.12554, "city": "Pakharevka", "images": []}, {"id": 390849, "min_date": "2018-07-10T10:48:00Z", "max_date": "2018-07-10T10:48:00Z", "count_points": 1, "latitude": 47.64577, "longitude": 33.53034, "city": "Vysokopillya", "images": []}, {"id": 390850, "min_date": "2018-07-10T10:48:00Z", "max_date": "2018-07-10T10:48:00Z", "count_points": 1, "latitude": 50.63603, "longitude": 26.6919, "city": "Hoshcha", "images": []}, {"id": 390851, "min_date": "2018-07-10T10:48:00Z", "max_date": "2018-07-11T10:51:00Z", "count_points": 18, "latitude": 45.92045, "longitude": 33.97159, "city": "Vishnyovka", "images": []}, {"id": 390852, "min_date": "2018-07-10T10:48:00Z", "max_date": "2018-07-10T10:48:00Z", "count_points": 2, "latitude": 48.11729, "longitude": 33.71596, "city": "Sofiyivka", "images": []}, {"id": 390853, "min_date": "2018-07-10T10:48:00Z", "max_date": "2018-07-10T10:48:00Z", "count_points": 3, "latitude": 48.25453, "longitude": 33.55435, "city": "Zhovti Vody", "images": []}, {"id": 390854, "min_date": "2018-07-10T10:48:00Z", "max_date": "2018-07-10T10:48:00Z", "count_points": 1, "latitude": 46.08944, "longitude": 33.43459, "city": "Kalanchak", "images": []}, {"id": 390855, "min_date": "2018-07-10T10:48:00Z", "max_date": "2018-07-10T10:48:00Z", "count_points": 1, "latitude": 47.61439, "longitude": 33.71373, "city": "Apostolove", "images": []}, {"id": 390856, "min_date": "2018-07-10T10:48:00Z", "max_date": "2018-07-10T10:48:00Z", "count_points": 1, "latitude": 49.95832, "longitude": 28.95141, "city": "Chervone", "images": []}, {"id": 390857, "min_date": "2018-07-10T10:48:00Z", "max_date": "2018-07-10T10:48:00Z", "count_points": 1, "latitude": 46.80817, "longitude": 35.42106, "city": "Kostyantynivka", "images": []}, {"id": 390858, "min_date": "2018-07-10T10:48:00Z", "max_date": "2018-07-10T19:34:00Z", "count_points": 7, "latitude": 46.56529, "longitude": 30.29732, "city": "Teplodar", "images": []}, {"id": 390859, "min_date": "2018-07-10T10:48:00Z", "max_date": "2018-07-10T10:48:00Z", "count_points": 2, "latitude": 48.0287, "longitude": 33.14417, "city": "Lozuvatka", "images": []}, {"id": 390860, "min_date": "2018-07-10T10:48:00Z", "max_date": "2018-07-10T10:48:00Z", "count_points": 3, "latitude": 48.77892, "longitude": 33.80802, "city": "Lykhivka", "images": []}, {"id": 390861, "min_date": "2018-07-10T10:48:00Z", "max_date": "2018-07-12T11:54:00Z", "count_points": 2, "latitude": 45.87351, "longitude": 29.61438, "city": "Tatarbunary", "images": []}, {"id": 390862, "min_date": "2018-07-10T10:48:00Z", "max_date": "2018-07-10T10:48:00Z", "count_points": 1, "latitude": 49.20797, "longitude": 34.47015, "city": "Novi Sanzhary", "images": []}, {"id": 390863, "min_date": "2018-07-10T10:48:00Z", "max_date": "2018-07-10T10:48:00Z", "count_points": 1, "latitude": 48.55318, "longitude": 36.18796, "city": "Yur\u201dyivka", "images": []}, {"id": 390864, "min_date": "2018-07-10T10:48:00Z", "max_date": "2018-07-10T10:48:00Z", "count_points": 1, "latitude": 48.87179, "longitude": 30.83641, "city": "Glybochek", "images": []}, {"id": 390865, "min_date": "2018-07-10T10:48:00Z", "max_date": "2018-07-13T09:54:00Z", "count_points": 6, "latitude": 48.77157, "longitude": 36.36946, "city": "Lozova", "images": []}, {"id": 390866, "min_date": "2018-07-10T10:48:00Z", "max_date": "2018-07-10T10:48:00Z", "count_points": 1, "latitude": 50.28854, "longitude": 28.60165, "city": "Zhytomyr", "images": []}, {"id": 390867, "min_date": "2018-07-10T10:48:00Z", "max_date": "2018-07-10T10:08:00Z", "count_points": 17, "latitude": 46.75084, "longitude": 30.75806, "city": "Kremidivka", "images": []}, {"id": 390868, "min_date": "2018-07-10T10:48:00Z", "max_date": "2018-07-11T10:51:00Z", "count_points": 21, "latitude": 46.05244, "longitude": 30.05697, "city": "Kulevcha", "images": []}, {"id": 390869, "min_date": "2018-07-10T10:48:00Z", "max_date": "2018-07-10T10:48:00Z", "count_points": 1, "latitude": 46.64719, "longitude": 30.87454, "city": "Fontanka", "images": []}, {"id": 390870, "min_date": "2018-07-10T10:48:00Z", "max_date": "2018-07-10T10:48:00Z", "count_points": 1, "latitude": 45.8624, "longitude": 30.1565, "city": "Serhiyivka", "images": []}, {"id": 390871, "min_date": "2018-07-10T10:48:00Z", "max_date": "2018-07-10T10:48:00Z", "count_points": 2, "latitude": 45.92569, "longitude": 30.2673, "city": "Serhiyivka", "images": []}, {"id": 390872, "min_date": "2018-07-10T10:48:00Z", "max_date": "2018-07-10T10:48:00Z", "count_points": 2, "latitude": 47.44769, "longitude": 32.077, "city": "Nova Odesa", "images": []}, {"id": 390873, "min_date": "2018-07-10T10:48:00Z", "max_date": "2018-07-10T10:48:00Z", "count_points": 1, "latitude": 46.31998, "longitude": 32.34308, "city": "Chulakivka", "images": []}, {"id": 390874, "min_date": "2018-07-10T10:48:00Z", "max_date": "2018-07-10T10:48:00Z", "count_points": 3, "latitude": 47.65782, "longitude": 30.40666, "city": "Lyubashivka", "images": []}, {"id": 390875, "min_date": "2018-07-10T10:48:00Z", "max_date": "2018-07-10T10:48:00Z", "count_points": 1, "latitude": 48.98006, "longitude": 35.15932, "city": "Hubynykha", "images": []}, {"id": 390876, "min_date": "2018-07-10T10:48:00Z", "max_date": "2018-07-10T10:48:00Z", "count_points": 1, "latitude": 48.99, "longitude": 35.41752, "city": "Hubynykha", "images": []}, {"id": 390877, "min_date": "2018-07-10T10:48:00Z", "max_date": "2018-07-10T10:48:00Z", "count_points": 3, "latitude": 49.20875, "longitude": 39.76736, "city": "Bilovodsk", "images": []}, {"id": 390878, "min_date": "2018-07-10T10:48:00Z", "max_date": "2018-07-10T10:48:00Z", "count_points": 1, "latitude": 46.7393, "longitude": 30.93112, "city": "Dobroslav", "images": []}, {"id": 390879, "min_date": "2018-07-10T10:48:00Z", "max_date": "2018-07-14T23:30:00Z", "count_points": 6, "latitude": 46.7405, "longitude": 30.13927, "city": "Stepove", "images": []}, {"id": 390880, "min_date": "2018-07-10T10:48:00Z", "max_date": "2018-07-10T10:48:00Z", "count_points": 1, "latitude": 46.09349, "longitude": 32.54931, "city": "Lazurne", "images": []}, {"id": 390881, "min_date": "2018-07-10T10:48:00Z", "max_date": "2018-07-10T10:48:00Z", "count_points": 1, "latitude": 48.12028, "longitude": 32.5874, "city": "Molodizhne", "images": []}, {"id": 390882, "min_date": "2018-07-10T10:48:00Z", "max_date": "2018-07-14T19:10:00Z", "count_points": 3, "latitude": 47.76025, "longitude": 32.67637, "city": "Novyy Buh", "images": []}, {"id": 390883, "min_date": "2018-07-10T23:00:00Z", "max_date": "2018-07-11T00:42:00Z", "count_points": 3, "latitude": 48.36201, "longitude": 37.93223, "city": "Dzerzhyns\u2019k", "images": []}, {"id": 390884, "min_date": "2018-07-10T23:00:00Z", "max_date": "2018-07-13T09:54:00Z", "count_points": 10, "latitude": 49.49126, "longitude": 38.51488, "city": "Bilokurakyne", "images": []}, {"id": 390885, "min_date": "2018-07-10T23:00:00Z", "max_date": "2018-07-10T23:00:00Z", "count_points": 2, "latitude": 48.33755, "longitude": 39.05779, "city": "Uspenka", "images": []}, {"id": 390886, "min_date": "2018-07-10T23:00:00Z", "max_date": "2018-07-10T23:00:00Z", "count_points": 3, "latitude": 49.06947, "longitude": 24.28435, "city": "Kalush", "images": []}, {"id": 390887, "min_date": "2018-07-10T23:06:00Z", "max_date": "2018-07-11T00:42:00Z", "count_points": 2, "latitude": 45.96111, "longitude": 29.39615, "city": "Artsyz", "images": []}, {"id": 390888, "min_date": "2018-07-10T23:06:00Z", "max_date": "2018-07-12T00:24:00Z", "count_points": 6, "latitude": 46.59779, "longitude": 30.44276, "city": "Teplodar", "images": []}, {"id": 390889, "min_date": "2018-07-10T23:06:00Z", "max_date": "2018-07-15T23:12:00Z", "count_points": 5, "latitude": 47.45124, "longitude": 32.8841, "city": "Bereznehuvate", "images": []}, {"id": 390890, "min_date": "2018-07-10T23:06:00Z", "max_date": "2018-07-10T23:06:00Z", "count_points": 2, "latitude": 48.1775, "longitude": 38.25528, "city": "Yenakiyeve", "images": []}, {"id": 390891, "min_date": "2018-07-10T23:06:00Z", "max_date": "2018-07-10T23:06:00Z", "count_points": 1, "latitude": 48.09235, "longitude": 37.99207, "city": "Krinichnaya", "images": []}, {"id": 390892, "min_date": "2018-07-10T23:06:00Z", "max_date": "2018-07-10T23:06:00Z", "count_points": 3, "latitude": 47.74406, "longitude": 36.51485, "city": "Hulyaypole", "images": []}, {"id": 390893, "min_date": "2018-07-10T23:06:00Z", "max_date": "2018-07-10T23:06:00Z", "count_points": 1, "latitude": 47.74, "longitude": 35.94296, "city": "Ternuvate", "images": []}, {"id": 390894, "min_date": "2018-07-10T23:06:00Z", "max_date": "2018-07-12T09:56:00Z", "count_points": 14, "latitude": 48.24385, "longitude": 36.39364, "city": "Petropavlivka", "images": []}, {"id": 390895, "min_date": "2018-07-10T23:06:00Z", "max_date": "2018-07-10T23:06:00Z", "count_points": 1, "latitude": 47.77668, "longitude": 35.67136, "city": "Kirove", "images": []}, {"id": 390896, "min_date": "2018-07-10T23:06:00Z", "max_date": "2018-07-10T23:06:00Z", "count_points": 1, "latitude": 47.74435, "longitude": 35.67717, "city": "Kirove", "images": []}, {"id": 390897, "min_date": "2018-07-10T23:06:00Z", "max_date": "2018-07-12T11:34:00Z", "count_points": 15, "latitude": 48.21856, "longitude": 36.20349, "city": "Vasyl\u2019kivka", "images": []}, {"id": 390898, "min_date": "2018-07-10T23:06:00Z", "max_date": "2018-07-13T23:48:00Z", "count_points": 3, "latitude": 48.24309, "longitude": 37.33014, "city": "Myrnohrad", "images": []}, {"id": 390899, "min_date": "2018-07-10T23:06:00Z", "max_date": "2018-07-10T23:06:00Z", "count_points": 1, "latitude": 47.82903, "longitude": 36.14967, "city": "Ternuvate", "images": []}, {"id": 390900, "min_date": "2018-07-10T23:06:00Z", "max_date": "2018-07-11T09:09:00Z", "count_points": 13, "latitude": 46.8244, "longitude": 31.25234, "city": "Berezanka", "images": []}, {"id": 390901, "min_date": "2018-07-10T23:06:00Z", "max_date": "2018-07-13T10:39:00Z", "count_points": 17, "latitude": 46.98946, "longitude": 29.60334, "city": "Velykoploske", "images": []}, {"id": 390902, "min_date": "2018-07-10T23:06:00Z", "max_date": "2018-07-11T09:09:00Z", "count_points": 7, "latitude": 46.5249, "longitude": 30.42993, "city": "Teplodar", "images": []}, {"id": 390903, "min_date": "2018-07-10T23:06:00Z", "max_date": "2018-07-10T23:06:00Z", "count_points": 2, "latitude": 47.02903, "longitude": 30.36621, "city": "Ivanivka", "images": []}, {"id": 390904, "min_date": "2018-07-10T23:06:00Z", "max_date": "2018-07-10T23:06:00Z", "count_points": 2, "latitude": 47.36296, "longitude": 35.36173, "city": "Pryshyb", "images": []}, {"id": 390905, "min_date": "2018-07-10T23:06:00Z", "max_date": "2018-07-11T10:30:00Z", "count_points": 3, "latitude": 47.8628, "longitude": 34.29218, "city": "Chortomlyk", "images": []}, {"id": 390906, "min_date": "2018-07-10T23:06:00Z", "max_date": "2018-07-10T23:42:00Z", "count_points": 15, "latitude": 47.18984, "longitude": 34.59941, "city": "Velyka Bilozerka", "images": []}, {"id": 390907, "min_date": "2018-07-10T23:06:00Z", "max_date": "2018-07-10T23:06:00Z", "count_points": 1, "latitude": 47.92881, "longitude": 29.62176, "city": "Balta", "images": []}, {"id": 390908, "min_date": "2018-07-10T23:06:00Z", "max_date": "2018-07-10T23:06:00Z", "count_points": 1, "latitude": 48.4095, "longitude": 35.05254, "city": "Aviatorske", "images": []}, {"id": 390909, "min_date": "2018-07-10T23:06:00Z", "max_date": "2018-07-13T09:54:00Z", "count_points": 10, "latitude": 47.34673, "longitude": 33.58779, "city": "Vysokopillya", "images": []}, {"id": 390910, "min_date": "2018-07-10T23:06:00Z", "max_date": "2018-07-13T10:39:00Z", "count_points": 13, "latitude": 46.90107, "longitude": 34.02505, "city": "Velyka Lepetykha", "images": []}, {"id": 390911, "min_date": "2018-07-10T23:06:00Z", "max_date": "2018-07-11T00:42:00Z", "count_points": 2, "latitude": 48.35704, "longitude": 33.71339, "city": "Piatykhatky", "images": []}, {"id": 390912, "min_date": "2018-07-10T23:06:00Z", "max_date": "2018-07-10T23:06:00Z", "count_points": 1, "latitude": 46.89376, "longitude": 33.47116, "city": "Beryslav", "images": []}, {"id": 390913, "min_date": "2018-07-10T23:06:00Z", "max_date": "2018-07-11T00:42:00Z", "count_points": 3, "latitude": 47.38953, "longitude": 34.06177, "city": "Novovorontsovka", "images": []}, {"id": 390914, "min_date": "2018-07-10T23:06:00Z", "max_date": "2018-07-11T00:42:00Z", "count_points": 3, "latitude": 48.33049, "longitude": 33.6825, "city": "Piatykhatky", "images": []}, {"id": 390915, "min_date": "2018-07-10T23:06:00Z", "max_date": "2018-07-10T23:06:00Z", "count_points": 1, "latitude": 48.08071, "longitude": 33.47591, "city": "Lozuvatka", "images": []}, {"id": 390916, "min_date": "2018-07-10T23:06:00Z", "max_date": "2018-07-10T19:35:00Z", "count_points": 6, "latitude": 48.1253, "longitude": 33.66179, "city": "Sofiyivka", "images": []}, {"id": 390917, "min_date": "2018-07-10T23:06:00Z", "max_date": "2018-07-12T10:12:00Z", "count_points": 4, "latitude": 47.59344, "longitude": 33.906, "city": "Novovorontsovka", "images": []}, {"id": 390918, "min_date": "2018-07-10T23:06:00Z", "max_date": "2018-07-10T23:06:00Z", "count_points": 3, "latitude": 47.15666, "longitude": 37.80021, "city": "Sartana", "images": []}, {"id": 390919, "min_date": "2018-07-10T23:06:00Z", "max_date": "2018-07-10T19:35:00Z", "count_points": 3, "latitude": 48.29568, "longitude": 35.28495, "city": "Kaydaki", "images": []}, {"id": 390920, "min_date": "2018-07-10T23:06:00Z", "max_date": "2018-07-10T23:06:00Z", "count_points": 2, "latitude": 48.18892, "longitude": 37.3449, "city": "Selydove", "images": []}, {"id": 390921, "min_date": "2018-07-10T23:06:00Z", "max_date": "2018-07-10T23:06:00Z", "count_points": 1, "latitude": 47.63759, "longitude": 36.2468, "city": "Hulyaypole", "images": []}, {"id": 390922, "min_date": "2018-07-10T23:06:00Z", "max_date": "2018-07-12T10:12:00Z", "count_points": 3, "latitude": 47.60971, "longitude": 35.75591, "city": "Orikhiv", "images": []}, {"id": 390923, "min_date": "2018-07-10T23:06:00Z", "max_date": "2018-07-10T23:42:00Z", "count_points": 7, "latitude": 46.83249, "longitude": 33.04848, "city": "Kozachi Laheri", "images": []}, {"id": 390924, "min_date": "2018-07-10T23:06:00Z", "max_date": "2018-07-11T09:09:00Z", "count_points": 8, "latitude": 46.4836, "longitude": 30.5094, "city": "Usatove", "images": []}, {"id": 390925, "min_date": "2018-07-10T23:06:00Z", "max_date": "2018-07-11T10:51:00Z", "count_points": 8, "latitude": 46.07903, "longitude": 30.31354, "city": "Serhiyivka", "images": []}, {"id": 390926, "min_date": "2018-07-11T00:42:00Z", "max_date": "2018-07-12T10:12:00Z", "count_points": 4, "latitude": 46.98844, "longitude": 34.02054, "city": "Velyka Lepetykha", "images": []}, {"id": 390927, "min_date": "2018-07-11T00:42:00Z", "max_date": "2018-07-12T19:22:00Z", "count_points": 7, "latitude": 46.12584, "longitude": 30.20536, "city": "Bilhorod-Dnistrovskyi", "images": []}, {"id": 390928, "min_date": "2018-07-11T00:42:00Z", "max_date": "2018-07-11T00:42:00Z", "count_points": 2, "latitude": 48.01886, "longitude": 35.47633, "city": "Vil\u2019nyans\u2019k", "images": []}, {"id": 390929, "min_date": "2018-07-11T00:42:00Z", "max_date": "2018-07-11T00:42:00Z", "count_points": 2, "latitude": 48.21137, "longitude": 33.26002, "city": "Petrove", "images": []}, {"id": 390930, "min_date": "2018-07-11T00:42:00Z", "max_date": "2018-07-11T22:42:00Z", "count_points": 5, "latitude": 46.87657, "longitude": 30.0536, "city": "Rozdil\u2019na", "images": []}, {"id": 390931, "min_date": "2018-07-11T00:42:00Z", "max_date": "2018-07-11T00:42:00Z", "count_points": 4, "latitude": 48.29192, "longitude": 36.8509, "city": "Mezhova", "images": []}, {"id": 390932, "min_date": "2018-07-11T00:42:00Z", "max_date": "2018-07-11T00:42:00Z", "count_points": 1, "latitude": 48.00019, "longitude": 36.06257, "city": "Novomykolayivka", "images": []}, {"id": 390933, "min_date": "2018-07-11T00:42:00Z", "max_date": "2018-07-13T08:56:00Z", "count_points": 3, "latitude": 48.15291, "longitude": 36.23379, "city": "Pokrovs\u2019ke", "images": []}, {"id": 390934, "min_date": "2018-07-11T00:42:00Z", "max_date": "2018-07-11T00:42:00Z", "count_points": 3, "latitude": 46.96173, "longitude": 34.28198, "city": "Nyzhni Sirohozy", "images": []}, {"id": 390935, "min_date": "2018-07-11T00:42:00Z", "max_date": "2018-07-12T00:24:00Z", "count_points": 2, "latitude": 51.8505, "longitude": 24.83767, "city": "Rakiv Lis", "images": []}, {"id": 390936, "min_date": "2018-07-11T00:42:00Z", "max_date": "2018-07-11T00:42:00Z", "count_points": 1, "latitude": 46.769, "longitude": 30.89575, "city": "Dobroslav", "images": []}, {"id": 390937, "min_date": "2018-07-11T00:42:00Z", "max_date": "2018-07-11T00:42:00Z", "count_points": 1, "latitude": 51.13084, "longitude": 27.45615, "city": "Olevs\u2019k", "images": []}, {"id": 390938, "min_date": "2018-07-11T00:42:00Z", "max_date": "2018-07-11T00:42:00Z", "count_points": 4, "latitude": 47.45356, "longitude": 37.88076, "city": "Tel\u2019manove", "images": []}, {"id": 390939, "min_date": "2018-07-11T08:48:00Z", "max_date": "2018-07-11T08:48:00Z", "count_points": 1, "latitude": 49.14337, "longitude": 39.26103, "city": "Novoaydar", "images": []}, {"id": 390940, "min_date": "2018-07-11T10:30:00Z", "max_date": "2018-07-12T11:54:00Z", "count_points": 4, "latitude": 45.92728, "longitude": 29.03275, "city": "Dmytrivka", "images": []}, {"id": 390941, "min_date": "2018-07-11T10:30:00Z", "max_date": "2018-07-12T09:52:00Z", "count_points": 11, "latitude": 45.96928, "longitude": 28.91608, "city": "Novi Troyany", "images": []}, {"id": 390942, "min_date": "2018-07-11T10:30:00Z", "max_date": "2018-07-11T10:30:00Z", "count_points": 2, "latitude": 47.36891, "longitude": 35.06035, "city": "Dniprorudne", "images": []}, {"id": 390943, "min_date": "2018-07-11T10:30:00Z", "max_date": "2018-07-11T09:08:00Z", "count_points": 3, "latitude": 47.01884, "longitude": 34.28697, "city": "Nyzhni Sirohozy", "images": []}, {"id": 390944, "min_date": "2018-07-11T10:30:00Z", "max_date": "2018-07-11T10:30:00Z", "count_points": 1, "latitude": 45.08274, "longitude": 35.39369, "city": "Beregovoye", "images": []}, {"id": 390945, "min_date": "2018-07-11T10:30:00Z", "max_date": "2018-07-11T10:51:00Z", "count_points": 16, "latitude": 46.30641, "longitude": 34.31121, "city": "Novotroyits\u2019ke", "images": []}, {"id": 390946, "min_date": "2018-07-11T10:30:00Z", "max_date": "2018-07-11T20:19:00Z", "count_points": 14, "latitude": 51.84882, "longitude": 25.30876, "city": "Lyubeshiv", "images": []}, {"id": 390947, "min_date": "2018-07-11T10:30:00Z", "max_date": "2018-07-10T19:34:00Z", "count_points": 5, "latitude": 46.35712, "longitude": 34.4649, "city": "Novotroyits\u2019ke", "images": []}, {"id": 390948, "min_date": "2018-07-11T10:30:00Z", "max_date": "2018-07-15T10:54:00Z", "count_points": 4, "latitude": 46.65606, "longitude": 34.55438, "city": "Ivanivka", "images": []}, {"id": 390949, "min_date": "2018-07-11T10:30:00Z", "max_date": "2018-07-11T10:30:00Z", "count_points": 2, "latitude": 46.90947, "longitude": 34.21326, "city": "Nyzhni Sirohozy", "images": []}, {"id": 390950, "min_date": "2018-07-11T10:30:00Z", "max_date": "2018-07-13T08:56:00Z", "count_points": 3, "latitude": 46.94909, "longitude": 34.04852, "city": "Velyka Lepetykha", "images": []}, {"id": 390951, "min_date": "2018-07-11T10:30:00Z", "max_date": "2018-07-11T10:51:00Z", "count_points": 6, "latitude": 47.15427, "longitude": 35.7236, "city": "Tokmak", "images": []}, {"id": 390952, "min_date": "2018-07-11T10:30:00Z", "max_date": "2018-07-13T10:39:00Z", "count_points": 8, "latitude": 47.00094, "longitude": 33.7596, "city": "Hornostayivka", "images": []}, {"id": 390953, "min_date": "2018-07-11T10:30:00Z", "max_date": "2018-07-11T10:30:00Z", "count_points": 1, "latitude": 47.70469, "longitude": 33.89901, "city": "Sholokhove", "images": []}, {"id": 390954, "min_date": "2018-07-11T10:30:00Z", "max_date": "2018-07-10T19:34:00Z", "count_points": 7, "latitude": 47.56602, "longitude": 33.80599, "city": "Apostolove", "images": []}, {"id": 390955, "min_date": "2018-07-11T10:30:00Z", "max_date": "2018-07-12T09:51:00Z", "count_points": 5, "latitude": 46.60954, "longitude": 33.92697, "city": "Askaniya-Nova", "images": []}, {"id": 390956, "min_date": "2018-07-11T10:30:00Z", "max_date": "2018-07-11T10:30:00Z", "count_points": 1, "latitude": 46.8301, "longitude": 36.25286, "city": "Prymors\u2019k", "images": []}, {"id": 390957, "min_date": "2018-07-11T10:30:00Z", "max_date": "2018-07-11T10:51:00Z", "count_points": 3, "latitude": 47.61927, "longitude": 33.43441, "city": "Vysokopillya", "images": []}, {"id": 390958, "min_date": "2018-07-11T10:30:00Z", "max_date": "2018-07-11T10:51:00Z", "count_points": 2, "latitude": 46.8411, "longitude": 36.1994, "city": "Prymors\u2019k", "images": []}, {"id": 390959, "min_date": "2018-07-11T10:30:00Z", "max_date": "2018-07-11T10:51:00Z", "count_points": 3, "latitude": 46.59184, "longitude": 33.83802, "city": "Askaniya-Nova", "images": []}, {"id": 390960, "min_date": "2018-07-11T10:30:00Z", "max_date": "2018-07-11T10:30:00Z", "count_points": 1, "latitude": 45.54394, "longitude": 29.45279, "city": "Shevchenkove", "images": []}, {"id": 390961, "min_date": "2018-07-11T10:30:00Z", "max_date": "2018-07-11T10:51:00Z", "count_points": 4, "latitude": 45.57983, "longitude": 29.5099, "city": "Shevchenkove", "images": []}, {"id": 390962, "min_date": "2018-07-11T10:30:00Z", "max_date": "2018-07-11T09:09:00Z", "count_points": 5, "latitude": 45.89217, "longitude": 29.74036, "city": "Zorya", "images": []}, {"id": 390963, "min_date": "2018-07-11T10:30:00Z", "max_date": "2018-07-13T10:39:00Z", "count_points": 24, "latitude": 46.32433, "longitude": 29.154, "city": "Borodino", "images": []}, {"id": 390964, "min_date": "2018-07-11T10:30:00Z", "max_date": "2018-07-12T23:30:00Z", "count_points": 27, "latitude": 45.8786, "longitude": 29.27378, "city": "Artsyz", "images": []}, {"id": 390965, "min_date": "2018-07-11T10:30:00Z", "max_date": "2018-07-13T00:06:00Z", "count_points": 20, "latitude": 46.21293, "longitude": 29.19667, "city": "Berezyne", "images": []}, {"id": 390966, "min_date": "2018-07-11T10:30:00Z", "max_date": "2018-07-11T10:30:00Z", "count_points": 1, "latitude": 47.21104, "longitude": 30.95289, "city": "Berezivka", "images": []}, {"id": 390967, "min_date": "2018-07-11T10:30:00Z", "max_date": "2018-07-11T10:30:00Z", "count_points": 1, "latitude": 46.87784, "longitude": 33.1981, "city": "Dnipryany", "images": []}, {"id": 390968, "min_date": "2018-07-11T10:30:00Z", "max_date": "2018-07-11T09:08:00Z", "count_points": 2, "latitude": 47.50601, "longitude": 30.92868, "city": "Domanivka", "images": []}, {"id": 390969, "min_date": "2018-07-11T10:30:00Z", "max_date": "2018-07-11T10:30:00Z", "count_points": 1, "latitude": 45.96832, "longitude": 29.09287, "city": "Dmytrivka", "images": []}, {"id": 390970, "min_date": "2018-07-11T10:30:00Z", "max_date": "2018-07-11T10:30:00Z", "count_points": 3, "latitude": 47.24828, "longitude": 30.10115, "city": "Shyryayeve", "images": []}, {"id": 390971, "min_date": "2018-07-11T10:30:00Z", "max_date": "2018-07-11T10:30:00Z", "count_points": 1, "latitude": 47.25418, "longitude": 32.56862, "city": "Bashtanka", "images": []}, {"id": 390972, "min_date": "2018-07-11T10:30:00Z", "max_date": "2018-07-11T10:30:00Z", "count_points": 1, "latitude": 47.29588, "longitude": 29.75812, "city": "Zakharivka", "images": []}, {"id": 390973, "min_date": "2018-07-11T10:30:00Z", "max_date": "2018-07-14T11:21:00Z", "count_points": 7, "latitude": 46.10355, "longitude": 29.47307, "city": "Artsyz", "images": []}, {"id": 390974, "min_date": "2018-07-11T10:30:00Z", "max_date": "2018-07-11T10:30:00Z", "count_points": 1, "latitude": 46.0288, "longitude": 29.41366, "city": "Artsyz", "images": []}, {"id": 390975, "min_date": "2018-07-11T10:30:00Z", "max_date": "2018-07-11T10:30:00Z", "count_points": 1, "latitude": 46.10942, "longitude": 30.06796, "city": "Kulevcha", "images": []}, {"id": 390976, "min_date": "2018-07-11T10:30:00Z", "max_date": "2018-07-13T20:05:00Z", "count_points": 7, "latitude": 45.9764, "longitude": 30.06379, "city": "Kulevcha", "images": []}, {"id": 390977, "min_date": "2018-07-11T10:30:00Z", "max_date": "2018-07-15T19:53:00Z", "count_points": 3, "latitude": 47.12368, "longitude": 30.72716, "city": "Berezivka", "images": []}, {"id": 390978, "min_date": "2018-07-11T10:30:00Z", "max_date": "2018-07-14T09:36:00Z", "count_points": 5, "latitude": 45.85819, "longitude": 30.02127, "city": "Kulevcha", "images": []}, {"id": 390979, "min_date": "2018-07-11T10:30:00Z", "max_date": "2018-07-11T10:30:00Z", "count_points": 2, "latitude": 47.16811, "longitude": 29.96867, "city": "Velyka Mykhaylivka", "images": []}, {"id": 390980, "min_date": "2018-07-11T10:30:00Z", "max_date": "2018-07-10T19:34:00Z", "count_points": 3, "latitude": 46.83454, "longitude": 29.94371, "city": "Stepanivka", "images": []}, {"id": 390981, "min_date": "2018-07-11T10:30:00Z", "max_date": "2018-07-15T19:53:00Z", "count_points": 17, "latitude": 46.04422, "longitude": 29.1681, "city": "Tarutyne", "images": []}, {"id": 390982, "min_date": "2018-07-11T10:30:00Z", "max_date": "2018-07-11T10:30:00Z", "count_points": 1, "latitude": 46.97749, "longitude": 30.56231, "city": "Ivanivka", "images": []}, {"id": 390983, "min_date": "2018-07-11T10:30:00Z", "max_date": "2018-07-11T10:30:00Z", "count_points": 1, "latitude": 46.21453, "longitude": 30.0604, "city": "Starokozache", "images": []}, {"id": 390984, "min_date": "2018-07-11T10:30:00Z", "max_date": "2018-07-11T10:51:00Z", "count_points": 2, "latitude": 46.15336, "longitude": 29.74213, "city": "Plakhtiyivka", "images": []}, {"id": 390985, "min_date": "2018-07-11T10:30:00Z", "max_date": "2018-07-11T09:08:00Z", "count_points": 5, "latitude": 47.15914, "longitude": 32.59674, "city": "Snihurivka", "images": []}, {"id": 390986, "min_date": "2018-07-11T10:30:00Z", "max_date": "2018-07-11T10:30:00Z", "count_points": 1, "latitude": 47.21505, "longitude": 32.63776, "city": "Snihurivka", "images": []}, {"id": 390987, "min_date": "2018-07-11T10:30:00Z", "max_date": "2018-07-12T10:12:00Z", "count_points": 3, "latitude": 45.65927, "longitude": 29.49035, "city": "Shevchenkove", "images": []}, {"id": 390988, "min_date": "2018-07-11T10:30:00Z", "max_date": "2018-07-11T09:09:00Z", "count_points": 2, "latitude": 45.78334, "longitude": 29.29852, "city": "Shevchenkove", "images": []}, {"id": 390989, "min_date": "2018-07-11T10:30:00Z", "max_date": "2018-07-11T10:30:00Z", "count_points": 1, "latitude": 45.82901, "longitude": 29.50464, "city": "Tatarbunary", "images": []}, {"id": 390990, "min_date": "2018-07-11T10:30:00Z", "max_date": "2018-07-15T08:44:00Z", "count_points": 3, "latitude": 45.83412, "longitude": 29.88558, "city": "Kulevcha", "images": []}, {"id": 390991, "min_date": "2018-07-11T10:30:00Z", "max_date": "2018-07-11T10:51:00Z", "count_points": 9, "latitude": 46.85911, "longitude": 31.23038, "city": "Berezanka", "images": []}, {"id": 390992, "min_date": "2018-07-11T10:30:00Z", "max_date": "2018-07-11T10:30:00Z", "count_points": 1, "latitude": 46.30365, "longitude": 30.0051, "city": "Starokozache", "images": []}, {"id": 390993, "min_date": "2018-07-11T10:30:00Z", "max_date": "2018-07-11T10:30:00Z", "count_points": 1, "latitude": 47.00023, "longitude": 30.04668, "city": "Rozdil\u2019na", "images": []}, {"id": 390994, "min_date": "2018-07-11T10:30:00Z", "max_date": "2018-07-10T08:26:00Z", "count_points": 3, "latitude": 45.58862, "longitude": 29.36678, "city": "Shevchenkove", "images": []}, {"id": 390995, "min_date": "2018-07-11T10:30:00Z", "max_date": "2018-07-11T10:30:00Z", "count_points": 1, "latitude": 46.26031, "longitude": 29.89519, "city": "Kamyshevka Vtoraya", "images": []}, {"id": 390996, "min_date": "2018-07-11T10:30:00Z", "max_date": "2018-07-11T20:17:00Z", "count_points": 9, "latitude": 46.18125, "longitude": 29.4636, "city": "Artsyz", "images": []}, {"id": 390997, "min_date": "2018-07-11T10:30:00Z", "max_date": "2018-07-11T10:30:00Z", "count_points": 1, "latitude": 46.80351, "longitude": 31.11697, "city": "Kobleve", "images": []}, {"id": 390998, "min_date": "2018-07-11T10:30:00Z", "max_date": "2018-07-11T10:30:00Z", "count_points": 1, "latitude": 47.23478, "longitude": 35.67332, "city": "Tokmak", "images": []}, {"id": 390999, "min_date": "2018-07-11T10:30:00Z", "max_date": "2018-07-11T10:30:00Z", "count_points": 1, "latitude": 51.59482, "longitude": 27.18033, "city": "Rokytne", "images": []}, {"id": 391000, "min_date": "2018-07-11T10:30:00Z", "max_date": "2018-07-11T10:30:00Z", "count_points": 1, "latitude": 49.32807, "longitude": 24.79198, "city": "Bilshivtsi", "images": []}, {"id": 391001, "min_date": "2018-07-11T10:30:00Z", "max_date": "2018-07-11T10:30:00Z", "count_points": 1, "latitude": 49.71724, "longitude": 23.4429, "city": "Rudky", "images": []}, {"id": 391002, "min_date": "2018-07-11T10:30:00Z", "max_date": "2018-07-11T10:30:00Z", "count_points": 1, "latitude": 49.10159, "longitude": 26.90363, "city": "Dunayivtsi", "images": []}, {"id": 391003, "min_date": "2018-07-11T10:30:00Z", "max_date": "2018-07-11T09:09:00Z", "count_points": 4, "latitude": 46.30429, "longitude": 34.24086, "city": "Novotroyits\u2019ke", "images": []}, {"id": 391004, "min_date": "2018-07-11T10:30:00Z", "max_date": "2018-07-11T10:51:00Z", "count_points": 3, "latitude": 46.41679, "longitude": 30.33416, "city": "Mayaky", "images": []}, {"id": 391005, "min_date": "2018-07-11T10:30:00Z", "max_date": "2018-07-13T08:56:00Z", "count_points": 4, "latitude": 46.61166, "longitude": 30.27128, "city": "Teplodar", "images": []}, {"id": 391006, "min_date": "2018-07-11T10:30:00Z", "max_date": "2018-07-11T09:09:00Z", "count_points": 11, "latitude": 46.75001, "longitude": 30.27031, "city": "Stepove", "images": []}, {"id": 391007, "min_date": "2018-07-11T10:30:00Z", "max_date": "2018-07-11T10:30:00Z", "count_points": 1, "latitude": 45.66754, "longitude": 28.86584, "city": "Kalcheva", "images": []}, {"id": 391008, "min_date": "2018-07-11T10:30:00Z", "max_date": "2018-07-12T19:22:00Z", "count_points": 7, "latitude": 47.81044, "longitude": 34.4807, "city": "Chervonohryhorivka", "images": []}, {"id": 391009, "min_date": "2018-07-11T10:30:00Z", "max_date": "2018-07-11T10:51:00Z", "count_points": 3, "latitude": 47.14306, "longitude": 35.14639, "city": "Tymoshivka", "images": []}, {"id": 391010, "min_date": "2018-07-11T10:30:00Z", "max_date": "2018-07-13T10:39:00Z", "count_points": 9, "latitude": 47.09492, "longitude": 34.20762, "city": "Verkhniy Rohachyk", "images": []}, {"id": 391011, "min_date": "2018-07-11T10:30:00Z", "max_date": "2018-07-11T10:51:00Z", "count_points": 8, "latitude": 47.08057, "longitude": 34.25414, "city": "Verkhniy Rohachyk", "images": []}, {"id": 391012, "min_date": "2018-07-11T10:30:00Z", "max_date": "2018-07-11T10:30:00Z", "count_points": 1, "latitude": 45.38501, "longitude": 28.30634, "city": "Reni", "images": []}, {"id": 391013, "min_date": "2018-07-11T10:30:00Z", "max_date": "2018-07-11T10:30:00Z", "count_points": 1, "latitude": 45.78118, "longitude": 28.99658, "city": "Horodnye", "images": []}, {"id": 391014, "min_date": "2018-07-11T10:30:00Z", "max_date": "2018-07-11T10:30:00Z", "count_points": 1, "latitude": 46.20858, "longitude": 33.32844, "city": "Kalanchak", "images": []}, {"id": 391015, "min_date": "2018-07-11T10:30:00Z", "max_date": "2018-07-11T09:09:00Z", "count_points": 4, "latitude": 46.77601, "longitude": 30.71121, "city": "Kremidivka", "images": []}, {"id": 391016, "min_date": "2018-07-11T10:30:00Z", "max_date": "2018-07-11T10:30:00Z", "count_points": 1, "latitude": 45.28869, "longitude": 34.08964, "city": "Amurskoye", "images": []}, {"id": 391017, "min_date": "2018-07-11T10:30:00Z", "max_date": "2018-07-11T10:51:00Z", "count_points": 9, "latitude": 46.66446, "longitude": 30.06983, "city": "Stepove", "images": []}, {"id": 391018, "min_date": "2018-07-11T12:12:00Z", "max_date": "2018-07-13T11:30:00Z", "count_points": 7, "latitude": 45.65205, "longitude": 28.65437, "city": "Bolhrad", "images": []}, {"id": 391019, "min_date": "2018-07-11T12:12:00Z", "max_date": "2018-07-11T12:12:00Z", "count_points": 1, "latitude": 49.00303, "longitude": 25.26687, "city": "Zolotyy Potik", "images": []}, {"id": 391020, "min_date": "2018-07-11T22:42:00Z", "max_date": "2018-07-12T10:12:00Z", "count_points": 5, "latitude": 46.74967, "longitude": 33.69929, "city": "Lyubymivka", "images": []}, {"id": 391021, "min_date": "2018-07-11T22:42:00Z", "max_date": "2018-07-15T19:53:00Z", "count_points": 2, "latitude": 47.29702, "longitude": 33.66155, "city": "Dudchany", "images": []}, {"id": 391022, "min_date": "2018-07-11T22:42:00Z", "max_date": "2018-07-12T00:24:00Z", "count_points": 6, "latitude": 46.8683, "longitude": 34.65802, "city": "Ivanivka", "images": []}, {"id": 391023, "min_date": "2018-07-11T22:42:00Z", "max_date": "2018-07-14T23:30:00Z", "count_points": 16, "latitude": 45.61402, "longitude": 28.80171, "city": "Kalcheva", "images": []}, {"id": 391024, "min_date": "2018-07-11T22:42:00Z", "max_date": "2018-07-12T00:24:00Z", "count_points": 3, "latitude": 47.25077, "longitude": 34.64509, "city": "Velyka Bilozerka", "images": []}, {"id": 391025, "min_date": "2018-07-11T22:42:00Z", "max_date": "2018-07-12T00:25:00Z", "count_points": 10, "latitude": 46.6677, "longitude": 34.33827, "city": "Nyzhni Sirohozy", "images": []}, {"id": 391026, "min_date": "2018-07-11T22:42:00Z", "max_date": "2018-07-13T10:39:00Z", "count_points": 12, "latitude": 47.40663, "longitude": 34.26236, "city": "Kamenka-Na-Dnepre", "images": []}, {"id": 391027, "min_date": "2018-07-11T22:42:00Z", "max_date": "2018-07-11T22:42:00Z", "count_points": 1, "latitude": 46.76058, "longitude": 34.55641, "city": "Ivanivka", "images": []}, {"id": 391028, "min_date": "2018-07-11T22:42:00Z", "max_date": "2018-07-12T00:24:00Z", "count_points": 2, "latitude": 50.03018, "longitude": 35.33285, "city": "Huty", "images": []}, {"id": 391029, "min_date": "2018-07-11T22:42:00Z", "max_date": "2018-07-15T23:12:00Z", "count_points": 8, "latitude": 49.18215, "longitude": 33.45851, "city": "Kremenchuk", "images": []}, {"id": 391030, "min_date": "2018-07-11T22:42:00Z", "max_date": "2018-07-13T08:57:00Z", "count_points": 11, "latitude": 45.66702, "longitude": 29.79974, "city": "Tatarbunary", "images": []}, {"id": 391031, "min_date": "2018-07-11T22:42:00Z", "max_date": "2018-07-12T00:25:00Z", "count_points": 14, "latitude": 46.21744, "longitude": 29.59029, "city": "Plakhtiyivka", "images": []}, {"id": 391032, "min_date": "2018-07-11T22:42:00Z", "max_date": "2018-07-11T09:09:00Z", "count_points": 2, "latitude": 47.02046, "longitude": 29.64964, "city": "Velykoploske", "images": []}, {"id": 391033, "min_date": "2018-07-11T22:42:00Z", "max_date": "2018-07-12T00:24:00Z", "count_points": 2, "latitude": 46.84265, "longitude": 34.36156, "city": "Nyzhni Sirohozy", "images": []}, {"id": 391034, "min_date": "2018-07-11T22:42:00Z", "max_date": "2018-07-13T00:06:00Z", "count_points": 5, "latitude": 49.37718, "longitude": 37.77894, "city": "Borova", "images": []}, {"id": 391035, "min_date": "2018-07-11T22:42:00Z", "max_date": "2018-07-11T09:09:00Z", "count_points": 3, "latitude": 47.0081, "longitude": 30.1001, "city": "Rozdil\u2019na", "images": []}, {"id": 391036, "min_date": "2018-07-11T22:42:00Z", "max_date": "2018-07-12T00:24:00Z", "count_points": 3, "latitude": 46.84089, "longitude": 30.9987, "city": "Dobroslav", "images": []}, {"id": 391037, "min_date": "2018-07-11T22:42:00Z", "max_date": "2018-07-15T10:27:00Z", "count_points": 29, "latitude": 47.24087, "longitude": 34.77297, "city": "Velyka Bilozerka", "images": []}, {"id": 391038, "min_date": "2018-07-11T22:42:00Z", "max_date": "2018-07-12T08:13:00Z", "count_points": 4, "latitude": 47.36485, "longitude": 34.32825, "city": "Verkhniy Rohachyk", "images": []}, {"id": 391039, "min_date": "2018-07-11T22:42:00Z", "max_date": "2018-07-11T22:42:00Z", "count_points": 1, "latitude": 45.94564, "longitude": 29.47533, "city": "Artsyz", "images": []}, {"id": 391040, "min_date": "2018-07-12T00:24:00Z", "max_date": "2018-07-13T23:48:00Z", "count_points": 2, "latitude": 46.85507, "longitude": 30.11848, "city": "Rozdil\u2019na", "images": []}, {"id": 391041, "min_date": "2018-07-12T00:24:00Z", "max_date": "2018-07-15T10:27:00Z", "count_points": 18, "latitude": 48.41605, "longitude": 33.4591, "city": "Zhovti Vody", "images": []}, {"id": 391042, "min_date": "2018-07-12T00:24:00Z", "max_date": "2018-07-12T10:12:00Z", "count_points": 3, "latitude": 45.49358, "longitude": 29.22514, "city": "Kiliya", "images": []}, {"id": 391043, "min_date": "2018-07-12T00:24:00Z", "max_date": "2018-07-12T00:24:00Z", "count_points": 1, "latitude": 45.76575, "longitude": 29.8183, "city": "Tatarbunary", "images": []}, {"id": 391044, "min_date": "2018-07-12T00:24:00Z", "max_date": "2018-07-12T00:24:00Z", "count_points": 2, "latitude": 47.00612, "longitude": 30.72069, "city": "Kurisove", "images": []}, {"id": 391045, "min_date": "2018-07-12T00:24:00Z", "max_date": "2018-07-12T00:24:00Z", "count_points": 1, "latitude": 50.5497, "longitude": 27.07141, "city": "Korets", "images": []}, {"id": 391046, "min_date": "2018-07-12T00:24:00Z", "max_date": "2018-07-12T00:24:00Z", "count_points": 2, "latitude": 45.94848, "longitude": 30.24633, "city": "Serhiyivka", "images": []}, {"id": 391047, "min_date": "2018-07-12T00:24:00Z", "max_date": "2018-07-12T00:24:00Z", "count_points": 1, "latitude": 50.01238, "longitude": 34.07569, "city": "Velyki Sorochyntsi", "images": []}, {"id": 391048, "min_date": "2018-07-12T10:12:00Z", "max_date": "2018-07-12T10:12:00Z", "count_points": 1, "latitude": 48.05169, "longitude": 37.41832, "city": "Mareyka", "images": []}, {"id": 391049, "min_date": "2018-07-12T10:12:00Z", "max_date": "2018-07-12T10:12:00Z", "count_points": 1, "latitude": 50.07715, "longitude": 36.62288, "city": "Staryy Saltiv", "images": []}, {"id": 391050, "min_date": "2018-07-12T10:12:00Z", "max_date": "2018-07-12T08:13:00Z", "count_points": 4, "latitude": 49.0114, "longitude": 38.40205, "city": "Rubizhne", "images": []}, {"id": 391051, "min_date": "2018-07-12T10:12:00Z", "max_date": "2018-07-12T09:56:00Z", "count_points": 3, "latitude": 49.50182, "longitude": 38.10934, "city": "Svatove", "images": []}, {"id": 391052, "min_date": "2018-07-12T10:12:00Z", "max_date": "2018-07-12T09:56:00Z", "count_points": 21, "latitude": 48.68393, "longitude": 38.1213, "city": "Soledar", "images": []}, {"id": 391053, "min_date": "2018-07-12T10:12:00Z", "max_date": "2018-07-12T10:12:00Z", "count_points": 1, "latitude": 48.96132, "longitude": 34.08304, "city": "Kobelyaky", "images": []}, {"id": 391054, "min_date": "2018-07-12T10:12:00Z", "max_date": "2018-07-12T11:34:00Z", "count_points": 27, "latitude": 45.53942, "longitude": 28.73503, "city": "Ozerne", "images": []}, {"id": 391055, "min_date": "2018-07-12T10:12:00Z", "max_date": "2018-07-12T10:12:00Z", "count_points": 1, "latitude": 49.29651, "longitude": 24.21016, "city": "Zhydachiv", "images": []}, {"id": 391056, "min_date": "2018-07-12T10:12:00Z", "max_date": "2018-07-12T09:56:00Z", "count_points": 4, "latitude": 48.4713, "longitude": 34.18459, "city": "Novomykolayivka", "images": []}, {"id": 391057, "min_date": "2018-07-12T10:12:00Z", "max_date": "2018-07-12T10:12:00Z", "count_points": 1, "latitude": 47.9432, "longitude": 34.99578, "city": "Zaporizhia", "images": []}, {"id": 391058, "min_date": "2018-07-12T10:12:00Z", "max_date": "2018-07-14T09:44:00Z", "count_points": 12, "latitude": 46.31009, "longitude": 34.49243, "city": "Novooleksiyivka", "images": []}, {"id": 391059, "min_date": "2018-07-12T10:12:00Z", "max_date": "2018-07-12T11:54:00Z", "count_points": 3, "latitude": 45.56281, "longitude": 28.69206, "city": "Bolhrad", "images": []}, {"id": 391060, "min_date": "2018-07-12T10:12:00Z", "max_date": "2018-07-12T10:12:00Z", "count_points": 1, "latitude": 48.28579, "longitude": 34.59305, "city": "Surs\u2019ko-Mykhaylivka", "images": []}, {"id": 391061, "min_date": "2018-07-12T10:12:00Z", "max_date": "2018-07-12T10:12:00Z", "count_points": 1, "latitude": 48.2556, "longitude": 34.51789, "city": "Krynychky", "images": []}, {"id": 391062, "min_date": "2018-07-12T10:12:00Z", "max_date": "2018-07-12T10:12:00Z", "count_points": 1, "latitude": 48.66927, "longitude": 33.14502, "city": "Oleksandriya", "images": []}, {"id": 391063, "min_date": "2018-07-12T10:12:00Z", "max_date": "2018-07-12T10:12:00Z", "count_points": 1, "latitude": 48.76385, "longitude": 37.64342, "city": "Kramators\u2019k", "images": []}, {"id": 391064, "min_date": "2018-07-12T10:12:00Z", "max_date": "2018-07-12T10:12:00Z", "count_points": 1, "latitude": 49.78772, "longitude": 32.03702, "city": "Zolotonosha", "images": []}, {"id": 391065, "min_date": "2018-07-12T10:12:00Z", "max_date": "2018-07-12T10:12:00Z", "count_points": 1, "latitude": 48.15465, "longitude": 36.4202, "city": "Pokrovs\u2019ke", "images": []}, {"id": 391066, "min_date": "2018-07-12T10:12:00Z", "max_date": "2018-07-12T10:12:00Z", "count_points": 2, "latitude": 48.12988, "longitude": 35.9265, "city": "Vasyl\u2019kivka", "images": []}, {"id": 391067, "min_date": "2018-07-12T10:12:00Z", "max_date": "2018-07-14T08:01:00Z", "count_points": 16, "latitude": 48.30767, "longitude": 36.35309, "city": "Petropavlivka", "images": []}, {"id": 391068, "min_date": "2018-07-12T10:12:00Z", "max_date": "2018-07-12T10:12:00Z", "count_points": 1, "latitude": 47.44762, "longitude": 37.00494, "city": "Rozivka", "images": []}, {"id": 391069, "min_date": "2018-07-12T10:12:00Z", "max_date": "2018-07-14T11:12:00Z", "count_points": 8, "latitude": 48.43749, "longitude": 33.59393, "city": "Piatykhatky", "images": []}, {"id": 391070, "min_date": "2018-07-12T10:12:00Z", "max_date": "2018-07-12T10:12:00Z", "count_points": 1, "latitude": 46.77708, "longitude": 33.78642, "city": "Kayiry", "images": []}, {"id": 391071, "min_date": "2018-07-12T10:12:00Z", "max_date": "2018-07-12T10:12:00Z", "count_points": 1, "latitude": 46.28131, "longitude": 34.12079, "city": "Novotroyits\u2019ke", "images": []}, {"id": 391072, "min_date": "2018-07-12T10:12:00Z", "max_date": "2018-07-12T10:12:00Z", "count_points": 2, "latitude": 48.51156, "longitude": 25.33218, "city": "Zabolotiv", "images": []}, {"id": 391073, "min_date": "2018-07-12T10:12:00Z", "max_date": "2018-07-12T10:12:00Z", "count_points": 1, "latitude": 47.35822, "longitude": 33.88484, "city": "Novovorontsovka", "images": []}, {"id": 391074, "min_date": "2018-07-12T10:12:00Z", "max_date": "2018-07-12T10:12:00Z", "count_points": 1, "latitude": 47.28542, "longitude": 33.49209, "city": "Velyka Oleksandrivka", "images": []}, {"id": 391075, "min_date": "2018-07-12T10:12:00Z", "max_date": "2018-07-12T09:56:00Z", "count_points": 9, "latitude": 47.91719, "longitude": 33.81554, "city": "Sofiyivka", "images": []}, {"id": 391076, "min_date": "2018-07-12T10:12:00Z", "max_date": "2018-07-12T10:12:00Z", "count_points": 1, "latitude": 47.60479, "longitude": 30.82337, "city": "Mykolayivka", "images": []}, {"id": 391077, "min_date": "2018-07-12T10:12:00Z", "max_date": "2018-07-12T10:12:00Z", "count_points": 2, "latitude": 47.59287, "longitude": 30.8906, "city": "Domanivka", "images": []}, {"id": 391078, "min_date": "2018-07-12T10:12:00Z", "max_date": "2018-07-12T10:12:00Z", "count_points": 1, "latitude": 47.08819, "longitude": 31.25735, "city": "Berezanka", "images": []}, {"id": 391079, "min_date": "2018-07-12T10:12:00Z", "max_date": "2018-07-12T10:12:00Z", "count_points": 2, "latitude": 47.24704, "longitude": 35.78064, "city": "Tokmak", "images": []}, {"id": 391080, "min_date": "2018-07-12T10:12:00Z", "max_date": "2018-07-13T08:56:00Z", "count_points": 14, "latitude": 47.10928, "longitude": 29.93424, "city": "Velyka Mykhaylivka", "images": []}, {"id": 391081, "min_date": "2018-07-12T10:12:00Z", "max_date": "2018-07-12T10:12:00Z", "count_points": 1, "latitude": 47.16975, "longitude": 35.45808, "city": "Novobohdanivka", "images": []}, {"id": 391082, "min_date": "2018-07-12T10:12:00Z", "max_date": "2018-07-12T10:12:00Z", "count_points": 1, "latitude": 46.63932, "longitude": 32.48619, "city": "Komyshany", "images": []}, {"id": 391083, "min_date": "2018-07-12T10:12:00Z", "max_date": "2018-07-12T10:12:00Z", "count_points": 1, "latitude": 51.30125, "longitude": 30.91137, "city": "Slavutych", "images": []}, {"id": 391084, "min_date": "2018-07-12T10:12:00Z", "max_date": "2018-07-12T10:12:00Z", "count_points": 1, "latitude": 51.31804, "longitude": 33.71518, "city": "Putyvl\u2019", "images": []}, {"id": 391085, "min_date": "2018-07-12T10:12:00Z", "max_date": "2018-07-09T09:20:00Z", "count_points": 2, "latitude": 49.03062, "longitude": 35.64346, "city": "Sakhnovshchyna", "images": []}, {"id": 391086, "min_date": "2018-07-12T10:12:00Z", "max_date": "2018-07-12T10:12:00Z", "count_points": 2, "latitude": 47.1036, "longitude": 37.82895, "city": "Bezimenne", "images": []}, {"id": 391087, "min_date": "2018-07-12T10:12:00Z", "max_date": "2018-07-13T00:06:00Z", "count_points": 8, "latitude": 46.11928, "longitude": 30.15136, "city": "Bilhorod-Dnistrovskyi", "images": []}, {"id": 391088, "min_date": "2018-07-12T10:12:00Z", "max_date": "2018-07-12T10:12:00Z", "count_points": 1, "latitude": 51.0327, "longitude": 34.13856, "city": "Vorozhba", "images": []}, {"id": 391089, "min_date": "2018-07-12T10:12:00Z", "max_date": "2018-07-12T10:12:00Z", "count_points": 1, "latitude": 48.89732, "longitude": 27.64403, "city": "Kopayhorod", "images": []}, {"id": 391090, "min_date": "2018-07-12T10:12:00Z", "max_date": "2018-07-12T10:12:00Z", "count_points": 1, "latitude": 49.97243, "longitude": 27.48257, "city": "Novoselytsya", "images": []}, {"id": 391091, "min_date": "2018-07-12T10:12:00Z", "max_date": "2018-07-12T10:12:00Z", "count_points": 4, "latitude": 45.65648, "longitude": 29.16345, "city": "Shevchenkove", "images": []}, {"id": 391092, "min_date": "2018-07-12T10:12:00Z", "max_date": "2018-07-12T10:12:00Z", "count_points": 1, "latitude": 47.70951, "longitude": 32.9887, "city": "Kazanka", "images": []}, {"id": 391093, "min_date": "2018-07-12T10:12:00Z", "max_date": "2018-07-12T10:12:00Z", "count_points": 1, "latitude": 47.62141, "longitude": 33.08309, "city": "Shyroke", "images": []}, {"id": 391094, "min_date": "2018-07-12T10:12:00Z", "max_date": "2018-07-12T09:56:00Z", "count_points": 10, "latitude": 46.8772, "longitude": 32.9871, "city": "Kozachi Laheri", "images": []}, {"id": 391095, "min_date": "2018-07-12T10:12:00Z", "max_date": "2018-07-12T10:12:00Z", "count_points": 1, "latitude": 48.32653, "longitude": 33.1805, "city": "Petrove", "images": []}, {"id": 391096, "min_date": "2018-07-12T10:12:00Z", "max_date": "2018-07-12T10:12:00Z", "count_points": 2, "latitude": 45.79061, "longitude": 29.95132, "city": "Kulevcha", "images": []}, {"id": 391097, "min_date": "2018-07-12T10:12:00Z", "max_date": "2018-07-12T10:12:00Z", "count_points": 2, "latitude": 47.95632, "longitude": 29.24184, "city": "Slobidka", "images": []}, {"id": 391098, "min_date": "2018-07-12T10:12:00Z", "max_date": "2018-07-12T10:12:00Z", "count_points": 1, "latitude": 47.20102, "longitude": 35.8321, "city": "Tokmak", "images": []}, {"id": 391099, "min_date": "2018-07-12T10:12:00Z", "max_date": "2018-07-12T11:54:00Z", "count_points": 5, "latitude": 45.76592, "longitude": 29.70187, "city": "Tatarbunary", "images": []}, {"id": 391100, "min_date": "2018-07-12T10:12:00Z", "max_date": "2018-07-12T10:12:00Z", "count_points": 1, "latitude": 47.65411, "longitude": 31.30135, "city": "Voznesensk", "images": []}, {"id": 391101, "min_date": "2018-07-12T10:12:00Z", "max_date": "2018-07-12T10:12:00Z", "count_points": 3, "latitude": 45.52679, "longitude": 29.09636, "city": "Kiliya", "images": []}, {"id": 391102, "min_date": "2018-07-12T10:12:00Z", "max_date": "2018-07-15T08:44:00Z", "count_points": 10, "latitude": 45.82618, "longitude": 29.81481, "city": "Tatarbunary", "images": []}, {"id": 391103, "min_date": "2018-07-12T10:12:00Z", "max_date": "2018-07-12T08:13:00Z", "count_points": 4, "latitude": 47.22732, "longitude": 32.58984, "city": "Bashtanka", "images": []}, {"id": 391104, "min_date": "2018-07-12T10:12:00Z", "max_date": "2018-07-12T10:12:00Z", "count_points": 1, "latitude": 45.58251, "longitude": 29.07729, "city": "Kiliya", "images": []}, {"id": 391105, "min_date": "2018-07-12T10:12:00Z", "max_date": "2018-07-12T09:56:00Z", "count_points": 6, "latitude": 47.48761, "longitude": 30.14384, "city": "Shyryayeve", "images": []}, {"id": 391106, "min_date": "2018-07-12T10:12:00Z", "max_date": "2018-07-12T10:12:00Z", "count_points": 1, "latitude": 45.9683, "longitude": 29.90797, "city": "Kulevcha", "images": []}, {"id": 391107, "min_date": "2018-07-12T10:12:00Z", "max_date": "2018-07-12T10:12:00Z", "count_points": 1, "latitude": 46.02511, "longitude": 30.22197, "city": "Serhiyivka", "images": []}, {"id": 391108, "min_date": "2018-07-12T10:12:00Z", "max_date": "2018-07-12T10:12:00Z", "count_points": 1, "latitude": 48.02177, "longitude": 33.20596, "city": "Lozuvatka", "images": []}, {"id": 391109, "min_date": "2018-07-12T10:12:00Z", "max_date": "2018-07-12T10:12:00Z", "count_points": 1, "latitude": 46.21075, "longitude": 32.22571, "city": "Bekhtery", "images": []}, {"id": 391110, "min_date": "2018-07-12T10:12:00Z", "max_date": "2018-07-12T10:12:00Z", "count_points": 1, "latitude": 46.90893, "longitude": 29.97922, "city": "Stepanivka", "images": []}, {"id": 391111, "min_date": "2018-07-12T10:12:00Z", "max_date": "2018-07-12T10:12:00Z", "count_points": 1, "latitude": 50.70529, "longitude": 30.15804, "city": "Katyuzhanka", "images": []}, {"id": 391112, "min_date": "2018-07-12T10:12:00Z", "max_date": "2018-07-12T10:12:00Z", "count_points": 1, "latitude": 47.73017, "longitude": 30.44406, "city": "Vradiyivka", "images": []}, {"id": 391113, "min_date": "2018-07-12T10:12:00Z", "max_date": "2018-07-12T10:12:00Z", "count_points": 1, "latitude": 45.85833, "longitude": 28.94305, "city": "Horodnye", "images": []}, {"id": 391114, "min_date": "2018-07-12T10:12:00Z", "max_date": "2018-07-13T08:57:00Z", "count_points": 18, "latitude": 45.65415, "longitude": 28.5204, "city": "Vynohradivka", "images": []}, {"id": 391115, "min_date": "2018-07-12T10:12:00Z", "max_date": "2018-07-12T10:12:00Z", "count_points": 8, "latitude": 47.93162, "longitude": 34.56107, "city": "Novopokrovka", "images": []}, {"id": 391116, "min_date": "2018-07-12T10:12:00Z", "max_date": "2018-07-12T10:12:00Z", "count_points": 6, "latitude": 46.93467, "longitude": 34.17076, "city": "Nyzhni Sirohozy", "images": []}, {"id": 391117, "min_date": "2018-07-12T10:12:00Z", "max_date": "2018-07-12T09:56:00Z", "count_points": 2, "latitude": 47.001, "longitude": 34.60233, "city": "Nyzhni Sirohozy", "images": []}, {"id": 391118, "min_date": "2018-07-12T10:12:00Z", "max_date": "2018-07-12T10:12:00Z", "count_points": 2, "latitude": 46.84715, "longitude": 34.49607, "city": "Nyzhni Sirohozy", "images": []}, {"id": 391119, "min_date": "2018-07-12T10:12:00Z", "max_date": "2018-07-12T08:13:00Z", "count_points": 2, "latitude": 46.72982, "longitude": 34.33145, "city": "Nyzhni Sirohozy", "images": []}, {"id": 391120, "min_date": "2018-07-12T10:12:00Z", "max_date": "2018-07-12T11:54:00Z", "count_points": 5, "latitude": 45.48312, "longitude": 28.73757, "city": "Ozerne", "images": []}, {"id": 391121, "min_date": "2018-07-12T10:12:00Z", "max_date": "2018-07-10T19:35:00Z", "count_points": 2, "latitude": 48.39331, "longitude": 34.22401, "city": "Novomykolayivka", "images": []}, {"id": 391122, "min_date": "2018-07-12T10:12:00Z", "max_date": "2018-07-12T10:12:00Z", "count_points": 3, "latitude": 47.63251, "longitude": 33.22187, "city": "Shyroke", "images": []}, {"id": 391123, "min_date": "2018-07-12T10:12:00Z", "max_date": "2018-07-15T10:54:00Z", "count_points": 9, "latitude": 47.51993, "longitude": 30.024, "city": "Shyryayeve", "images": []}, {"id": 391124, "min_date": "2018-07-12T10:12:00Z", "max_date": "2018-07-12T10:12:00Z", "count_points": 1, "latitude": 46.96004, "longitude": 33.09095, "city": "Kozachi Laheri", "images": []}, {"id": 391125, "min_date": "2018-07-12T10:12:00Z", "max_date": "2018-07-12T09:52:00Z", "count_points": 4, "latitude": 45.87583, "longitude": 29.91247, "city": "Kulevcha", "images": []}, {"id": 391126, "min_date": "2018-07-12T10:12:00Z", "max_date": "2018-07-14T11:22:00Z", "count_points": 14, "latitude": 47.56144, "longitude": 31.39862, "city": "Voznesensk", "images": []}, {"id": 391127, "min_date": "2018-07-12T10:12:00Z", "max_date": "2018-07-12T10:12:00Z", "count_points": 3, "latitude": 47.23813, "longitude": 32.16705, "city": "Bashtanka", "images": []}, {"id": 391128, "min_date": "2018-07-12T10:12:00Z", "max_date": "2018-07-12T09:51:00Z", "count_points": 14, "latitude": 46.39283, "longitude": 29.43195, "city": "Borodino", "images": []}, {"id": 391129, "min_date": "2018-07-12T10:12:00Z", "max_date": "2018-07-11T20:18:00Z", "count_points": 2, "latitude": 48.75826, "longitude": 26.36686, "city": "Skala-Podil\u2019s\u2019ka", "images": []}, {"id": 391130, "min_date": "2018-07-12T10:12:00Z", "max_date": "2018-07-12T10:12:00Z", "count_points": 1, "latitude": 47.39572, "longitude": 29.94427, "city": "Zatyshshya", "images": []}, {"id": 391131, "min_date": "2018-07-12T10:12:00Z", "max_date": "2018-07-12T11:54:00Z", "count_points": 4, "latitude": 45.87039, "longitude": 29.41635, "city": "Artsyz", "images": []}, {"id": 391132, "min_date": "2018-07-12T10:12:00Z", "max_date": "2018-07-12T11:34:00Z", "count_points": 8, "latitude": 47.56067, "longitude": 29.93563, "city": "Ananyiv Pershyi", "images": []}, {"id": 391133, "min_date": "2018-07-12T10:12:00Z", "max_date": "2018-07-12T10:12:00Z", "count_points": 1, "latitude": 47.39875, "longitude": 32.89908, "city": "Bereznehuvate", "images": []}, {"id": 391134, "min_date": "2018-07-12T10:12:00Z", "max_date": "2018-07-12T10:12:00Z", "count_points": 1, "latitude": 46.90259, "longitude": 32.63784, "city": "Oleksandrivka", "images": []}, {"id": 391135, "min_date": "2018-07-12T10:12:00Z", "max_date": "2018-07-12T09:51:00Z", "count_points": 7, "latitude": 48.94152, "longitude": 25.64956, "city": "Yahil\u2019nytsya", "images": []}, {"id": 391136, "min_date": "2018-07-12T10:12:00Z", "max_date": "2018-07-12T10:12:00Z", "count_points": 1, "latitude": 47.58316, "longitude": 35.82541, "city": "Preobrazhenka", "images": []}, {"id": 391137, "min_date": "2018-07-12T11:54:00Z", "max_date": "2018-07-12T11:54:00Z", "count_points": 2, "latitude": 45.36651, "longitude": 28.56437, "city": "Ozerne", "images": []}, {"id": 391138, "min_date": "2018-07-12T11:54:00Z", "max_date": "2018-07-12T11:54:00Z", "count_points": 3, "latitude": 47.33669, "longitude": 31.55815, "city": "Nova Odesa", "images": []}, {"id": 391139, "min_date": "2018-07-12T11:54:00Z", "max_date": "2018-07-10T19:34:00Z", "count_points": 4, "latitude": 46.674, "longitude": 30.2265, "city": "Stepove", "images": []}, {"id": 391140, "min_date": "2018-07-12T11:54:00Z", "max_date": "2018-07-12T11:54:00Z", "count_points": 1, "latitude": 50.66975, "longitude": 28.13436, "city": "Pulyny", "images": []}, {"id": 391141, "min_date": "2018-07-12T11:54:00Z", "max_date": "2018-07-12T11:54:00Z", "count_points": 1, "latitude": 46.05118, "longitude": 29.93909, "city": "Kulevcha", "images": []}, {"id": 391142, "min_date": "2018-07-12T11:54:00Z", "max_date": "2018-07-12T11:54:00Z", "count_points": 1, "latitude": 46.35757, "longitude": 29.1159, "city": "Serpneve", "images": []}, {"id": 391143, "min_date": "2018-07-12T11:54:00Z", "max_date": "2018-07-12T11:54:00Z", "count_points": 2, "latitude": 50.35641, "longitude": 33.48536, "city": "Sencha", "images": []}, {"id": 391144, "min_date": "2018-07-12T11:54:00Z", "max_date": "2018-07-13T09:54:00Z", "count_points": 5, "latitude": 45.89387, "longitude": 29.37218, "city": "Artsyz", "images": []}, {"id": 391145, "min_date": "2018-07-12T11:54:00Z", "max_date": "2018-07-12T11:54:00Z", "count_points": 1, "latitude": 47.18928, "longitude": 31.02074, "city": "Berezivka", "images": []}, {"id": 391146, "min_date": "2018-07-12T11:54:00Z", "max_date": "2018-07-12T11:54:00Z", "count_points": 6, "latitude": 45.98005, "longitude": 29.30998, "city": "Artsyz", "images": []}, {"id": 391147, "min_date": "2018-07-12T11:54:00Z", "max_date": "2018-07-11T10:51:00Z", "count_points": 2, "latitude": 45.89468, "longitude": 29.82137, "city": "Zorya", "images": []}, {"id": 391148, "min_date": "2018-07-12T11:54:00Z", "max_date": "2018-07-12T09:52:00Z", "count_points": 4, "latitude": 45.89031, "longitude": 29.45779, "city": "Artsyz", "images": []}, {"id": 391149, "min_date": "2018-07-12T11:54:00Z", "max_date": "2018-07-12T11:54:00Z", "count_points": 1, "latitude": 46.62291, "longitude": 30.44657, "city": "Teplodar", "images": []}, {"id": 391150, "min_date": "2018-07-12T11:54:00Z", "max_date": "2018-07-12T11:54:00Z", "count_points": 1, "latitude": 46.17498, "longitude": 30.06638, "city": "Starokozache", "images": []}, {"id": 391151, "min_date": "2018-07-12T11:54:00Z", "max_date": "2018-07-15T10:27:00Z", "count_points": 7, "latitude": 47.46565, "longitude": 29.26962, "city": "Okny", "images": []}, {"id": 391152, "min_date": "2018-07-12T11:54:00Z", "max_date": "2018-07-12T11:54:00Z", "count_points": 1, "latitude": 45.66379, "longitude": 28.90675, "city": "Kalcheva", "images": []}, {"id": 391153, "min_date": "2018-07-12T11:54:00Z", "max_date": "2018-07-12T11:54:00Z", "count_points": 1, "latitude": 45.50887, "longitude": 28.75231, "city": "Ozerne", "images": []}, {"id": 391154, "min_date": "2018-07-12T11:54:00Z", "max_date": "2018-07-12T11:54:00Z", "count_points": 2, "latitude": 45.80915, "longitude": 29.14572, "city": "Dmytrivka", "images": []}, {"id": 391155, "min_date": "2018-07-12T11:54:00Z", "max_date": "2018-07-10T19:34:00Z", "count_points": 5, "latitude": 46.85722, "longitude": 29.99131, "city": "Stepanivka", "images": []}, {"id": 391156, "min_date": "2018-07-12T11:54:00Z", "max_date": "2018-07-12T11:54:00Z", "count_points": 2, "latitude": 45.81914, "longitude": 29.36258, "city": "Artsyz", "images": []}, {"id": 391157, "min_date": "2018-07-12T11:54:00Z", "max_date": "2018-07-15T10:54:00Z", "count_points": 7, "latitude": 47.45655, "longitude": 30.52103, "city": "Mykolayivka", "images": []}, {"id": 391158, "min_date": "2018-07-12T11:54:00Z", "max_date": "2018-07-12T11:54:00Z", "count_points": 5, "latitude": 47.45069, "longitude": 30.13458, "city": "Shyryayeve", "images": []}, {"id": 391159, "min_date": "2018-07-12T11:54:00Z", "max_date": "2018-07-12T11:54:00Z", "count_points": 2, "latitude": 45.65846, "longitude": 29.24607, "city": "Shevchenkove", "images": []}, {"id": 391160, "min_date": "2018-07-12T11:54:00Z", "max_date": "2018-07-12T11:54:00Z", "count_points": 3, "latitude": 46.61145, "longitude": 30.35865, "city": "Teplodar", "images": []}, {"id": 391161, "min_date": "2018-07-12T11:54:00Z", "max_date": "2018-07-12T11:54:00Z", "count_points": 2, "latitude": 45.74185, "longitude": 29.30448, "city": "Shevchenkove", "images": []}, {"id": 391162, "min_date": "2018-07-12T11:54:00Z", "max_date": "2018-07-12T11:54:00Z", "count_points": 2, "latitude": 45.71213, "longitude": 29.17539, "city": "Shevchenkove", "images": []}, {"id": 391163, "min_date": "2018-07-12T11:54:00Z", "max_date": "2018-07-12T11:54:00Z", "count_points": 2, "latitude": 47.30304, "longitude": 32.15651, "city": "Bashtanka", "images": []}, {"id": 391164, "min_date": "2018-07-12T11:54:00Z", "max_date": "2018-07-12T11:54:00Z", "count_points": 3, "latitude": 48.15577, "longitude": 32.36129, "city": "Kompaniyivka", "images": []}, {"id": 391165, "min_date": "2018-07-12T11:54:00Z", "max_date": "2018-07-14T09:39:00Z", "count_points": 9, "latitude": 47.70147, "longitude": 30.38501, "city": "Lyubashivka", "images": []}, {"id": 391166, "min_date": "2018-07-12T22:24:00Z", "max_date": "2018-07-13T00:06:00Z", "count_points": 10, "latitude": 45.02198, "longitude": 35.1711, "city": "Izyumovka", "images": []}, {"id": 391167, "min_date": "2018-07-12T22:24:00Z", "max_date": "2018-07-13T08:56:00Z", "count_points": 8, "latitude": 47.70574, "longitude": 35.81264, "city": "Preobrazhenka", "images": []}, {"id": 391168, "min_date": "2018-07-12T22:24:00Z", "max_date": "2018-07-12T19:22:00Z", "count_points": 8, "latitude": 47.73974, "longitude": 36.02993, "city": "Ternuvate", "images": []}, {"id": 391169, "min_date": "2018-07-12T22:24:00Z", "max_date": "2018-07-13T00:06:00Z", "count_points": 4, "latitude": 49.4634, "longitude": 38.67295, "city": "Bilokurakyne", "images": []}, {"id": 391170, "min_date": "2018-07-12T22:24:00Z", "max_date": "2018-07-12T22:24:00Z", "count_points": 1, "latitude": 46.58095, "longitude": 34.28115, "city": "Novotroyits\u2019ke", "images": []}, {"id": 391171, "min_date": "2018-07-12T22:24:00Z", "max_date": "2018-07-12T19:22:00Z", "count_points": 6, "latitude": 48.58189, "longitude": 38.04146, "city": "Artemivs\u2019k", "images": []}, {"id": 391172, "min_date": "2018-07-12T22:24:00Z", "max_date": "2018-07-13T00:06:00Z", "count_points": 2, "latitude": 48.5226, "longitude": 36.6468, "city": "Petropavlivka", "images": []}, {"id": 391173, "min_date": "2018-07-12T22:24:00Z", "max_date": "2018-07-12T22:24:00Z", "count_points": 2, "latitude": 48.21114, "longitude": 35.03832, "city": "Aviatorske", "images": []},