[{"id": 380975, "min_date": "2018-03-26T00:48:00Z", "max_date": "2018-03-26T00:48:00Z", "count_points": 1, "latitude": 50.42421, "longitude": 33.37901, "city": "Lokhvytsya", "images": []}, {"id": 380976, "min_date": "2018-03-26T08:54:00Z", "max_date": "2018-03-26T10:36:00Z", "count_points": 3, "latitude": 47.43678, "longitude": 36.09782, "city": "Polohy", "images": []}, {"id": 380977, "min_date": "2018-03-26T10:36:00Z", "max_date": "2018-03-26T10:36:00Z", "count_points": 2, "latitude": 47.26077, "longitude": 35.90989, "city": "Tokmak", "images": []}, {"id": 380978, "min_date": "2018-03-26T10:36:00Z", "max_date": "2018-03-26T10:36:00Z", "count_points": 1, "latitude": 49.6331, "longitude": 32.68866, "city": "Orzhytsya", "images": []}, {"id": 380979, "min_date": "2018-03-26T10:36:00Z", "max_date": "2018-03-26T10:36:00Z", "count_points": 1, "latitude": 48.73831, "longitude": 22.46626, "city": "Perechyn", "images": []}, {"id": 380980, "min_date": "2018-03-26T10:36:00Z", "max_date": "2018-03-26T10:36:00Z", "count_points": 1, "latitude": 47.02661, "longitude": 36.82848, "city": "Osypenko", "images": []}, {"id": 380981, "min_date": "2018-03-26T12:18:00Z", "max_date": "2018-03-26T12:18:00Z", "count_points": 1, "latitude": 49.78057, "longitude": 24.70797, "city": "Krasne", "images": []}, {"id": 380982, "min_date": "2018-03-28T10:00:00Z", "max_date": "2018-03-28T10:00:00Z", "count_points": 1, "latitude": 47.7076, "longitude": 37.92733, "city": "Starobesheve", "images": []}, {"id": 380983, "min_date": "2018-03-28T10:00:00Z", "max_date": "2018-03-28T10:00:00Z", "count_points": 1, "latitude": 47.13604, "longitude": 36.47104, "city": "Kuybysheve", "images": []}, {"id": 380984, "min_date": "2018-03-28T10:00:00Z", "max_date": "2018-03-28T10:00:00Z", "count_points": 1, "latitude": 46.96967, "longitude": 36.46338, "city": "Prymors\u2019k", "images": []}, {"id": 380985, "min_date": "2018-03-28T10:00:00Z", "max_date": "2018-03-28T10:00:00Z", "count_points": 1, "latitude": 47.17561, "longitude": 36.88248, "city": "Komysh-Zorya", "images": []}, {"id": 380986, "min_date": "2018-03-28T10:00:00Z", "max_date": "2018-03-28T10:00:00Z", "count_points": 1, "latitude": 46.80477, "longitude": 36.84367, "city": "Berdyansk", "images": []}, {"id": 380987, "min_date": "2018-03-28T10:00:00Z", "max_date": "2018-03-28T10:00:00Z", "count_points": 1, "latitude": 47.93642, "longitude": 39.12795, "city": "Kripens\u2019kyy", "images": []}, {"id": 380988, "min_date": "2018-03-28T10:00:00Z", "max_date": "2018-03-28T10:00:00Z", "count_points": 1, "latitude": 47.29509, "longitude": 35.40361, "city": "Pryshyb", "images": []}, {"id": 380989, "min_date": "2018-03-28T10:00:00Z", "max_date": "2018-03-28T10:00:00Z", "count_points": 1, "latitude": 47.13298, "longitude": 35.52172, "city": "Terpinnya", "images": []}, {"id": 380990, "min_date": "2018-03-28T10:00:00Z", "max_date": "2018-03-28T10:00:00Z", "count_points": 3, "latitude": 47.13267, "longitude": 38.03975, "city": "Novoazovsk", "images": []}, {"id": 380991, "min_date": "2018-03-28T10:00:00Z", "max_date": "2018-03-28T10:00:00Z", "count_points": 1, "latitude": 47.23205, "longitude": 37.86572, "city": "Bezimenne", "images": []}, {"id": 380992, "min_date": "2018-03-28T11:42:00Z", "max_date": "2018-03-28T11:42:00Z", "count_points": 1, "latitude": 48.17386, "longitude": 22.66553, "city": "Muzhiyevo", "images": []}, {"id": 380993, "min_date": "2018-03-28T11:42:00Z", "max_date": "2018-03-28T11:42:00Z", "count_points": 2, "latitude": 48.5191, "longitude": 22.38703, "city": "Serednye", "images": []}, {"id": 380994, "min_date": "2018-03-28T11:42:00Z", "max_date": "2018-03-28T11:42:00Z", "count_points": 1, "latitude": 48.41911, "longitude": 22.6625, "city": "Nove Davydkovo", "images": []}, {"id": 380995, "min_date": "2018-03-29T09:42:00Z", "max_date": "2018-04-01T10:24:00Z", "count_points": 2, "latitude": 47.42104, "longitude": 34.83493, "city": "Balky", "images": []}, {"id": 380996, "min_date": "2018-03-29T09:42:00Z", "max_date": "2018-03-29T11:18:00Z", "count_points": 5, "latitude": 46.18831, "longitude": 33.09365, "city": "Kalanchak", "images": [{"image_url": "380996.jpg", "timestamp": "2018-03-29T11:18:00Z"}]}, {"id": 380997, "min_date": "2018-03-29T09:42:00Z", "max_date": "2018-03-29T09:42:00Z", "count_points": 1, "latitude": 46.16819, "longitude": 33.41515, "city": "Kalanchak", "images": []}, {"id": 380998, "min_date": "2018-03-29T09:42:00Z", "max_date": "2018-03-29T09:42:00Z", "count_points": 1, "latitude": 47.62106, "longitude": 34.60467, "city": "Marhanets\u2019", "images": []}, {"id": 380999, "min_date": "2018-03-29T11:18:00Z", "max_date": "2018-03-29T11:18:00Z", "count_points": 1, "latitude": 46.17116, "longitude": 33.15892, "city": "Kalanchak", "images": []}, {"id": 381000, "min_date": "2018-03-29T11:18:00Z", "max_date": "2018-03-29T11:18:00Z", "count_points": 2, "latitude": 46.39068, "longitude": 32.25496, "city": "Chulakivka", "images": []}, {"id": 381001, "min_date": "2018-03-29T11:18:00Z", "max_date": "2018-03-29T11:18:00Z", "count_points": 1, "latitude": 46.55514, "longitude": 32.65261, "city": "Tsyurupyns\u2019k", "images": []}, {"id": 381002, "min_date": "2018-03-29T11:18:00Z", "max_date": "2018-03-29T11:18:00Z", "count_points": 2, "latitude": 46.60914, "longitude": 35.05111, "city": "Yakymivka", "images": []}, {"id": 381003, "min_date": "2018-03-29T11:18:00Z", "max_date": "2018-03-29T11:18:00Z", "count_points": 2, "latitude": 46.42657, "longitude": 35.02376, "city": "Partyzany", "images": []}, {"id": 381004, "min_date": "2018-03-29T11:18:00Z", "max_date": "2018-03-29T11:18:00Z", "count_points": 1, "latitude": 46.5242, "longitude": 34.56688, "city": "Ivanivka", "images": []}, {"id": 381005, "min_date": "2018-03-29T11:18:00Z", "max_date": "2018-03-30T10:45:00Z", "count_points": 4, "latitude": 45.47861, "longitude": 29.52294, "city": "Vylkove", "images": []}, {"id": 381006, "min_date": "2018-03-29T11:18:00Z", "max_date": "2018-03-29T11:18:00Z", "count_points": 1, "latitude": 46.14003, "longitude": 32.94429, "city": "Skadovs\u2019k", "images": []}, {"id": 381007, "min_date": "2018-03-29T23:36:00Z", "max_date": "2018-04-01T10:33:00Z", "count_points": 4, "latitude": 46.92369, "longitude": 36.54848, "city": "Prymors\u2019k", "images": []}, {"id": 381008, "min_date": "2018-03-30T11:00:00Z", "max_date": "2018-03-31T10:42:00Z", "count_points": 2, "latitude": 45.46779, "longitude": 29.40893, "city": "Shevchenkove", "images": []}, {"id": 381009, "min_date": "2018-03-30T11:00:00Z", "max_date": "2018-03-30T11:00:00Z", "count_points": 1, "latitude": 45.42192, "longitude": 29.14184, "city": "Kiliya", "images": []}, {"id": 381010, "min_date": "2018-03-30T11:00:00Z", "max_date": "2018-03-30T11:00:00Z", "count_points": 2, "latitude": 46.20789, "longitude": 32.27847, "city": "Bekhtery", "images": []}, {"id": 381011, "min_date": "2018-03-31T09:00:00Z", "max_date": "2018-03-31T09:00:00Z", "count_points": 3, "latitude": 47.43274, "longitude": 36.52535, "city": "Kuybysheve", "images": []}, {"id": 381012, "min_date": "2018-03-31T09:00:00Z", "max_date": "2018-03-31T10:42:00Z", "count_points": 2, "latitude": 47.29158, "longitude": 35.75418, "city": "Tokmak", "images": []}, {"id": 381013, "min_date": "2018-03-31T09:00:00Z", "max_date": "2018-03-31T09:00:00Z", "count_points": 2, "latitude": 47.45462, "longitude": 35.26806, "city": "Vasylivka", "images": []}, {"id": 381014, "min_date": "2018-03-31T10:42:00Z", "max_date": "2018-03-31T10:42:00Z", "count_points": 2, "latitude": 45.44649, "longitude": 29.15959, "city": "Kiliya", "images": []}, {"id": 381015, "min_date": "2018-03-31T10:42:00Z", "max_date": "2018-03-31T10:42:00Z", "count_points": 1, "latitude": 46.84424, "longitude": 35.33946, "city": "Melitopol", "images": []}, {"id": 381016, "min_date": "2018-03-31T10:42:00Z", "max_date": "2018-03-31T10:42:00Z", "count_points": 3, "latitude": 46.58172, "longitude": 34.37212, "city": "Ivanivka", "images": []}, {"id": 381017, "min_date": "2018-03-31T10:42:00Z", "max_date": "2018-04-01T08:49:00Z", "count_points": 7, "latitude": 46.61632, "longitude": 34.36972, "city": "Ivanivka", "images": []}, {"id": 381018, "min_date": "2018-03-31T10:42:00Z", "max_date": "2018-03-31T10:42:00Z", "count_points": 1, "latitude": 45.39227, "longitude": 34.93645, "city": "Sovetskiy", "images": []}, {"id": 381019, "min_date": "2018-03-31T10:42:00Z", "max_date": "2018-03-31T10:42:00Z", "count_points": 1, "latitude": 47.74721, "longitude": 34.22107, "city": "Chortomlyk", "images": []}, {"id": 381020, "min_date": "2018-03-31T10:42:00Z", "max_date": "2018-03-31T11:28:00Z", "count_points": 2, "latitude": 46.60747, "longitude": 34.43165, "city": "Ivanivka", "images": []}, {"id": 381021, "min_date": "2018-03-31T10:42:00Z", "max_date": "2018-03-31T10:42:00Z", "count_points": 1, "latitude": 47.20812, "longitude": 36.64194, "city": "Komysh-Zorya", "images": []}, {"id": 381022, "min_date": "2018-03-31T10:42:00Z", "max_date": "2018-03-31T10:42:00Z", "count_points": 1, "latitude": 46.60536, "longitude": 30.58739, "city": "Usatove", "images": []}, {"id": 381023, "min_date": "2018-03-31T10:42:00Z", "max_date": "2018-03-31T11:28:00Z", "count_points": 3, "latitude": 47.1289, "longitude": 32.6092, "city": "Snihurivka", "images": []}, {"id": 381024, "min_date": "2018-03-31T10:42:00Z", "max_date": "2018-03-31T10:42:00Z", "count_points": 2, "latitude": 45.7216, "longitude": 29.08896, "city": "Dmytrivka", "images": []}, {"id": 381025, "min_date": "2018-03-31T10:42:00Z", "max_date": "2018-03-31T10:42:00Z", "count_points": 2, "latitude": 46.99739, "longitude": 32.78958, "city": "Snihurivka", "images": []}, {"id": 381026, "min_date": "2018-03-31T10:42:00Z", "max_date": "2018-03-31T10:42:00Z", "count_points": 1, "latitude": 46.41481, "longitude": 33.0029, "city": "Velyki Kopani", "images": []}, {"id": 381027, "min_date": "2018-03-31T10:42:00Z", "max_date": "2018-03-31T11:28:00Z", "count_points": 4, "latitude": 46.51719, "longitude": 33.16765, "city": "Brylivka", "images": []}, {"id": 381028, "min_date": "2018-03-31T10:42:00Z", "max_date": "2018-03-31T10:42:00Z", "count_points": 1, "latitude": 46.54319, "longitude": 32.94314, "city": "Radens\u2019k", "images": []}, {"id": 381029, "min_date": "2018-03-31T10:42:00Z", "max_date": "2018-03-31T10:42:00Z", "count_points": 1, "latitude": 46.5594, "longitude": 32.49456, "city": "Hola Prystan\u2019", "images": []}, {"id": 381030, "min_date": "2018-03-31T10:42:00Z", "max_date": "2018-03-31T10:42:00Z", "count_points": 3, "latitude": 47.81847, "longitude": 33.26385, "city": "Shyroke", "images": []}, {"id": 381031, "min_date": "2018-03-31T10:42:00Z", "max_date": "2018-03-31T10:42:00Z", "count_points": 1, "latitude": 47.04392, "longitude": 35.9031, "city": "Rozivka", "images": []}, {"id": 381032, "min_date": "2018-03-31T10:42:00Z", "max_date": "2018-03-31T10:42:00Z", "count_points": 2, "latitude": 47.83248, "longitude": 36.52801, "city": "Velyka Novosilka", "images": []}, {"id": 381033, "min_date": "2018-03-31T10:42:00Z", "max_date": "2018-03-31T10:42:00Z", "count_points": 3, "latitude": 47.26513, "longitude": 36.09554, "city": "Chernihivka", "images": []}, {"id": 381034, "min_date": "2018-03-31T10:42:00Z", "max_date": "2018-03-31T10:42:00Z", "count_points": 1, "latitude": 47.83423, "longitude": 33.4198, "city": "Kryvyi Rih", "images": []}, {"id": 381035, "min_date": "2018-03-31T10:42:00Z", "max_date": "2018-03-31T10:42:00Z", "count_points": 1, "latitude": 45.83881, "longitude": 33.9173, "city": "Bratskoye", "images": []}, {"id": 381036, "min_date": "2018-03-31T10:42:00Z", "max_date": "2018-03-31T10:42:00Z", "count_points": 1, "latitude": 47.92304, "longitude": 33.67794, "city": "Sofiyivka", "images": []}, {"id": 381037, "min_date": "2018-04-01T08:42:00Z", "max_date": "2018-04-01T08:49:00Z", "count_points": 6, "latitude": 47.54176, "longitude": 38.16795, "city": "Tel\u2019manove", "images": []}, {"id": 381038, "min_date": "2018-04-01T10:24:00Z", "max_date": "2018-04-01T10:24:00Z", "count_points": 1, "latitude": 47.27251, "longitude": 37.38225, "city": "Volodars\u2019ke", "images": []}, {"id": 381039, "min_date": "2018-04-01T10:24:00Z", "max_date": "2018-04-01T10:33:00Z", "count_points": 2, "latitude": 47.65579, "longitude": 38.39012, "city": "Amvrosiyivka", "images": []}, {"id": 381040, "min_date": "2018-04-01T10:24:00Z", "max_date": "2018-04-01T10:33:00Z", "count_points": 4, "latitude": 47.27941, "longitude": 37.72854, "city": "Sartana", "images": []}, {"id": 381041, "min_date": "2018-04-01T10:24:00Z", "max_date": "2018-04-01T10:24:00Z", "count_points": 1, "latitude": 47.26726, "longitude": 38.11746, "city": "Novoazovsk", "images": []}, {"id": 381042, "min_date": "2018-04-01T10:24:00Z", "max_date": "2018-04-01T10:33:00Z", "count_points": 5, "latitude": 47.90609, "longitude": 38.8276, "city": "Dmytrivka", "images": []}, {"id": 381043, "min_date": "2018-04-01T10:24:00Z", "max_date": "2018-04-01T10:24:00Z", "count_points": 1, "latitude": 47.11527, "longitude": 37.37982, "city": "Manhush", "images": []}, {"id": 381044, "min_date": "2018-04-01T10:24:00Z", "max_date": "2018-04-01T10:33:00Z", "count_points": 6, "latitude": 48.51769, "longitude": 32.43477, "city": "Adzhamka", "images": []}, {"id": 381045, "min_date": "2018-04-01T10:24:00Z", "max_date": "2018-04-01T10:24:00Z", "count_points": 1, "latitude": 48.1279, "longitude": 38.17795, "city": "Nyzhnya Krynka", "images": []}, {"id": 381046, "min_date": "2018-04-01T10:24:00Z", "max_date": "2018-04-01T10:24:00Z", "count_points": 1, "latitude": 48.42574, "longitude": 38.35273, "city": "Luhans\u2019ke", "images": []}, {"id": 381047, "min_date": "2018-04-01T10:24:00Z", "max_date": "2018-04-01T10:33:00Z", "count_points": 2, "latitude": 47.85089, "longitude": 37.99982, "city": "Novyy Svit", "images": []}, {"id": 381048, "min_date": "2018-04-01T10:24:00Z", "max_date": "2018-04-01T10:24:00Z", "count_points": 1, "latitude": 48.39237, "longitude": 38.61253, "city": "Bayrachky", "images": []}, {"id": 381049, "min_date": "2018-04-01T10:24:00Z", "max_date": "2018-04-01T10:33:00Z", "count_points": 3, "latitude": 47.86271, "longitude": 38.62767, "city": "Blahodatne", "images": []}, {"id": 381050, "min_date": "2018-04-01T10:24:00Z", "max_date": "2018-04-01T10:24:00Z", "count_points": 1, "latitude": 47.88086, "longitude": 38.57022, "city": "Blahodatne", "images": []}, {"id": 381051, "min_date": "2018-04-01T10:24:00Z", "max_date": "2018-04-01T10:33:00Z", "count_points": 2, "latitude": 48.18816, "longitude": 38.69892, "city": "Krasnyy Kut", "images": []}, {"id": 381052, "min_date": "2018-04-01T10:24:00Z", "max_date": "2018-04-01T10:24:00Z", "count_points": 1, "latitude": 48.05923, "longitude": 38.53082, "city": "Stizhkivs\u2019ke", "images": []}, {"id": 381053, "min_date": "2018-04-01T10:24:00Z", "max_date": "2018-04-01T10:24:00Z", "count_points": 1, "latitude": 48.53989, "longitude": 33.25717, "city": "Novyy Starodub", "images": []}, {"id": 381054, "min_date": "2018-04-01T10:24:00Z", "max_date": "2018-04-01T10:33:00Z", "count_points": 4, "latitude": 47.0199, "longitude": 37.37697, "city": "Melekyne", "images": []}, {"id": 381055, "min_date": "2018-04-01T10:24:00Z", "max_date": "2018-04-01T10:24:00Z", "count_points": 1, "latitude": 47.39628, "longitude": 38.20074, "city": "Tel\u2019manove", "images": []}, {"id": 381056, "min_date": "2018-04-01T10:24:00Z", "max_date": "2018-04-01T08:49:00Z", "count_points": 2, "latitude": 47.51747, "longitude": 37.44377, "city": "Volnovakha", "images": []}, {"id": 381057, "min_date": "2018-04-01T10:24:00Z", "max_date": "2018-04-01T10:33:00Z", "count_points": 2, "latitude": 47.45257, "longitude": 37.83442, "city": "Tel\u2019manove", "images": []}, {"id": 381058, "min_date": "2018-04-01T10:24:00Z", "max_date": "2018-04-01T10:24:00Z", "count_points": 1, "latitude": 47.29023, "longitude": 37.89445, "city": "Tel\u2019manove", "images": []}, {"id": 381059, "min_date": "2018-04-01T10:24:00Z", "max_date": "2018-04-01T10:24:00Z", "count_points": 1, "latitude": 47.63403, "longitude": 37.52613, "city": "Volnovakha", "images": []}, {"id": 381060, "min_date": "2018-04-01T10:24:00Z", "max_date": "2018-04-01T10:24:00Z", "count_points": 1, "latitude": 47.50252, "longitude": 38.1005, "city": "Tel\u2019manove", "images": []}, {"id": 381061, "min_date": "2018-04-01T10:24:00Z", "max_date": "2018-04-01T10:33:00Z", "count_points": 5, "latitude": 47.63845, "longitude": 38.23644, "city": "Kuteynykove", "images": []}, {"id": 381062, "min_date": "2018-04-01T10:24:00Z", "max_date": "2018-04-01T10:24:00Z", "count_points": 1, "latitude": 47.75751, "longitude": 35.20153, "city": "Kushuhum", "images": []}, {"id": 381063, "min_date": "2018-04-01T10:24:00Z", "max_date": "2018-04-01T10:24:00Z", "count_points": 1, "latitude": 47.2126, "longitude": 30.39773, "city": "Ivanivka", "images": []}, {"id": 381064, "min_date": "2018-04-01T10:24:00Z", "max_date": "2018-04-01T10:33:00Z", "count_points": 3, "latitude": 47.80127, "longitude": 32.50633, "city": "Novyy Buh", "images": []}, {"id": 381065, "min_date": "2018-04-01T10:24:00Z", "max_date": "2018-04-01T10:33:00Z", "count_points": 2, "latitude": 47.61354, "longitude": 35.71846, "city": "Kirove", "images": []}, {"id": 381066, "min_date": "2018-04-01T10:24:00Z", "max_date": "2018-04-01T10:33:00Z", "count_points": 5, "latitude": 46.95341, "longitude": 30.5555, "city": "Ivanivka", "images": []}, {"id": 381067, "min_date": "2018-04-01T10:24:00Z", "max_date": "2018-04-01T10:33:00Z", "count_points": 2, "latitude": 48.39116, "longitude": 32.70243, "city": "Novhorodka", "images": []}, {"id": 381068, "min_date": "2018-04-01T10:24:00Z", "max_date": "2018-04-01T10:24:00Z", "count_points": 1, "latitude": 47.86977, "longitude": 32.34373, "city": "Ustynivka", "images": []}, {"id": 381069, "min_date": "2018-04-01T10:24:00Z", "max_date": "2018-04-01T10:24:00Z", "count_points": 1, "latitude": 47.68549, "longitude": 35.33453, "city": "Malokaterynivka", "images": []}, {"id": 381070, "min_date": "2018-04-01T10:24:00Z", "max_date": "2018-04-01T10:24:00Z", "count_points": 1, "latitude": 48.33749, "longitude": 32.70854, "city": "Novhorodka", "images": []}, {"id": 381071, "min_date": "2018-04-01T10:24:00Z", "max_date": "2018-04-01T10:24:00Z", "count_points": 1, "latitude": 48.29971, "longitude": 32.26296, "city": "Kompaniyivka", "images": []}, {"id": 381072, "min_date": "2018-04-01T10:24:00Z", "max_date": "2018-04-01T10:33:00Z", "count_points": 5, "latitude": 47.7136, "longitude": 33.77526, "city": "Apostolove", "images": []}, {"id": 381073, "min_date": "2018-04-01T10:24:00Z", "max_date": "2018-04-01T10:24:00Z", "count_points": 2, "latitude": 47.98086, "longitude": 33.49903, "city": "Kryvyi Rih", "images": []}, {"id": 381074, "min_date": "2018-04-01T10:24:00Z", "max_date": "2018-04-01T10:24:00Z", "count_points": 3, "latitude": 47.67453, "longitude": 34.14011, "city": "Chortomlyk", "images": []}, {"id": 381075, "min_date": "2018-04-01T10:24:00Z", "max_date": "2018-04-01T10:24:00Z", "count_points": 1, "latitude": 47.82359, "longitude": 33.84383, "city": "Apostolove", "images": []}, {"id": 381076, "min_date": "2018-04-01T10:24:00Z", "max_date": "2018-04-01T10:24:00Z", "count_points": 1, "latitude": 48.06423, "longitude": 33.14198, "city": "Lozuvatka", "images": []}, {"id": 381077, "min_date": "2018-04-01T10:24:00Z", "max_date": "2018-04-01T10:24:00Z", "count_points": 1, "latitude": 47.70878, "longitude": 32.92945, "city": "Kazanka", "images": []}, {"id": 381078, "min_date": "2018-04-01T10:24:00Z", "max_date": "2018-04-01T10:24:00Z", "count_points": 1, "latitude": 47.87544, "longitude": 32.0958, "city": "Bobrynets", "images": []}, {"id": 381079, "min_date": "2018-04-01T10:24:00Z", "max_date": "2018-04-01T10:24:00Z", "count_points": 1, "latitude": 47.21418, "longitude": 36.32177, "city": "Chernihivka", "images": []}, {"id": 381080, "min_date": "2018-04-01T10:24:00Z", "max_date": "2018-04-01T10:24:00Z", "count_points": 1, "latitude": 48.2882, "longitude": 32.98122, "city": "Petrove", "images": []}, {"id": 381081, "min_date": "2018-04-01T10:24:00Z", "max_date": "2018-04-01T10:24:00Z", "count_points": 1, "latitude": 46.95317, "longitude": 32.80478, "city": "Snihurivka", "images": []}, {"id": 381082, "min_date": "2018-04-01T10:24:00Z", "max_date": "2018-04-01T10:24:00Z", "count_points": 1, "latitude": 48.14642, "longitude": 33.10368, "city": "Lozuvatka", "images": []}, {"id": 381083, "min_date": "2018-04-01T10:24:00Z", "max_date": "2018-04-01T10:24:00Z", "count_points": 1, "latitude": 47.1881, "longitude": 37.22216, "city": "Volodars\u2019ke", "images": []}, {"id": 381084, "min_date": "2018-04-01T10:24:00Z", "max_date": "2018-04-01T10:24:00Z", "count_points": 22, "latitude": 45.70317, "longitude": 34.84542, "city": "Pshenichnoye", "images": []}, {"id": 381085, "min_date": "2018-04-01T10:24:00Z", "max_date": "2018-04-01T10:24:00Z", "count_points": 3, "latitude": 47.54993, "longitude": 31.80221, "city": "Yelanets\u2019", "images": []}, {"id": 381086, "min_date": "2018-04-01T10:24:00Z", "max_date": "2018-04-01T10:24:00Z", "count_points": 1, "latitude": 47.62712, "longitude": 34.38251, "city": "Nikopol", "images": []}, {"id": 381087, "min_date": "2018-04-01T10:24:00Z", "max_date": "2018-04-01T10:24:00Z", "count_points": 1, "latitude": 48.00421, "longitude": 32.80985, "city": "Dolynska", "images": []}, {"id": 381088, "min_date": "2018-04-01T10:24:00Z", "max_date": "2018-04-01T10:24:00Z", "count_points": 1, "latitude": 48.30355, "longitude": 32.16431, "city": "Kompaniyivka", "images": []}, {"id": 381089, "min_date": "2018-04-01T10:24:00Z", "max_date": "2018-04-01T10:24:00Z", "count_points": 1, "latitude": 47.27561, "longitude": 34.92692, "city": "Mala Bilozerka", "images": []}, {"id": 381090, "min_date": "2018-04-01T10:24:00Z", "max_date": "2018-04-01T10:33:00Z", "count_points": 2, "latitude": 47.83114, "longitude": 32.49225, "city": "Ustynivka", "images": []}, {"id": 381091, "min_date": "2018-04-01T10:24:00Z", "max_date": "2018-04-01T10:24:00Z", "count_points": 1, "latitude": 48.53176, "longitude": 36.47818, "city": "Petropavlivka", "images": []}, {"id": 381092, "min_date": "2018-04-01T10:24:00Z", "max_date": "2018-04-01T10:24:00Z", "count_points": 2, "latitude": 48.56608, "longitude": 37.63493, "city": "Kostyantynivka", "images": []}, {"id": 381093, "min_date": "2018-04-01T10:24:00Z", "max_date": "2018-04-01T10:24:00Z", "count_points": 1, "latitude": 48.76673, "longitude": 31.76982, "city": "Novomyrhorod", "images": []}, {"id": 381094, "min_date": "2018-04-01T10:24:00Z", "max_date": "2018-04-01T10:24:00Z", "count_points": 1, "latitude": 47.48367, "longitude": 37.68902, "city": "Volnovakha", "images": []}, {"id": 381095, "min_date": "2018-04-01T10:24:00Z", "max_date": "2018-04-01T10:24:00Z", "count_points": 1, "latitude": 49.72613, "longitude": 31.25652, "city": "Kaniv", "images": []}, {"id": 381096, "min_date": "2018-04-01T10:24:00Z", "max_date": "2018-04-01T10:24:00Z", "count_points": 1, "latitude": 49.46722, "longitude": 28.80012, "city": "Nova Pryluka", "images": []}, {"id": 381097, "min_date": "2018-04-01T10:24:00Z", "max_date": "2018-04-01T10:24:00Z", "count_points": 2, "latitude": 48.29714, "longitude": 39.24983, "city": "Lutuhyne", "images": []}, {"id": 381098, "min_date": "2018-04-01T10:24:00Z", "max_date": "2018-04-01T10:33:00Z", "count_points": 2, "latitude": 47.90441, "longitude": 39.03907, "city": "Dmytrivka", "images": []}, {"id": 381099, "min_date": "2018-04-01T10:24:00Z", "max_date": "2018-04-01T10:24:00Z", "count_points": 1, "latitude": 47.88208, "longitude": 38.91359, "city": "Dmytrivka", "images": []}, {"id": 381100, "min_date": "2018-04-01T10:24:00Z", "max_date": "2018-04-01T10:33:00Z", "count_points": 4, "latitude": 48.03888, "longitude": 35.97009, "city": "Novomykolayivka", "images": []}, {"id": 381101, "min_date": "2018-04-01T10:24:00Z", "max_date": "2018-04-01T10:24:00Z", "count_points": 1, "latitude": 48.20602, "longitude": 36.503, "city": "Mezhova", "images": []}, {"id": 381102, "min_date": "2018-04-01T10:24:00Z", "max_date": "2018-04-01T10:24:00Z", "count_points": 1, "latitude": 48.46063, "longitude": 37.20133, "city": "Bilyts\u2019ke", "images": []}, {"id": 381103, "min_date": "2018-04-01T10:24:00Z", "max_date": "2018-04-01T10:33:00Z", "count_points": 3, "latitude": 47.82606, "longitude": 35.81253, "city": "Novomykolayivka", "images": []}, {"id": 381104, "min_date": "2018-04-01T10:24:00Z", "max_date": "2018-04-01T10:33:00Z", "count_points": 5, "latitude": 47.74021, "longitude": 35.7202, "city": "Kirove", "images": []}, {"id": 381105, "min_date": "2018-04-01T10:24:00Z", "max_date": "2018-04-01T10:24:00Z", "count_points": 2, "latitude": 48.00626, "longitude": 36.93804, "city": "Velyka Novosilka", "images": []}, {"id": 381106, "min_date": "2018-04-01T10:24:00Z", "max_date": "2018-04-01T10:33:00Z", "count_points": 4, "latitude": 47.73907, "longitude": 37.07462, "city": "Velyka Novosilka", "images": []}, {"id": 381107, "min_date": "2018-04-01T10:24:00Z", "max_date": "2018-04-01T10:24:00Z", "count_points": 2, "latitude": 47.60117, "longitude": 36.20541, "city": "Zaliznychne", "images": []}, {"id": 381108, "min_date": "2018-04-01T10:24:00Z", "max_date": "2018-04-01T10:24:00Z", "count_points": 1, "latitude": 48.34913, "longitude": 36.83436, "city": "Mezhova", "images": []}, {"id": 381109, "min_date": "2018-04-01T10:24:00Z", "max_date": "2018-04-01T10:33:00Z", "count_points": 3, "latitude": 47.85246, "longitude": 37.22671, "city": "Kurakhovo", "images": []}, {"id": 381110, "min_date": "2018-04-01T10:24:00Z", "max_date": "2018-04-01T10:24:00Z", "count_points": 2, "latitude": 47.88909, "longitude": 37.09426, "city": "Kurakhovo", "images": []}, {"id": 381111, "min_date": "2018-04-01T10:24:00Z", "max_date": "2018-04-01T10:24:00Z", "count_points": 1, "latitude": 48.22211, "longitude": 36.98359, "city": "Krasnoarmiys\u2019k", "images": []}, {"id": 381112, "min_date": "2018-04-01T10:24:00Z", "max_date": "2018-04-01T10:24:00Z", "count_points": 1, "latitude": 47.84958, "longitude": 37.07257, "city": "Velyka Novosilka", "images": []}, {"id": 381113, "min_date": "2018-04-01T10:24:00Z", "max_date": "2018-04-01T10:24:00Z", "count_points": 1, "latitude": 48.28857, "longitude": 36.28829, "city": "Petropavlivka", "images": []}, {"id": 381114, "min_date": "2018-04-01T10:24:00Z", "max_date": "2018-04-01T10:33:00Z", "count_points": 4, "latitude": 47.33072, "longitude": 37.00383, "city": "Rozivka", "images": []}, {"id": 381115, "min_date": "2018-04-01T10:24:00Z", "max_date": "2018-04-01T10:24:00Z", "count_points": 1, "latitude": 48.01095, "longitude": 32.44019, "city": "Ustynivka", "images": []}, {"id": 381116, "min_date": "2018-04-01T10:24:00Z", "max_date": "2018-04-01T10:33:00Z", "count_points": 2, "latitude": 48.38865, "longitude": 32.42531, "city": "Adzhamka", "images": []}, {"id": 381117, "min_date": "2018-04-01T10:24:00Z", "max_date": "2018-04-01T10:24:00Z", "count_points": 1, "latitude": 47.56019, "longitude": 37.07649, "city": "Rozivka", "images": []}, {"id": 381118, "min_date": "2018-04-01T10:24:00Z", "max_date": "2018-04-01T10:24:00Z", "count_points": 1, "latitude": 47.71072, "longitude": 35.97237, "city": "Mala Tokmachka", "images": []}, {"id": 381119, "min_date": "2018-04-01T10:24:00Z", "max_date": "2018-04-01T10:24:00Z", "count_points": 1, "latitude": 47.40598, "longitude": 36.7433, "city": "Komysh-Zorya", "images": []}, {"id": 381120, "min_date": "2018-04-01T10:24:00Z", "max_date": "2018-04-01T10:33:00Z", "count_points": 2, "latitude": 48.08819, "longitude": 37.21912, "city": "Selydove", "images": []}, {"id": 381121, "min_date": "2018-04-01T10:24:00Z", "max_date": "2018-04-01T10:24:00Z", "count_points": 2, "latitude": 47.98877, "longitude": 37.34533, "city": "Kurakhovo", "images": []}, {"id": 381122, "min_date": "2018-03-26T11:10:00Z", "max_date": "2018-03-26T11:10:00Z", "count_points": 2, "latitude": 47.3111, "longitude": 36.47685, "city": "Kuybysheve", "images": []}, {"id": 381123, "min_date": "2018-03-28T09:13:00Z", "max_date": "2018-03-28T09:13:00Z", "count_points": 3, "latitude": 47.25207, "longitude": 36.84627, "city": "Komysh-Zorya", "images": []}, {"id": 381124, "min_date": "2018-03-28T09:13:00Z", "max_date": "2018-03-28T09:13:00Z", "count_points": 1, "latitude": 48.7521, "longitude": 22.5063, "city": "Perechyn", "images": []}, {"id": 381125, "min_date": "2018-03-31T11:28:00Z", "max_date": "2018-03-31T11:28:00Z", "count_points": 1, "latitude": 47.362, "longitude": 31.5232, "city": "Nova Odesa", "images": []}, {"id": 381126, "min_date": "2018-04-01T08:49:00Z", "max_date": "2018-04-01T08:49:00Z", "count_points": 2, "latitude": 47.75085, "longitude": 36.6282, "city": "Velyka Novosilka", "images": []}, {"id": 381127, "min_date": "2018-04-01T08:49:00Z", "max_date": "2018-04-01T08:49:00Z", "count_points": 3, "latitude": 47.6389, "longitude": 36.55257, "city": "Chapayevka", "images": []}, {"id": 381128, "min_date": "2018-04-01T08:49:00Z", "max_date": "2018-04-01T08:49:00Z", "count_points": 1, "latitude": 47.1599, "longitude": 35.8583, "city": "Tokmak", "images": []}, {"id": 381129, "min_date": "2018-04-01T08:49:00Z", "max_date": "2018-04-01T08:49:00Z", "count_points": 2, "latitude": 47.2713, "longitude": 36.20095, "city": "Chernihivka", "images": []}, {"id": 381130, "min_date": "2018-04-01T08:49:00Z", "max_date": "2018-04-01T08:49:00Z", "count_points": 2, "latitude": 47.26595, "longitude": 37.21455, "city": "Volodars\u2019ke", "images": []}, {"id": 381131, "min_date": "2018-04-01T08:49:00Z", "max_date": "2018-04-01T08:49:00Z", "count_points": 1, "latitude": 47.0948, "longitude": 33.6753, "city": "Hornostayivka", "images": []}, {"id": 381132, "min_date": "2018-04-01T08:49:00Z", "max_date": "2018-04-01T08:49:00Z", "count_points": 1, "latitude": 47.2717, "longitude": 36.7531, "city": "Komysh-Zorya", "images": []}, {"id": 381133, "min_date": "2018-04-01T08:49:00Z", "max_date": "2018-04-01T08:49:00Z", "count_points": 2, "latitude": 48.15615, "longitude": 37.5389, "city": "Avdiyivka", "images": []}, {"id": 381134, "min_date": "2018-04-01T08:49:00Z", "max_date": "2018-04-01T08:49:00Z", "count_points": 1, "latitude": 47.9204, "longitude": 35.7075, "city": "Novomykolayivka", "images": []}, {"id": 381135, "min_date": "2018-04-01T08:49:00Z", "max_date": "2018-04-01T08:49:00Z", "count_points": 1, "latitude": 47.6969, "longitude": 35.472, "city": "Komyshuvakha", "images": []}, {"id": 381136, "min_date": "2018-04-01T08:49:00Z", "max_date": "2018-04-01T08:49:00Z", "count_points": 1, "latitude": 47.6697, "longitude": 35.6444, "city": "Kirove", "images": []}, {"id": 381137, "min_date": "2018-04-01T08:49:00Z", "max_date": "2018-04-01T08:49:00Z", "count_points": 2, "latitude": 47.97585, "longitude": 37.4418, "city": "Mareyka", "images": []}, {"id": 381138, "min_date": "2018-04-01T08:49:00Z", "max_date": "2018-04-01T08:49:00Z", "count_points": 2, "latitude": 47.78195, "longitude": 33.9843, "city": "Sholokhove", "images": []}, {"id": 381139, "min_date": "2018-04-01T08:49:00Z", "max_date": "2018-04-01T08:49:00Z", "count_points": 1, "latitude": 47.7476, "longitude": 38.5237, "city": "Amvrosiyivka", "images": []}, {"id": 381140, "min_date": "2018-04-01T08:49:00Z", "max_date": "2018-04-01T08:49:00Z", "count_points": 1, "latitude": 47.5122, "longitude": 37.9358, "city": "Tel\u2019manove", "images": []}, {"id": 381141, "min_date": "2018-04-01T08:49:00Z", "max_date": "2018-04-01T08:49:00Z", "count_points": 1, "latitude": 48.0903, "longitude": 33.5731, "city": "Zhovti Vody", "images": []}, {"id": 381142, "min_date": "2018-04-01T08:49:00Z", "max_date": "2018-04-01T08:49:00Z", "count_points": 2, "latitude": 48.05225, "longitude": 33.5128, "city": "Kryvyi Rih", "images": []}, {"id": 381143, "min_date": "2018-04-01T08:49:00Z", "max_date": "2018-04-01T08:49:00Z", "count_points": 1, "latitude": 47.7256, "longitude": 37.1528, "city": "Blahodatne", "images": []}, {"id": 381144, "min_date": "2018-04-01T08:49:00Z", "max_date": "2018-04-01T08:49:00Z", "count_points": 1, "latitude": 47.7628, "longitude": 38.4963, "city": "Amvrosiyivka", "images": []}, {"id": 381145, "min_date": "2018-04-01T08:49:00Z", "max_date": "2018-04-01T08:49:00Z", "count_points": 2, "latitude": 48.1416, "longitude": 37.43795, "city": "Selydove", "images": []}, {"id": 381146, "min_date": "2018-04-01T08:49:00Z", "max_date": "2018-04-01T08:49:00Z", "count_points": 1, "latitude": 48.2799, "longitude": 37.31, "city": "Myrnohrad", "images": []}, {"id": 381147, "min_date": "2018-04-01T08:49:00Z", "max_date": "2018-04-01T08:49:00Z", "count_points": 1, "latitude": 47.9909, "longitude": 38.6239, "city": "Torez", "images": []}, {"id": 381148, "min_date": "2018-04-01T08:49:00Z", "max_date": "2018-04-01T08:49:00Z", "count_points": 1, "latitude": 47.8931, "longitude": 32.4229, "city": "Ustynivka", "images": []}, {"id": 381149, "min_date": "2018-04-01T08:49:00Z", "max_date": "2018-04-01T08:49:00Z", "count_points": 1, "latitude": 47.783, "longitude": 33.1835, "city": "Shyroke", "images": []}, {"id": 381150, "min_date": "2018-04-01T08:49:00Z", "max_date": "2018-04-01T08:49:00Z", "count_points": 1, "latitude": 46.4967, "longitude": 32.5954, "city": "Hola Prystan\u2019", "images": []}, {"id": 381151, "min_date": "2018-04-01T08:50:00Z", "max_date": "2018-04-01T08:50:00Z", "count_points": 1, "latitude": 45.4605, "longitude": 33.516, "city": "Zimino", "images": []}, {"id": 381152, "min_date": "2018-04-01T08:50:00Z", "max_date": "2018-04-01T08:50:00Z", "count_points": 2, "latitude": 45.25115, "longitude": 35.05025, "city": "Ilyichevo", "images": []}, {"id": 381153, "min_date": "2018-04-01T10:33:00Z", "max_date": "2018-04-01T10:33:00Z", "count_points": 2, "latitude": 48.47505, "longitude": 38.70975, "city": "Artemivs\u2019k", "images": []}, {"id": 381154, "min_date": "2018-04-01T10:33:00Z", "max_date": "2018-04-01T10:33:00Z", "count_points": 1, "latitude": 47.3038, "longitude": 36.5258, "city": "Kuybysheve", "images": []}, {"id": 381155, "min_date": "2018-04-01T10:33:00Z", "max_date": "2018-04-01T10:33:00Z", "count_points": 1, "latitude": 48.4536, "longitude": 33.937, "city": "Vyshneve", "images": []}, {"id": 381156, "min_date": "2018-04-01T10:33:00Z", "max_date": "2018-04-01T10:33:00Z", "count_points": 1, "latitude": 47.8561, "longitude": 37.8977, "city": "Novyy Svit", "images": []}, {"id": 381157, "min_date": "2018-04-01T10:33:00Z", "max_date": "2018-04-01T10:33:00Z", "count_points": 1, "latitude": 47.0109, "longitude": 36.6099, "city": "Osypenko", "images": []}, {"id": 381158, "min_date": "2018-04-01T10:33:00Z", "max_date": "2018-04-01T10:33:00Z", "count_points": 1, "latitude": 47.7705, "longitude": 37.8029, "city": "Dokuchayevs\u2019k", "images": []}, {"id": 381159, "min_date": "2018-04-01T10:33:00Z", "max_date": "2018-04-01T10:33:00Z", "count_points": 1, "latitude": 46.8129, "longitude": 36.2188, "city": "Prymors\u2019k", "images": []}, {"id": 381160, "min_date": "2018-04-01T10:33:00Z", "max_date": "2018-04-01T10:33:00Z", "count_points": 1, "latitude": 47.4574, "longitude": 35.812, "city": "Mala Tokmachka", "images": []}, {"id": 381161, "min_date": "2018-04-01T10:33:00Z", "max_date": "2018-04-01T10:33:00Z", "count_points": 2, "latitude": 47.6042, "longitude": 37.6719, "city": "Dokuchayevs\u2019k", "images": []}, {"id": 381162, "min_date": "2018-04-01T10:33:00Z", "max_date": "2018-04-01T10:33:00Z", "count_points": 2, "latitude": 47.96345, "longitude": 34.11085, "city": "Sofiyivka", "images": []}, {"id": 381163, "min_date": "2018-04-01T10:33:00Z", "max_date": "2018-04-01T10:33:00Z", "count_points": 1, "latitude": 47.5359, "longitude": 31.1257, "city": "Domanivka", "images": []}, {"id": 381164, "min_date": "2018-04-01T10:33:00Z", "max_date": "2018-04-01T10:33:00Z", "count_points": 1, "latitude": 47.8135, "longitude": 33.4726, "city": "Kryvyi Rih", "images": []}, {"id": 381165, "min_date": "2018-04-01T10:33:00Z", "max_date": "2018-04-01T10:33:00Z", "count_points": 1, "latitude": 48.3467, "longitude": 33.477, "city": "Zhovti Vody", "images": []}, {"id": 381166, "min_date": "2018-04-01T10:33:00Z", "max_date": "2018-04-01T10:33:00Z", "count_points": 2, "latitude": 46.92075, "longitude": 35.5325, "city": "Voznesenka", "images": []}, {"id": 381167, "min_date": "2018-04-01T10:33:00Z", "max_date": "2018-04-01T10:33:00Z", "count_points": 1, "latitude": 47.3627, "longitude": 35.4414, "city": "Pryshyb", "images": []}, {"id": 381168, "min_date": "2018-04-01T10:33:00Z", "max_date": "2018-04-01T10:33:00Z", "count_points": 1, "latitude": 47.9913, "longitude": 32.716, "city": "Dolynska", "images": []}, {"id": 381169, "min_date": "2018-04-01T10:33:00Z", "max_date": "2018-04-01T10:33:00Z", "count_points": 2, "latitude": 47.95795, "longitude": 38.10735, "city": "Mospyne", "images": []}, {"id": 381170, "min_date": "2018-04-01T10:33:00Z", "max_date": "2018-04-01T10:33:00Z", "count_points": 1, "latitude": 48.117, "longitude": 39.3841, "city": "Roven\u2019ky", "images": []}, {"id": 381171, "min_date": "2018-04-01T10:33:00Z", "max_date": "2018-04-01T10:33:00Z", "count_points": 1, "latitude": 47.9103, "longitude": 38.1001, "city": "Mospyne", "images": []}, {"id": 381172, "min_date": "2018-04-01T10:33:00Z", "max_date": "2018-04-01T10:33:00Z", "count_points": 1, "latitude": 48.0531, "longitude": 37.2336, "city": "Kurakhovo", "images": []}]