[{"id": 404260, "min_date": "2018-10-22T00:12:00Z", "max_date": "2018-10-22T00:12:00Z", "count_points": 2, "latitude": 51.53721, "longitude": 27.50361, "city": "Olevs\u2019k", "images": []}, {"id": 404261, "min_date": "2018-10-22T00:12:00Z", "max_date": "2018-10-22T00:12:00Z", "count_points": 1, "latitude": 51.55645, "longitude": 27.53722, "city": "Olevs\u2019k", "images": []}, {"id": 404262, "min_date": "2018-10-22T00:12:00Z", "max_date": "2018-10-22T00:12:00Z", "count_points": 1, "latitude": 50.89887, "longitude": 26.43625, "city": "Kostopil\u2019", "images": []}, {"id": 404263, "min_date": "2018-10-22T00:12:00Z", "max_date": "2018-10-22T10:58:00Z", "count_points": 10, "latitude": 51.57059, "longitude": 27.16209, "city": "Rokytne", "images": []}, {"id": 404264, "min_date": "2018-10-22T00:12:00Z", "max_date": "2018-10-22T00:12:00Z", "count_points": 1, "latitude": 51.51259, "longitude": 27.01664, "city": "Rokytne", "images": []}, {"id": 404265, "min_date": "2018-10-22T00:12:00Z", "max_date": "2018-10-22T00:12:00Z", "count_points": 2, "latitude": 51.58887, "longitude": 27.11335, "city": "Rokytne", "images": []}, {"id": 404266, "min_date": "2018-10-22T00:12:00Z", "max_date": "2018-10-22T10:58:00Z", "count_points": 8, "latitude": 51.42283, "longitude": 27.03446, "city": "Rokytne", "images": []}, {"id": 404267, "min_date": "2018-10-22T00:12:00Z", "max_date": "2018-10-22T00:12:00Z", "count_points": 1, "latitude": 51.45431, "longitude": 25.62491, "city": "Manevychi", "images": []}, {"id": 404268, "min_date": "2018-10-22T00:12:00Z", "max_date": "2018-10-22T00:12:00Z", "count_points": 1, "latitude": 51.21114, "longitude": 26.98432, "city": "Rokytne", "images": []}, {"id": 404269, "min_date": "2018-10-22T00:12:00Z", "max_date": "2018-10-22T00:12:00Z", "count_points": 2, "latitude": 51.441, "longitude": 26.59496, "city": "Sarny", "images": []}, {"id": 404270, "min_date": "2018-10-22T00:12:00Z", "max_date": "2018-10-22T00:12:00Z", "count_points": 1, "latitude": 50.33229, "longitude": 24.79908, "city": "Kulykiv", "images": []}, {"id": 404271, "min_date": "2018-10-22T00:12:00Z", "max_date": "2018-10-22T01:54:00Z", "count_points": 5, "latitude": 51.40309, "longitude": 23.87968, "city": "Svityaz\u2019", "images": []}, {"id": 404272, "min_date": "2018-10-22T00:12:00Z", "max_date": "2018-10-22T00:12:00Z", "count_points": 1, "latitude": 51.21901, "longitude": 27.89707, "city": "Novi Bilokorovychi", "images": []}, {"id": 404273, "min_date": "2018-10-22T10:00:00Z", "max_date": "2018-10-22T11:42:00Z", "count_points": 3, "latitude": 45.4753, "longitude": 29.19612, "city": "Kiliya", "images": []}, {"id": 404274, "min_date": "2018-10-22T10:00:00Z", "max_date": "2018-10-22T10:00:00Z", "count_points": 1, "latitude": 50.1102, "longitude": 24.95632, "city": "Lopatyn", "images": []}, {"id": 404275, "min_date": "2018-10-22T10:00:00Z", "max_date": "2018-10-22T10:57:00Z", "count_points": 2, "latitude": 48.46805, "longitude": 31.11396, "city": "Lypnyazhka", "images": []}, {"id": 404276, "min_date": "2018-10-22T10:00:00Z", "max_date": "2018-10-22T10:58:00Z", "count_points": 5, "latitude": 50.13477, "longitude": 34.33109, "city": "Zin\u2019kiv", "images": []}, {"id": 404277, "min_date": "2018-10-22T10:00:00Z", "max_date": "2018-10-22T10:58:00Z", "count_points": 9, "latitude": 50.5119, "longitude": 34.63522, "city": "Lebedyn", "images": []}, {"id": 404278, "min_date": "2018-10-22T10:00:00Z", "max_date": "2018-10-22T10:00:00Z", "count_points": 1, "latitude": 50.62243, "longitude": 34.34727, "city": "Lebedyn", "images": []}, {"id": 404279, "min_date": "2018-10-22T10:00:00Z", "max_date": "2018-10-22T10:00:00Z", "count_points": 1, "latitude": 50.17135, "longitude": 26.79649, "city": "Izyaslav", "images": []}, {"id": 404280, "min_date": "2018-10-22T10:00:00Z", "max_date": "2018-10-22T10:00:00Z", "count_points": 3, "latitude": 52.27487, "longitude": 33.36448, "city": "Novhorod-Sivers\u2019kyy", "images": []}, {"id": 404281, "min_date": "2018-10-22T10:00:00Z", "max_date": "2018-10-22T10:00:00Z", "count_points": 6, "latitude": 50.62755, "longitude": 33.50255, "city": "Romny", "images": []}, {"id": 404282, "min_date": "2018-10-22T10:00:00Z", "max_date": "2018-10-22T10:00:00Z", "count_points": 1, "latitude": 52.05856, "longitude": 31.64721, "city": "Horodnya", "images": []}, {"id": 404283, "min_date": "2018-10-22T10:00:00Z", "max_date": "2018-10-22T10:00:00Z", "count_points": 1, "latitude": 51.74776, "longitude": 32.07542, "city": "Shchors", "images": []}, {"id": 404284, "min_date": "2018-10-22T10:00:00Z", "max_date": "2018-10-22T10:58:00Z", "count_points": 2, "latitude": 52.21437, "longitude": 33.30778, "city": "Novhorod-Sivers\u2019kyy", "images": []}, {"id": 404285, "min_date": "2018-10-22T10:00:00Z", "max_date": "2018-10-22T10:00:00Z", "count_points": 1, "latitude": 52.05405, "longitude": 32.64995, "city": "Semenivka", "images": []}, {"id": 404286, "min_date": "2018-10-22T10:00:00Z", "max_date": "2018-10-22T10:58:00Z", "count_points": 10, "latitude": 50.17709, "longitude": 31.73045, "city": "Yahotyn", "images": []}, {"id": 404287, "min_date": "2018-10-22T10:00:00Z", "max_date": "2018-10-22T10:58:00Z", "count_points": 2, "latitude": 50.77656, "longitude": 34.32006, "city": "Lebedyn", "images": []}, {"id": 404288, "min_date": "2018-10-22T10:00:00Z", "max_date": "2018-10-22T10:00:00Z", "count_points": 1, "latitude": 49.9958, "longitude": 30.17196, "city": "Chervona Motovylivka", "images": []}, {"id": 404289, "min_date": "2018-10-22T10:00:00Z", "max_date": "2018-10-22T10:57:00Z", "count_points": 4, "latitude": 49.0623, "longitude": 28.81467, "city": "Nemyriv", "images": []}, {"id": 404290, "min_date": "2018-10-22T10:00:00Z", "max_date": "2018-10-22T10:00:00Z", "count_points": 1, "latitude": 49.9851, "longitude": 34.16656, "city": "Shyshaky", "images": []}, {"id": 404291, "min_date": "2018-10-22T10:00:00Z", "max_date": "2018-10-22T10:00:00Z", "count_points": 1, "latitude": 51.16391, "longitude": 33.12989, "city": "Konotop", "images": []}, {"id": 404292, "min_date": "2018-10-22T10:00:00Z", "max_date": "2018-10-22T10:00:00Z", "count_points": 2, "latitude": 50.35236, "longitude": 34.18246, "city": "Hadyach", "images": []}, {"id": 404293, "min_date": "2018-10-22T10:00:00Z", "max_date": "2018-10-22T10:00:00Z", "count_points": 1, "latitude": 50.15476, "longitude": 34.84972, "city": "Kotel\u2019va", "images": []}, {"id": 404294, "min_date": "2018-10-22T10:00:00Z", "max_date": "2018-10-22T10:00:00Z", "count_points": 1, "latitude": 50.4806, "longitude": 32.04504, "city": "Zgurovka", "images": []}, {"id": 404295, "min_date": "2018-10-22T10:00:00Z", "max_date": "2018-10-22T10:58:00Z", "count_points": 6, "latitude": 49.96218, "longitude": 33.67887, "city": "Myrhorod", "images": []}, {"id": 404296, "min_date": "2018-10-22T10:00:00Z", "max_date": "2018-10-22T10:00:00Z", "count_points": 1, "latitude": 50.35416, "longitude": 33.84815, "city": "Hadyach", "images": []}, {"id": 404297, "min_date": "2018-10-22T10:00:00Z", "max_date": "2018-10-22T10:00:00Z", "count_points": 1, "latitude": 49.23844, "longitude": 33.54358, "city": "Kremenchuk", "images": []}, {"id": 404298, "min_date": "2018-10-22T10:00:00Z", "max_date": "2018-10-22T10:00:00Z", "count_points": 1, "latitude": 50.53732, "longitude": 34.799, "city": "Trostyanets\u2019", "images": []}, {"id": 404299, "min_date": "2018-10-22T10:00:00Z", "max_date": "2018-10-22T10:00:00Z", "count_points": 2, "latitude": 45.32546, "longitude": 33.93909, "city": "Stakhanovka", "images": []}, {"id": 404300, "min_date": "2018-10-22T10:00:00Z", "max_date": "2018-10-22T10:57:00Z", "count_points": 6, "latitude": 49.12913, "longitude": 31.62987, "city": "Tsvetkovo", "images": [{"image_url": "404300.jpg", "timestamp": "2018-10-22T10:57:00Z"}]}, {"id": 404301, "min_date": "2018-10-22T10:00:00Z", "max_date": "2018-10-22T10:57:00Z", "count_points": 5, "latitude": 48.73887, "longitude": 30.49441, "city": "Babanka", "images": []}, {"id": 404302, "min_date": "2018-10-22T10:00:00Z", "max_date": "2018-10-22T10:00:00Z", "count_points": 1, "latitude": 48.80532, "longitude": 30.48425, "city": "Babanka", "images": []}, {"id": 404303, "min_date": "2018-10-22T10:00:00Z", "max_date": "2018-10-22T10:57:00Z", "count_points": 6, "latitude": 49.22698, "longitude": 29.91055, "city": "Tsibulev", "images": []}, {"id": 404304, "min_date": "2018-10-22T10:00:00Z", "max_date": "2018-10-22T10:57:00Z", "count_points": 3, "latitude": 48.60604, "longitude": 29.09071, "city": "Ladyzhyn", "images": []}, {"id": 404305, "min_date": "2018-10-22T10:00:00Z", "max_date": "2018-10-22T10:57:00Z", "count_points": 8, "latitude": 48.64644, "longitude": 30.90906, "city": "Novoarkhanhel\u2019s\u2019k", "images": []}, {"id": 404306, "min_date": "2018-10-22T10:00:00Z", "max_date": "2018-10-22T10:58:00Z", "count_points": 5, "latitude": 49.72325, "longitude": 32.26607, "city": "Chornobay", "images": []}, {"id": 404307, "min_date": "2018-10-22T10:00:00Z", "max_date": "2018-10-22T10:58:00Z", "count_points": 11, "latitude": 49.17461, "longitude": 28.71161, "city": "Voronovytsya", "images": []}, {"id": 404308, "min_date": "2018-10-22T10:00:00Z", "max_date": "2018-10-22T10:58:00Z", "count_points": 3, "latitude": 49.4757, "longitude": 30.5552, "city": "Tarashcha", "images": []}, {"id": 404309, "min_date": "2018-10-22T10:00:00Z", "max_date": "2018-10-22T09:14:00Z", "count_points": 5, "latitude": 48.65552, "longitude": 29.65099, "city": "Teplyk", "images": []}, {"id": 404310, "min_date": "2018-10-22T10:00:00Z", "max_date": "2018-10-22T10:00:00Z", "count_points": 1, "latitude": 50.03959, "longitude": 32.7798, "city": "Lubny", "images": []}, {"id": 404311, "min_date": "2018-10-22T10:00:00Z", "max_date": "2018-10-22T10:57:00Z", "count_points": 3, "latitude": 48.93512, "longitude": 32.49066, "city": "Yelyzavethradka", "images": []}, {"id": 404312, "min_date": "2018-10-22T10:00:00Z", "max_date": "2018-10-22T10:00:00Z", "count_points": 1, "latitude": 49.90622, "longitude": 33.09811, "city": "Lubny", "images": []}, {"id": 404313, "min_date": "2018-10-22T10:00:00Z", "max_date": "2018-10-22T10:58:00Z", "count_points": 4, "latitude": 50.00114, "longitude": 31.63763, "city": "Tsybli", "images": []}, {"id": 404314, "min_date": "2018-10-22T10:00:00Z", "max_date": "2018-10-22T10:00:00Z", "count_points": 1, "latitude": 49.4615, "longitude": 33.00938, "city": "Semenivka", "images": []}, {"id": 404315, "min_date": "2018-10-22T10:00:00Z", "max_date": "2018-10-22T10:58:00Z", "count_points": 2, "latitude": 49.46341, "longitude": 29.958, "city": "Volodarka", "images": []}, {"id": 404316, "min_date": "2018-10-22T10:00:00Z", "max_date": "2018-10-22T10:00:00Z", "count_points": 1, "latitude": 50.07603, "longitude": 32.81062, "city": "Lubny", "images": []}, {"id": 404317, "min_date": "2018-10-22T10:00:00Z", "max_date": "2018-10-22T09:14:00Z", "count_points": 4, "latitude": 48.59225, "longitude": 30.33736, "city": "Babanka", "images": []}, {"id": 404318, "min_date": "2018-10-22T10:00:00Z", "max_date": "2018-10-22T10:57:00Z", "count_points": 5, "latitude": 48.70218, "longitude": 30.97057, "city": "Novoarkhanhel\u2019s\u2019k", "images": []}, {"id": 404319, "min_date": "2018-10-22T10:00:00Z", "max_date": "2018-10-22T10:00:00Z", "count_points": 1, "latitude": 49.74968, "longitude": 30.8099, "city": "Karapyshi", "images": []}, {"id": 404320, "min_date": "2018-10-22T10:00:00Z", "max_date": "2018-10-22T09:13:00Z", "count_points": 2, "latitude": 49.6332, "longitude": 33.13739, "city": "Semenivka", "images": []}, {"id": 404321, "min_date": "2018-10-22T10:00:00Z", "max_date": "2018-10-22T10:00:00Z", "count_points": 1, "latitude": 49.1977, "longitude": 29.74947, "city": "Tsibulev", "images": []}, {"id": 404322, "min_date": "2018-10-22T10:00:00Z", "max_date": "2018-10-22T10:57:00Z", "count_points": 5, "latitude": 48.55118, "longitude": 31.24786, "city": "Dobrovelychkivka", "images": []}, {"id": 404323, "min_date": "2018-10-22T10:00:00Z", "max_date": "2018-10-22T11:42:00Z", "count_points": 2, "latitude": 49.07266, "longitude": 29.62345, "city": "Orativ", "images": []}, {"id": 404324, "min_date": "2018-10-22T10:00:00Z", "max_date": "2018-10-22T10:58:00Z", "count_points": 6, "latitude": 49.81399, "longitude": 31.09596, "city": "Rzhyshchiv", "images": []}, {"id": 404325, "min_date": "2018-10-22T10:00:00Z", "max_date": "2018-10-22T10:00:00Z", "count_points": 1, "latitude": 49.77798, "longitude": 30.63396, "city": "Mirovka", "images": []}, {"id": 404326, "min_date": "2018-10-22T10:00:00Z", "max_date": "2018-10-22T10:58:00Z", "count_points": 2, "latitude": 49.43628, "longitude": 30.97176, "city": "Stebl\u00ebv", "images": []}, {"id": 404327, "min_date": "2018-10-22T10:00:00Z", "max_date": "2018-10-22T10:00:00Z", "count_points": 1, "latitude": 49.32253, "longitude": 30.21722, "city": "Roskoshnyy", "images": []}, {"id": 404328, "min_date": "2018-10-22T10:00:00Z", "max_date": "2018-10-22T10:58:00Z", "count_points": 2, "latitude": 49.53663, "longitude": 30.62034, "city": "Tarashcha", "images": []}, {"id": 404329, "min_date": "2018-10-22T10:00:00Z", "max_date": "2018-10-22T10:58:00Z", "count_points": 4, "latitude": 49.91158, "longitude": 32.41322, "city": "Hrebinka", "images": []}, {"id": 404330, "min_date": "2018-10-22T10:00:00Z", "max_date": "2018-10-22T10:58:00Z", "count_points": 5, "latitude": 50.02893, "longitude": 32.83782, "city": "Lubny", "images": []}, {"id": 404331, "min_date": "2018-10-22T10:00:00Z", "max_date": "2018-10-22T09:13:00Z", "count_points": 3, "latitude": 50.0262, "longitude": 32.90362, "city": "Lubny", "images": []}, {"id": 404332, "min_date": "2018-10-22T10:00:00Z", "max_date": "2018-10-22T10:00:00Z", "count_points": 1, "latitude": 49.05103, "longitude": 31.1106, "city": "Yurkivka", "images": []}, {"id": 404333, "min_date": "2018-10-22T10:00:00Z", "max_date": "2018-10-22T10:57:00Z", "count_points": 6, "latitude": 48.7425, "longitude": 29.8995, "city": "Khrystynivka", "images": []}, {"id": 404334, "min_date": "2018-10-22T10:00:00Z", "max_date": "2018-10-22T10:00:00Z", "count_points": 1, "latitude": 46.26711, "longitude": 33.78537, "city": "Armyansk", "images": []}, {"id": 404335, "min_date": "2018-10-22T10:00:00Z", "max_date": "2018-10-22T10:00:00Z", "count_points": 1, "latitude": 46.62791, "longitude": 33.96918, "city": "Askaniya-Nova", "images": []}, {"id": 404336, "min_date": "2018-10-22T10:00:00Z", "max_date": "2018-10-22T10:00:00Z", "count_points": 1, "latitude": 49.54045, "longitude": 28.4658, "city": "Pavlovka", "images": []}, {"id": 404337, "min_date": "2018-10-22T10:00:00Z", "max_date": "2018-10-22T10:00:00Z", "count_points": 1, "latitude": 49.32997, "longitude": 28.02171, "city": "Lityn", "images": []}, {"id": 404338, "min_date": "2018-10-22T10:00:00Z", "max_date": "2018-10-22T10:00:00Z", "count_points": 1, "latitude": 51.35957, "longitude": 32.514, "city": "Borzna", "images": []}, {"id": 404339, "min_date": "2018-10-22T10:00:00Z", "max_date": "2018-10-22T10:00:00Z", "count_points": 1, "latitude": 46.58253, "longitude": 34.38221, "city": "Ivanivka", "images": []}, {"id": 404340, "min_date": "2018-10-22T10:00:00Z", "max_date": "2018-10-23T11:18:00Z", "count_points": 2, "latitude": 46.38862, "longitude": 34.23611, "city": "Novotroyits\u2019ke", "images": []}, {"id": 404341, "min_date": "2018-10-22T10:00:00Z", "max_date": "2018-10-22T10:00:00Z", "count_points": 1, "latitude": 48.17582, "longitude": 33.42723, "city": "Lozuvatka", "images": []}, {"id": 404342, "min_date": "2018-10-22T10:00:00Z", "max_date": "2018-10-22T10:57:00Z", "count_points": 5, "latitude": 45.66714, "longitude": 29.02014, "city": "Kalcheva", "images": []}, {"id": 404343, "min_date": "2018-10-22T10:00:00Z", "max_date": "2018-10-22T10:58:00Z", "count_points": 4, "latitude": 50.48213, "longitude": 31.29339, "city": "Baryshivka", "images": []}, {"id": 404344, "min_date": "2018-10-22T10:00:00Z", "max_date": "2018-10-22T09:13:00Z", "count_points": 2, "latitude": 49.88777, "longitude": 32.96615, "city": "Lubny", "images": []}, {"id": 404345, "min_date": "2018-10-22T10:00:00Z", "max_date": "2018-10-22T09:13:00Z", "count_points": 4, "latitude": 49.42035, "longitude": 33.62801, "city": "Kozel\u2019shchyna", "images": []}, {"id": 404346, "min_date": "2018-10-22T10:00:00Z", "max_date": "2018-10-22T09:13:00Z", "count_points": 2, "latitude": 49.51254, "longitude": 33.39484, "city": "Hlobyne", "images": []}, {"id": 404347, "min_date": "2018-10-22T10:00:00Z", "max_date": "2018-10-22T10:00:00Z", "count_points": 1, "latitude": 48.90821, "longitude": 35.03849, "city": "Mahdalynivka", "images": []}, {"id": 404348, "min_date": "2018-10-22T10:00:00Z", "max_date": "2018-10-22T10:00:00Z", "count_points": 1, "latitude": 49.76484, "longitude": 33.38348, "city": "Khorol", "images": []}, {"id": 404349, "min_date": "2018-10-22T10:00:00Z", "max_date": "2018-10-22T10:00:00Z", "count_points": 2, "latitude": 50.21019, "longitude": 32.20494, "city": "Hrebinka", "images": []}, {"id": 404350, "min_date": "2018-10-22T10:00:00Z", "max_date": "2018-10-23T10:03:00Z", "count_points": 16, "latitude": 50.92803, "longitude": 33.88881, "city": "Terny", "images": []}, {"id": 404351, "min_date": "2018-10-22T10:00:00Z", "max_date": "2018-10-22T10:58:00Z", "count_points": 2, "latitude": 50.71088, "longitude": 33.90458, "city": "Nedryhayliv", "images": []}, {"id": 404352, "min_date": "2018-10-22T10:00:00Z", "max_date": "2018-10-22T10:00:00Z", "count_points": 2, "latitude": 49.61024, "longitude": 33.03228, "city": "Semenivka", "images": []}, {"id": 404353, "min_date": "2018-10-22T10:00:00Z", "max_date": "2018-10-23T10:03:00Z", "count_points": 8, "latitude": 50.13681, "longitude": 33.79631, "city": "Komyshnya", "images": []}, {"id": 404354, "min_date": "2018-10-22T10:00:00Z", "max_date": "2018-10-22T11:42:00Z", "count_points": 2, "latitude": 50.25813, "longitude": 32.05651, "city": "Chernyakhivka", "images": []}, {"id": 404355, "min_date": "2018-10-22T10:00:00Z", "max_date": "2018-10-22T09:13:00Z", "count_points": 3, "latitude": 50.89056, "longitude": 30.70921, "city": "Desna", "images": []}, {"id": 404356, "min_date": "2018-10-22T10:00:00Z", "max_date": "2018-10-22T09:13:00Z", "count_points": 3, "latitude": 50.15059, "longitude": 30.15684, "city": "Borova", "images": []}, {"id": 404357, "min_date": "2018-10-22T10:00:00Z", "max_date": "2018-10-22T10:58:00Z", "count_points": 3, "latitude": 51.37724, "longitude": 29.10436, "city": "Narodychi", "images": []}, {"id": 404358, "min_date": "2018-10-22T10:00:00Z", "max_date": "2018-10-22T10:00:00Z", "count_points": 1, "latitude": 48.35972, "longitude": 31.10581, "city": "Dobrovelychkivka", "images": []}, {"id": 404359, "min_date": "2018-10-22T10:00:00Z", "max_date": "2018-10-22T10:57:00Z", "count_points": 2, "latitude": 48.28105, "longitude": 31.03052, "city": "Lysa Hora", "images": []}, {"id": 404360, "min_date": "2018-10-22T10:00:00Z", "max_date": "2018-10-28T08:38:00Z", "count_points": 5, "latitude": 45.45067, "longitude": 29.12977, "city": "Kiliya", "images": []}, {"id": 404361, "min_date": "2018-10-22T10:00:00Z", "max_date": "2018-10-22T10:00:00Z", "count_points": 2, "latitude": 48.34729, "longitude": 31.06453, "city": "Lypnyazhka", "images": []}, {"id": 404362, "min_date": "2018-10-22T10:00:00Z", "max_date": "2018-10-22T10:00:00Z", "count_points": 4, "latitude": 48.42696, "longitude": 30.8756, "city": "Tyshkivka", "images": []}, {"id": 404363, "min_date": "2018-10-22T11:42:00Z", "max_date": "2018-10-22T11:42:00Z", "count_points": 2, "latitude": 48.50374, "longitude": 31.2071, "city": "Dobrovelychkivka", "images": []}, {"id": 404364, "min_date": "2018-10-22T11:42:00Z", "max_date": "2018-10-22T11:42:00Z", "count_points": 1, "latitude": 48.42757, "longitude": 29.72297, "city": "Hayvoron", "images": []}, {"id": 404365, "min_date": "2018-10-22T11:42:00Z", "max_date": "2018-10-22T11:42:00Z", "count_points": 1, "latitude": 49.144, "longitude": 28.81635, "city": "Voronovytsya", "images": []}, {"id": 404366, "min_date": "2018-10-22T11:42:00Z", "max_date": "2018-10-22T11:42:00Z", "count_points": 2, "latitude": 45.54604, "longitude": 29.44716, "city": "Shevchenkove", "images": []}, {"id": 404367, "min_date": "2018-10-22T11:42:00Z", "max_date": "2018-10-22T10:58:00Z", "count_points": 2, "latitude": 50.44812, "longitude": 26.20534, "city": "Zdovbytsya", "images": []}, {"id": 404368, "min_date": "2018-10-22T11:42:00Z", "max_date": "2018-10-22T11:42:00Z", "count_points": 2, "latitude": 47.9037, "longitude": 29.71907, "city": "Balta", "images": []}, {"id": 404369, "min_date": "2018-10-22T11:42:00Z", "max_date": "2018-10-22T10:58:00Z", "count_points": 5, "latitude": 51.77317, "longitude": 31.811, "city": "Shchors", "images": []}, {"id": 404370, "min_date": "2018-10-22T11:42:00Z", "max_date": "2018-10-22T11:42:00Z", "count_points": 2, "latitude": 48.22022, "longitude": 32.0791, "city": "Kompaniyivka", "images": []}, {"id": 404371, "min_date": "2018-10-22T11:42:00Z", "max_date": "2018-10-22T11:42:00Z", "count_points": 2, "latitude": 50.57805, "longitude": 27.22714, "city": "Korets", "images": []}, {"id": 404372, "min_date": "2018-10-22T11:42:00Z", "max_date": "2018-10-22T11:42:00Z", "count_points": 2, "latitude": 49.25835, "longitude": 27.05743, "city": "Khmelnytskyi", "images": []}, {"id": 404373, "min_date": "2018-10-22T11:42:00Z", "max_date": "2018-10-22T10:57:00Z", "count_points": 2, "latitude": 48.01234, "longitude": 33.12632, "city": "Lozuvatka", "images": []}, {"id": 404374, "min_date": "2018-10-22T11:42:00Z", "max_date": "2018-10-22T11:42:00Z", "count_points": 1, "latitude": 49.55903, "longitude": 27.33385, "city": "Medzhybizh", "images": []}, {"id": 404375, "min_date": "2018-10-22T11:42:00Z", "max_date": "2018-10-22T11:42:00Z", "count_points": 1, "latitude": 48.25456, "longitude": 28.28705, "city": "Yampil\u2019", "images": []}, {"id": 404376, "min_date": "2018-10-22T11:42:00Z", "max_date": "2018-10-22T11:42:00Z", "count_points": 1, "latitude": 46.34695, "longitude": 29.46043, "city": "Borodino", "images": []}, {"id": 404529, "min_date": "2018-10-26T10:24:00Z", "max_date": "2018-10-26T10:24:00Z", "count_points": 1, "latitude": 50.86826, "longitude": 29.96736, "city": "Ivankiv", "images": []}, {"id": 404377, "min_date": "2018-10-22T11:42:00Z", "max_date": "2018-10-22T11:42:00Z", "count_points": 4, "latitude": 50.98464, "longitude": 28.53663, "city": "Korosten\u2019", "images": []}, {"id": 404378, "min_date": "2018-10-22T11:42:00Z", "max_date": "2018-10-22T11:42:00Z", "count_points": 1, "latitude": 48.3444, "longitude": 26.30398, "city": "Klishkivtsi", "images": []}, {"id": 404379, "min_date": "2018-10-22T11:42:00Z", "max_date": "2018-10-22T11:42:00Z", "count_points": 3, "latitude": 51.362, "longitude": 28.53988, "city": "Ovruch", "images": []}, {"id": 404380, "min_date": "2018-10-22T11:42:00Z", "max_date": "2018-10-22T11:42:00Z", "count_points": 4, "latitude": 48.30086, "longitude": 30.78322, "city": "Vil\u2019shanka", "images": []}, {"id": 404381, "min_date": "2018-10-22T11:42:00Z", "max_date": "2018-10-22T10:57:00Z", "count_points": 7, "latitude": 48.19516, "longitude": 29.32458, "city": "Chechelnyk", "images": []}, {"id": 404382, "min_date": "2018-10-22T11:42:00Z", "max_date": "2018-10-22T11:42:00Z", "count_points": 1, "latitude": 49.53802, "longitude": 28.19521, "city": "Ulaniv", "images": []}, {"id": 404383, "min_date": "2018-10-22T11:42:00Z", "max_date": "2018-10-22T11:42:00Z", "count_points": 1, "latitude": 49.79452, "longitude": 27.93561, "city": "Liubar", "images": []}, {"id": 404384, "min_date": "2018-10-22T11:42:00Z", "max_date": "2018-10-22T10:57:00Z", "count_points": 3, "latitude": 48.54243, "longitude": 27.85036, "city": "Vendychany", "images": []}, {"id": 404385, "min_date": "2018-10-22T11:42:00Z", "max_date": "2018-10-22T11:42:00Z", "count_points": 1, "latitude": 48.53512, "longitude": 28.25322, "city": "Chernivtsi", "images": []}, {"id": 404386, "min_date": "2018-10-22T11:42:00Z", "max_date": "2018-10-22T11:42:00Z", "count_points": 2, "latitude": 48.54372, "longitude": 31.5983, "city": "Zlynka", "images": []}, {"id": 404387, "min_date": "2018-10-22T11:42:00Z", "max_date": "2018-10-22T10:57:00Z", "count_points": 13, "latitude": 48.65101, "longitude": 31.7636, "city": "Mala Vyska", "images": []}, {"id": 404388, "min_date": "2018-10-22T11:42:00Z", "max_date": "2018-10-22T11:42:00Z", "count_points": 2, "latitude": 49.45488, "longitude": 32.52934, "city": "Chornobay", "images": []}, {"id": 404389, "min_date": "2018-10-22T11:42:00Z", "max_date": "2018-10-22T11:42:00Z", "count_points": 1, "latitude": 48.62382, "longitude": 29.02747, "city": "Tulchyn", "images": []}, {"id": 404390, "min_date": "2018-10-22T11:42:00Z", "max_date": "2018-10-22T11:42:00Z", "count_points": 1, "latitude": 50.15087, "longitude": 32.39881, "city": "Hrebinka", "images": []}, {"id": 404391, "min_date": "2018-10-22T11:42:00Z", "max_date": "2018-10-23T09:42:00Z", "count_points": 2, "latitude": 48.65493, "longitude": 31.91589, "city": "Mala Vyska", "images": []}, {"id": 404392, "min_date": "2018-10-22T11:42:00Z", "max_date": "2018-10-22T11:42:00Z", "count_points": 1, "latitude": 49.91334, "longitude": 32.72986, "city": "Orzhytsya", "images": []}, {"id": 404393, "min_date": "2018-10-22T11:42:00Z", "max_date": "2018-10-22T10:57:00Z", "count_points": 3, "latitude": 49.15012, "longitude": 32.42677, "city": "Chyhyryn", "images": []}, {"id": 404394, "min_date": "2018-10-22T11:42:00Z", "max_date": "2018-10-22T11:42:00Z", "count_points": 3, "latitude": 49.86846, "longitude": 32.67224, "city": "Orzhytsya", "images": []}, {"id": 404395, "min_date": "2018-10-22T11:42:00Z", "max_date": "2018-10-22T11:42:00Z", "count_points": 2, "latitude": 49.79956, "longitude": 28.54063, "city": "Berdychiv", "images": []}, {"id": 404396, "min_date": "2018-10-22T11:42:00Z", "max_date": "2018-10-22T11:42:00Z", "count_points": 2, "latitude": 49.70802, "longitude": 29.07033, "city": "Ruzhyn", "images": []}, {"id": 404397, "min_date": "2018-10-22T11:42:00Z", "max_date": "2018-10-22T10:57:00Z", "count_points": 2, "latitude": 48.95088, "longitude": 28.63588, "city": "Tyvriv", "images": []}, {"id": 404398, "min_date": "2018-10-22T11:42:00Z", "max_date": "2018-10-22T09:14:00Z", "count_points": 5, "latitude": 48.70519, "longitude": 28.89559, "city": "Tulchyn", "images": []}, {"id": 404399, "min_date": "2018-10-22T11:42:00Z", "max_date": "2018-10-22T11:42:00Z", "count_points": 1, "latitude": 49.78479, "longitude": 32.37695, "city": "Chornobay", "images": []}, {"id": 404400, "min_date": "2018-10-22T11:42:00Z", "max_date": "2018-10-22T11:42:00Z", "count_points": 1, "latitude": 49.29266, "longitude": 30.53211, "city": "Kalynove", "images": []}, {"id": 404401, "min_date": "2018-10-22T11:42:00Z", "max_date": "2018-10-22T10:58:00Z", "count_points": 2, "latitude": 49.61645, "longitude": 28.97819, "city": "Kozyatyn", "images": []}, {"id": 404402, "min_date": "2018-10-22T11:42:00Z", "max_date": "2018-10-22T11:42:00Z", "count_points": 2, "latitude": 49.90367, "longitude": 32.46161, "city": "Hrebinka", "images": []}, {"id": 404403, "min_date": "2018-10-22T11:42:00Z", "max_date": "2018-10-22T11:42:00Z", "count_points": 3, "latitude": 49.26582, "longitude": 28.81021, "city": "Turbiv", "images": []}, {"id": 404404, "min_date": "2018-10-22T11:42:00Z", "max_date": "2018-10-22T10:58:00Z", "count_points": 3, "latitude": 49.43442, "longitude": 28.81415, "city": "Turbiv", "images": []}, {"id": 404405, "min_date": "2018-10-22T11:42:00Z", "max_date": "2018-10-22T10:57:00Z", "count_points": 3, "latitude": 48.52457, "longitude": 31.26875, "city": "Dobrovelychkivka", "images": []}, {"id": 404406, "min_date": "2018-10-22T11:42:00Z", "max_date": "2018-10-22T10:58:00Z", "count_points": 3, "latitude": 49.20985, "longitude": 29.60223, "city": "Orativ", "images": []}, {"id": 404407, "min_date": "2018-10-22T11:42:00Z", "max_date": "2018-10-22T11:42:00Z", "count_points": 1, "latitude": 49.7235, "longitude": 32.10577, "city": "Zolotonosha", "images": []}, {"id": 404408, "min_date": "2018-10-22T11:42:00Z", "max_date": "2018-10-22T11:42:00Z", "count_points": 8, "latitude": 48.5822, "longitude": 29.34378, "city": "Trostyanets\u2019", "images": []}, {"id": 404409, "min_date": "2018-10-22T11:42:00Z", "max_date": "2018-10-22T11:42:00Z", "count_points": 1, "latitude": 49.04448, "longitude": 30.03273, "city": "Tsibulev", "images": []}, {"id": 404410, "min_date": "2018-10-22T11:42:00Z", "max_date": "2018-10-22T11:42:00Z", "count_points": 16, "latitude": 48.60375, "longitude": 29.94011, "city": "Teplyk", "images": []}, {"id": 404411, "min_date": "2018-10-22T11:42:00Z", "max_date": "2018-10-22T11:42:00Z", "count_points": 2, "latitude": 49.2553, "longitude": 29.9168, "city": "Tsibulev", "images": []}, {"id": 404412, "min_date": "2018-10-22T11:42:00Z", "max_date": "2018-10-22T11:42:00Z", "count_points": 6, "latitude": 49.4502, "longitude": 30.34392, "city": "Kalynove", "images": []}, {"id": 404413, "min_date": "2018-10-22T11:42:00Z", "max_date": "2018-10-22T10:57:00Z", "count_points": 2, "latitude": 48.69782, "longitude": 31.69984, "city": "Mala Vyska", "images": []}, {"id": 404414, "min_date": "2018-10-22T11:42:00Z", "max_date": "2018-10-28T08:37:00Z", "count_points": 6, "latitude": 48.81088, "longitude": 30.00459, "city": "Khrystynivka", "images": [{"image_url": "404414.jpg", "timestamp": "2018-10-28T08:37:00Z"}]}, {"id": 404415, "min_date": "2018-10-22T11:42:00Z", "max_date": "2018-10-22T11:42:00Z", "count_points": 2, "latitude": 50.03961, "longitude": 26.59684, "city": "Lyakhovtsy", "images": []}, {"id": 404416, "min_date": "2018-10-22T11:42:00Z", "max_date": "2018-10-22T11:42:00Z", "count_points": 1, "latitude": 50.89251, "longitude": 28.0664, "city": "Novi Bilokorovychi", "images": []}, {"id": 404417, "min_date": "2018-10-22T11:42:00Z", "max_date": "2018-10-22T11:42:00Z", "count_points": 2, "latitude": 51.05509, "longitude": 32.57731, "city": "Borzna", "images": []}, {"id": 404418, "min_date": "2018-10-22T11:42:00Z", "max_date": "2018-10-22T10:58:00Z", "count_points": 4, "latitude": 50.54898, "longitude": 31.48576, "city": "Korniyivka", "images": []}, {"id": 404419, "min_date": "2018-10-22T11:42:00Z", "max_date": "2018-10-22T10:57:00Z", "count_points": 4, "latitude": 48.28519, "longitude": 28.12009, "city": "Yampil\u2019", "images": []}, {"id": 404420, "min_date": "2018-10-22T11:42:00Z", "max_date": "2018-10-22T11:42:00Z", "count_points": 2, "latitude": 51.651, "longitude": 32.05606, "city": "Shchors", "images": []}, {"id": 404421, "min_date": "2018-10-22T11:42:00Z", "max_date": "2018-10-22T10:58:00Z", "count_points": 3, "latitude": 51.12971, "longitude": 32.86966, "city": "Bakhmach", "images": []}, {"id": 404422, "min_date": "2018-10-22T11:42:00Z", "max_date": "2018-10-22T10:58:00Z", "count_points": 5, "latitude": 51.13302, "longitude": 33.88765, "city": "Buryn\u2019", "images": []}, {"id": 404423, "min_date": "2018-10-22T23:54:00Z", "max_date": "2018-10-22T23:54:00Z", "count_points": 1, "latitude": 47.25941, "longitude": 29.63424, "city": "Zakharivka", "images": []}, {"id": 404424, "min_date": "2018-10-22T23:54:00Z", "max_date": "2018-10-22T23:54:00Z", "count_points": 1, "latitude": 49.25606, "longitude": 32.29031, "city": "Chervona Sloboda", "images": []}, {"id": 404425, "min_date": "2018-10-22T23:54:00Z", "max_date": "2018-10-22T23:54:00Z", "count_points": 1, "latitude": 50.00156, "longitude": 29.08854, "city": "Andrushivka", "images": []}, {"id": 404426, "min_date": "2018-10-23T01:36:00Z", "max_date": "2018-10-23T01:36:00Z", "count_points": 2, "latitude": 48.65301, "longitude": 26.72709, "city": "Makiv", "images": []}, {"id": 404427, "min_date": "2018-10-23T09:42:00Z", "max_date": "2018-10-23T10:02:00Z", "count_points": 5, "latitude": 46.5066, "longitude": 34.06577, "city": "Askaniya-Nova", "images": []}, {"id": 404428, "min_date": "2018-10-23T09:42:00Z", "max_date": "2018-10-23T11:18:00Z", "count_points": 3, "latitude": 46.32938, "longitude": 33.9524, "city": "Askaniya-Nova", "images": []}, {"id": 404429, "min_date": "2018-10-23T09:42:00Z", "max_date": "2018-10-23T09:42:00Z", "count_points": 1, "latitude": 47.95091, "longitude": 30.25613, "city": "Kryve Ozero", "images": []}, {"id": 404430, "min_date": "2018-10-23T09:42:00Z", "max_date": "2018-10-23T10:02:00Z", "count_points": 2, "latitude": 48.12426, "longitude": 33.28345, "city": "Lozuvatka", "images": []}, {"id": 404431, "min_date": "2018-10-23T09:42:00Z", "max_date": "2018-10-23T11:24:00Z", "count_points": 3, "latitude": 48.2426, "longitude": 31.65011, "city": "Rivne", "images": []}, {"id": 404432, "min_date": "2018-10-23T09:42:00Z", "max_date": "2018-10-23T09:56:00Z", "count_points": 3, "latitude": 48.19772, "longitude": 30.1495, "city": "Savran", "images": []}, {"id": 404433, "min_date": "2018-10-23T09:42:00Z", "max_date": "2018-10-23T09:42:00Z", "count_points": 1, "latitude": 49.60695, "longitude": 34.25677, "city": "Reshetylivka", "images": []}, {"id": 404434, "min_date": "2018-10-23T09:42:00Z", "max_date": "2018-10-23T09:42:00Z", "count_points": 1, "latitude": 48.14642, "longitude": 30.1544, "city": "Savran", "images": []}, {"id": 404435, "min_date": "2018-10-23T09:42:00Z", "max_date": "2018-10-23T09:57:00Z", "count_points": 2, "latitude": 45.85893, "longitude": 28.77441, "city": "Horodnye", "images": []}, {"id": 404436, "min_date": "2018-10-23T09:42:00Z", "max_date": "2018-10-22T10:57:00Z", "count_points": 4, "latitude": 46.21308, "longitude": 33.09431, "city": "Kalanchak", "images": []}, {"id": 404437, "min_date": "2018-10-23T09:42:00Z", "max_date": "2018-10-23T09:42:00Z", "count_points": 1, "latitude": 50.71739, "longitude": 33.75171, "city": "Lypova Dolyna", "images": []}, {"id": 404438, "min_date": "2018-10-23T09:42:00Z", "max_date": "2018-10-23T10:02:00Z", "count_points": 4, "latitude": 47.33196, "longitude": 32.90288, "city": "Bereznehuvate", "images": []}, {"id": 404439, "min_date": "2018-10-23T09:42:00Z", "max_date": "2018-10-23T11:18:00Z", "count_points": 2, "latitude": 46.14451, "longitude": 33.1402, "city": "Kalanchak", "images": []}, {"id": 404440, "min_date": "2018-10-23T09:42:00Z", "max_date": "2018-10-23T09:42:00Z", "count_points": 1, "latitude": 46.38517, "longitude": 33.11144, "city": "Brylivka", "images": []}, {"id": 404441, "min_date": "2018-10-23T09:42:00Z", "max_date": "2018-10-23T08:18:00Z", "count_points": 3, "latitude": 48.27016, "longitude": 31.78671, "city": "Rivne", "images": []}, {"id": 404442, "min_date": "2018-10-23T09:42:00Z", "max_date": "2018-10-23T11:24:00Z", "count_points": 4, "latitude": 49.93756, "longitude": 35.16863, "city": "Krasnokuts\u2019k", "images": []}, {"id": 404443, "min_date": "2018-10-23T09:42:00Z", "max_date": "2018-10-23T09:42:00Z", "count_points": 1, "latitude": 49.09784, "longitude": 35.66851, "city": "Kehychivka", "images": []}, {"id": 404444, "min_date": "2018-10-23T09:42:00Z", "max_date": "2018-10-23T09:56:00Z", "count_points": 8, "latitude": 48.24484, "longitude": 30.39203, "city": "Holovanivs\u2019k", "images": []}, {"id": 404445, "min_date": "2018-10-23T09:42:00Z", "max_date": "2018-10-23T10:02:00Z", "count_points": 2, "latitude": 48.8832, "longitude": 35.09963, "city": "Hubynykha", "images": []}, {"id": 404446, "min_date": "2018-10-23T09:42:00Z", "max_date": "2018-10-23T09:42:00Z", "count_points": 1, "latitude": 48.31668, "longitude": 31.26376, "city": "Dobrovelychkivka", "images": []}, {"id": 404447, "min_date": "2018-10-23T09:42:00Z", "max_date": "2018-10-23T09:42:00Z", "count_points": 1, "latitude": 47.96426, "longitude": 30.06567, "city": "Savran", "images": []}, {"id": 404448, "min_date": "2018-10-23T09:42:00Z", "max_date": "2018-10-23T11:40:00Z", "count_points": 3, "latitude": 48.31162, "longitude": 32.04283, "city": "Kompaniyivka", "images": []}, {"id": 404449, "min_date": "2018-10-23T09:42:00Z", "max_date": "2018-10-23T09:42:00Z", "count_points": 1, "latitude": 48.3565, "longitude": 32.70698, "city": "Novhorodka", "images": []}, {"id": 404450, "min_date": "2018-10-23T09:42:00Z", "max_date": "2018-10-23T09:42:00Z", "count_points": 1, "latitude": 48.11399, "longitude": 29.86653, "city": "Peschana", "images": []}, {"id": 404451, "min_date": "2018-10-23T09:42:00Z", "max_date": "2018-10-23T09:42:00Z", "count_points": 2, "latitude": 48.14135, "longitude": 29.86876, "city": "Peschana", "images": []}, {"id": 404452, "min_date": "2018-10-23T09:42:00Z", "max_date": "2018-10-23T09:42:00Z", "count_points": 1, "latitude": 48.15227, "longitude": 32.33329, "city": "Kompaniyivka", "images": []}, {"id": 404453, "min_date": "2018-10-23T09:42:00Z", "max_date": "2018-10-23T09:42:00Z", "count_points": 1, "latitude": 50.42838, "longitude": 33.3299, "city": "Lokhvytsya", "images": []}, {"id": 404454, "min_date": "2018-10-23T09:42:00Z", "max_date": "2018-10-23T11:24:00Z", "count_points": 3, "latitude": 48.66603, "longitude": 32.98997, "city": "Oleksandriys\u2019ke", "images": []}, {"id": 404455, "min_date": "2018-10-23T09:42:00Z", "max_date": "2018-10-23T10:02:00Z", "count_points": 5, "latitude": 49.52133, "longitude": 36.10005, "city": "Pervomays\u2019kyy", "images": []}, {"id": 404456, "min_date": "2018-10-23T09:42:00Z", "max_date": "2018-10-23T10:02:00Z", "count_points": 2, "latitude": 49.05879, "longitude": 36.10287, "city": "Panyutyne", "images": []}, {"id": 404457, "min_date": "2018-10-23T09:42:00Z", "max_date": "2018-10-23T09:42:00Z", "count_points": 2, "latitude": 48.80676, "longitude": 31.31555, "city": "Shpola", "images": []}, {"id": 404458, "min_date": "2018-10-23T09:42:00Z", "max_date": "2018-10-23T09:42:00Z", "count_points": 1, "latitude": 48.85787, "longitude": 36.1549, "city": "Panyutyne", "images": []}, {"id": 404459, "min_date": "2018-10-23T09:42:00Z", "max_date": "2018-10-23T10:02:00Z", "count_points": 5, "latitude": 48.60309, "longitude": 30.71813, "city": "Novoarkhanhel\u2019s\u2019k", "images": []}, {"id": 404460, "min_date": "2018-10-23T09:42:00Z", "max_date": "2018-10-23T10:02:00Z", "count_points": 6, "latitude": 49.5087, "longitude": 35.70051, "city": "Berezivka", "images": []}, {"id": 404461, "min_date": "2018-10-23T09:42:00Z", "max_date": "2018-10-23T11:24:00Z", "count_points": 3, "latitude": 49.01418, "longitude": 35.99708, "city": "Sakhnovshchyna", "images": []}, {"id": 404462, "min_date": "2018-10-23T09:42:00Z", "max_date": "2018-10-23T09:42:00Z", "count_points": 2, "latitude": 48.51364, "longitude": 36.18883, "city": "Petropavlivka", "images": []}, {"id": 404463, "min_date": "2018-10-23T09:42:00Z", "max_date": "2018-10-23T09:42:00Z", "count_points": 1, "latitude": 51.09925, "longitude": 33.91918, "city": "Terny", "images": []}, {"id": 404464, "min_date": "2018-10-23T09:42:00Z", "max_date": "2018-10-23T09:42:00Z", "count_points": 1, "latitude": 49.16718, "longitude": 37.53084, "city": "Studenok", "images": []}, {"id": 404465, "min_date": "2018-10-23T09:42:00Z", "max_date": "2018-10-23T09:42:00Z", "count_points": 2, "latitude": 48.77175, "longitude": 34.89005, "city": "Mahdalynivka", "images": []}, {"id": 404466, "min_date": "2018-10-23T09:42:00Z", "max_date": "2018-10-23T09:42:00Z", "count_points": 1, "latitude": 49.2183, "longitude": 33.87705, "city": "Kozel\u2019shchyna", "images": []}, {"id": 404467, "min_date": "2018-10-23T09:42:00Z", "max_date": "2018-10-23T09:42:00Z", "count_points": 1, "latitude": 49.36102, "longitude": 33.96256, "city": "Lutovynivka", "images": []}, {"id": 404468, "min_date": "2018-10-23T09:42:00Z", "max_date": "2018-10-23T09:42:00Z", "count_points": 1, "latitude": 49.27965, "longitude": 35.33186, "city": "Zachepylivka", "images": []}, {"id": 404469, "min_date": "2018-10-23T09:42:00Z", "max_date": "2018-10-23T09:42:00Z", "count_points": 1, "latitude": 49.22451, "longitude": 33.82325, "city": "Kozel\u2019shchyna", "images": []}, {"id": 404470, "min_date": "2018-10-23T09:42:00Z", "max_date": "2018-10-23T10:02:00Z", "count_points": 2, "latitude": 48.90131, "longitude": 35.33693, "city": "Hubynykha", "images": []}, {"id": 404471, "min_date": "2018-10-23T09:42:00Z", "max_date": "2018-10-23T09:42:00Z", "count_points": 1, "latitude": 48.01924, "longitude": 30.27361, "city": "Kryve Ozero", "images": []}, {"id": 404472, "min_date": "2018-10-23T09:42:00Z", "max_date": "2018-10-23T10:02:00Z", "count_points": 4, "latitude": 48.17123, "longitude": 35.626, "city": "Synel\u2019nykove", "images": []}, {"id": 404473, "min_date": "2018-10-23T09:42:00Z", "max_date": "2018-10-23T09:42:00Z", "count_points": 1, "latitude": 49.35214, "longitude": 34.02489, "city": "Lutovynivka", "images": []}, {"id": 404474, "min_date": "2018-10-23T09:42:00Z", "max_date": "2018-10-23T09:42:00Z", "count_points": 1, "latitude": 48.94409, "longitude": 34.92343, "city": "Mahdalynivka", "images": []}, {"id": 404475, "min_date": "2018-10-23T09:42:00Z", "max_date": "2018-10-23T11:24:00Z", "count_points": 2, "latitude": 48.97626, "longitude": 34.7662, "city": "Hupalivka", "images": []}, {"id": 404476, "min_date": "2018-10-23T09:42:00Z", "max_date": "2018-10-23T09:42:00Z", "count_points": 1, "latitude": 48.77433, "longitude": 34.61077, "city": "Petrykivka", "images": []}, {"id": 404477, "min_date": "2018-10-23T09:42:00Z", "max_date": "2018-10-23T09:42:00Z", "count_points": 1, "latitude": 49.68537, "longitude": 35.44107, "city": "Kolomak", "images": []}, {"id": 404478, "min_date": "2018-10-23T09:42:00Z", "max_date": "2018-10-23T09:42:00Z", "count_points": 2, "latitude": 49.86907, "longitude": 33.4306, "city": "Romodan", "images": []}, {"id": 404479, "min_date": "2018-10-23T09:42:00Z", "max_date": "2018-10-23T10:02:00Z", "count_points": 10, "latitude": 48.85131, "longitude": 35.29882, "city": "Hubynykha", "images": []}, {"id": 404480, "min_date": "2018-10-23T09:42:00Z", "max_date": "2018-10-23T09:42:00Z", "count_points": 1, "latitude": 49.98231, "longitude": 36.05157, "city": "Solonytsivka", "images": []}, {"id": 404481, "min_date": "2018-10-23T09:42:00Z", "max_date": "2018-10-23T09:42:00Z", "count_points": 1, "latitude": 49.59925, "longitude": 35.72476, "city": "Berezivka", "images": []}, {"id": 404482, "min_date": "2018-10-23T11:18:00Z", "max_date": "2018-10-23T11:18:00Z", "count_points": 2, "latitude": 45.70297, "longitude": 29.45538, "city": "Shevchenkove", "images": []}, {"id": 404483, "min_date": "2018-10-23T11:18:00Z", "max_date": "2018-10-22T10:57:00Z", "count_points": 2, "latitude": 46.16007, "longitude": 32.94547, "city": "Skadovs\u2019k", "images": []}, {"id": 404484, "min_date": "2018-10-23T11:18:00Z", "max_date": "2018-10-23T11:39:00Z", "count_points": 3, "latitude": 45.47658, "longitude": 29.51217, "city": "Vylkove", "images": []}, {"id": 404485, "min_date": "2018-10-23T11:18:00Z", "max_date": "2018-10-23T11:18:00Z", "count_points": 1, "latitude": 46.10507, "longitude": 33.44275, "city": "Kalanchak", "images": []}, {"id": 404486, "min_date": "2018-10-23T11:18:00Z", "max_date": "2018-10-23T11:18:00Z", "count_points": 1, "latitude": 46.32503, "longitude": 29.67477, "city": "Kamyshevka Vtoraya", "images": []}, {"id": 404487, "min_date": "2018-10-23T11:18:00Z", "max_date": "2018-10-22T09:14:00Z", "count_points": 2, "latitude": 46.19325, "longitude": 33.38533, "city": "Kalanchak", "images": []}, {"id": 404488, "min_date": "2018-10-23T11:18:00Z", "max_date": "2018-10-23T11:18:00Z", "count_points": 2, "latitude": 45.59498, "longitude": 28.96112, "city": "Kalcheva", "images": []}, {"id": 404489, "min_date": "2018-10-23T11:18:00Z", "max_date": "2018-10-23T11:18:00Z", "count_points": 3, "latitude": 46.02204, "longitude": 29.36522, "city": "Artsyz", "images": []}, {"id": 404490, "min_date": "2018-10-23T11:18:00Z", "max_date": "2018-10-23T11:18:00Z", "count_points": 1, "latitude": 46.20733, "longitude": 30.21257, "city": "Bilhorod-Dnistrovskyi", "images": []}, {"id": 404491, "min_date": "2018-10-23T11:18:00Z", "max_date": "2018-10-23T11:18:00Z", "count_points": 1, "latitude": 46.97615, "longitude": 33.23236, "city": "Dnipryany", "images": []}, {"id": 404492, "min_date": "2018-10-23T11:18:00Z", "max_date": "2018-10-23T11:40:00Z", "count_points": 5, "latitude": 46.12317, "longitude": 32.331, "city": "Novofedorivka", "images": []}, {"id": 404493, "min_date": "2018-10-23T11:18:00Z", "max_date": "2018-10-23T11:18:00Z", "count_points": 1, "latitude": 47.6984, "longitude": 36.76347, "city": "Velyka Novosilka", "images": []}, {"id": 404494, "min_date": "2018-10-23T11:24:00Z", "max_date": "2018-10-23T11:24:00Z", "count_points": 1, "latitude": 48.30466, "longitude": 31.81935, "city": "Rivne", "images": []}, {"id": 404495, "min_date": "2018-10-23T11:24:00Z", "max_date": "2018-10-28T09:48:00Z", "count_points": 3, "latitude": 48.45385, "longitude": 31.45186, "city": "Zlynka", "images": []}, {"id": 404496, "min_date": "2018-10-23T11:24:00Z", "max_date": "2018-10-23T11:24:00Z", "count_points": 1, "latitude": 49.01535, "longitude": 34.98553, "city": "Mahdalynivka", "images": []}, {"id": 404497, "min_date": "2018-10-23T11:24:00Z", "max_date": "2018-10-23T11:24:00Z", "count_points": 2, "latitude": 48.52316, "longitude": 34.41862, "city": "Novomykolayivka", "images": []}, {"id": 404498, "min_date": "2018-10-23T11:24:00Z", "max_date": "2018-10-23T11:24:00Z", "count_points": 4, "latitude": 48.9458, "longitude": 35.37202, "city": "Hubynykha", "images": []}, {"id": 404499, "min_date": "2018-10-23T11:24:00Z", "max_date": "2018-10-23T11:24:00Z", "count_points": 1, "latitude": 48.88691, "longitude": 35.46172, "city": "Hubynykha", "images": []}, {"id": 404500, "min_date": "2018-10-23T11:24:00Z", "max_date": "2018-10-23T11:24:00Z", "count_points": 3, "latitude": 49.79357, "longitude": 34.77311, "city": "Oposhnya", "images": []}, {"id": 404501, "min_date": "2018-10-23T11:24:00Z", "max_date": "2018-10-23T11:24:00Z", "count_points": 3, "latitude": 48.23975, "longitude": 31.84255, "city": "Rivne", "images": []}, {"id": 404502, "min_date": "2018-10-23T11:24:00Z", "max_date": "2018-10-23T11:24:00Z", "count_points": 1, "latitude": 48.13174, "longitude": 31.65559, "city": "Rivne", "images": []}, {"id": 404503, "min_date": "2018-10-23T11:24:00Z", "max_date": "2018-10-23T11:24:00Z", "count_points": 1, "latitude": 48.19253, "longitude": 33.64071, "city": "Zhovti Vody", "images": []}, {"id": 404504, "min_date": "2018-10-23T11:24:00Z", "max_date": "2018-10-23T11:24:00Z", "count_points": 2, "latitude": 50.74033, "longitude": 34.85381, "city": "Nyzy", "images": []}, {"id": 404505, "min_date": "2018-10-23T11:24:00Z", "max_date": "2018-10-23T11:24:00Z", "count_points": 1, "latitude": 49.27, "longitude": 35.0286, "city": "Karlivka", "images": []}, {"id": 404506, "min_date": "2018-10-23T11:24:00Z", "max_date": "2018-10-23T11:24:00Z", "count_points": 2, "latitude": 49.16532, "longitude": 34.79968, "city": "Hupalivka", "images": []}, {"id": 404507, "min_date": "2018-10-23T11:24:00Z", "max_date": "2018-10-23T11:24:00Z", "count_points": 1, "latitude": 49.90492, "longitude": 34.57602, "city": "Oposhnya", "images": []}, {"id": 404508, "min_date": "2018-10-23T11:24:00Z", "max_date": "2018-10-23T11:24:00Z", "count_points": 1, "latitude": 49.45634, "longitude": 35.07949, "city": "Karlivka", "images": []}, {"id": 404509, "min_date": "2018-10-23T11:24:00Z", "max_date": "2018-10-23T11:24:00Z", "count_points": 2, "latitude": 48.78902, "longitude": 33.53373, "city": "Onufriyivka", "images": []}, {"id": 404510, "min_date": "2018-10-23T11:24:00Z", "max_date": "2018-10-23T11:24:00Z", "count_points": 1, "latitude": 50.10002, "longitude": 35.87805, "city": "Manchenky", "images": []}, {"id": 404511, "min_date": "2018-10-23T11:24:00Z", "max_date": "2018-10-23T11:24:00Z", "count_points": 8, "latitude": 48.79377, "longitude": 35.83816, "city": "Yur\u201dyivka", "images": []}, {"id": 404512, "min_date": "2018-10-23T11:24:00Z", "max_date": "2018-10-23T11:24:00Z", "count_points": 1, "latitude": 48.51773, "longitude": 31.35877, "city": "Zlynka", "images": []}, {"id": 404513, "min_date": "2018-10-23T11:24:00Z", "max_date": "2018-10-23T11:24:00Z", "count_points": 1, "latitude": 48.82514, "longitude": 34.80095, "city": "Mahdalynivka", "images": []}, {"id": 404514, "min_date": "2018-10-23T11:24:00Z", "max_date": "2018-10-23T11:24:00Z", "count_points": 2, "latitude": 48.94863, "longitude": 34.34187, "city": "Tsarychanka", "images": []}, {"id": 404515, "min_date": "2018-10-23T11:24:00Z", "max_date": "2018-10-23T11:24:00Z", "count_points": 1, "latitude": 49.57148, "longitude": 35.34966, "city": "Varvarivka", "images": []}, {"id": 404516, "min_date": "2018-10-23T11:24:00Z", "max_date": "2018-10-23T11:24:00Z", "count_points": 2, "latitude": 49.07859, "longitude": 34.65896, "city": "Hupalivka", "images": []}, {"id": 404517, "min_date": "2018-10-23T11:24:00Z", "max_date": "2018-10-23T11:24:00Z", "count_points": 2, "latitude": 49.37346, "longitude": 34.90353, "city": "Mashivka", "images": []}, {"id": 404518, "min_date": "2018-10-23T11:24:00Z", "max_date": "2018-10-23T11:24:00Z", "count_points": 2, "latitude": 49.12385, "longitude": 35.06532, "city": "Zachepylivka", "images": []}, {"id": 404519, "min_date": "2018-10-23T23:36:00Z", "max_date": "2018-10-23T23:36:00Z", "count_points": 1, "latitude": 47.56215, "longitude": 36.50752, "city": "Chapayevka", "images": []}, {"id": 404520, "min_date": "2018-10-23T23:36:00Z", "max_date": "2018-10-23T23:36:00Z", "count_points": 1, "latitude": 48.77926, "longitude": 37.57172, "city": "Kramators\u2019k", "images": []}, {"id": 404521, "min_date": "2018-10-24T11:00:00Z", "max_date": "2018-10-24T11:00:00Z", "count_points": 1, "latitude": 50.69332, "longitude": 29.39388, "city": "Bila Krynytsya", "images": []}, {"id": 404522, "min_date": "2018-10-24T11:00:00Z", "max_date": "2018-10-24T11:00:00Z", "count_points": 1, "latitude": 50.03766, "longitude": 29.72833, "city": "Kozhanka", "images": []}, {"id": 404523, "min_date": "2018-10-24T11:00:00Z", "max_date": "2018-10-24T11:00:00Z", "count_points": 1, "latitude": 50.10605, "longitude": 29.78573, "city": "Fastiv", "images": []}, {"id": 404524, "min_date": "2018-10-24T11:00:00Z", "max_date": "2018-10-24T11:00:00Z", "count_points": 1, "latitude": 50.10418, "longitude": 29.69661, "city": "Kozhanka", "images": []}, {"id": 404525, "min_date": "2018-10-24T11:06:00Z", "max_date": "2018-10-24T11:06:00Z", "count_points": 1, "latitude": 51.45335, "longitude": 29.16233, "city": "Narodychi", "images": []}, {"id": 404526, "min_date": "2018-10-24T11:06:00Z", "max_date": "2018-10-24T11:06:00Z", "count_points": 1, "latitude": 51.0538, "longitude": 29.95955, "city": "Ivankiv", "images": []}, {"id": 404527, "min_date": "2018-10-25T10:42:00Z", "max_date": "2018-10-25T10:42:00Z", "count_points": 1, "latitude": 50.9235, "longitude": 26.97277, "city": "Koloniya Zastav\u2019ye", "images": []}, {"id": 404528, "min_date": "2018-10-26T10:24:00Z", "max_date": "2018-10-26T10:24:00Z", "count_points": 1, "latitude": 50.86803, "longitude": 29.7118, "city": "Ivankiv", "images": []}, {"id": 404530, "min_date": "2018-10-26T10:24:00Z", "max_date": "2018-10-26T10:24:00Z", "count_points": 1, "latitude": 51.09271, "longitude": 29.41134, "city": "Krasyatychi", "images": []}, {"id": 404531, "min_date": "2018-10-26T10:24:00Z", "max_date": "2018-10-26T10:24:00Z", "count_points": 1, "latitude": 50.16478, "longitude": 29.23932, "city": "Korostyshiv", "images": []}, {"id": 404532, "min_date": "2018-10-26T10:24:00Z", "max_date": "2018-10-26T10:24:00Z", "count_points": 1, "latitude": 51.05457, "longitude": 29.62004, "city": "Krasyatychi", "images": []}, {"id": 404533, "min_date": "2018-10-26T10:24:00Z", "max_date": "2018-10-26T10:24:00Z", "count_points": 1, "latitude": 51.47214, "longitude": 29.22161, "city": "Narodychi", "images": []}, {"id": 404534, "min_date": "2018-10-26T12:06:00Z", "max_date": "2018-10-26T12:06:00Z", "count_points": 1, "latitude": 46.38233, "longitude": 29.03821, "city": "Serpneve", "images": []}, {"id": 404535, "min_date": "2018-10-27T00:18:00Z", "max_date": "2018-10-28T23:42:00Z", "count_points": 3, "latitude": 45.38571, "longitude": 34.93849, "city": "Sovetskiy", "images": []}, {"id": 404536, "min_date": "2018-10-27T10:06:00Z", "max_date": "2018-10-27T09:32:00Z", "count_points": 2, "latitude": 47.24908, "longitude": 30.17959, "city": "Shyryayeve", "images": []}, {"id": 404537, "min_date": "2018-10-27T10:06:00Z", "max_date": "2018-10-27T09:31:00Z", "count_points": 2, "latitude": 51.09044, "longitude": 26.05564, "city": "Orzhiv", "images": []}, {"id": 404538, "min_date": "2018-10-27T10:06:00Z", "max_date": "2018-10-27T10:06:00Z", "count_points": 1, "latitude": 49.06132, "longitude": 38.26088, "city": "Kreminna", "images": []}, {"id": 404539, "min_date": "2018-10-27T10:06:00Z", "max_date": "2018-10-27T10:06:00Z", "count_points": 1, "latitude": 46.2113, "longitude": 32.19399, "city": "Bekhtery", "images": []}, {"id": 404540, "min_date": "2018-10-27T10:06:00Z", "max_date": "2018-10-27T10:06:00Z", "count_points": 1, "latitude": 49.12366, "longitude": 37.53677, "city": "Studenok", "images": []}, {"id": 404541, "min_date": "2018-10-27T10:06:00Z", "max_date": "2018-10-27T10:06:00Z", "count_points": 2, "latitude": 45.48056, "longitude": 28.65094, "city": "Ozerne", "images": []}, {"id": 404542, "min_date": "2018-10-27T11:48:00Z", "max_date": "2018-10-27T11:15:00Z", "count_points": 2, "latitude": 47.09046, "longitude": 29.50372, "city": "Velykoploske", "images": []}, {"id": 404543, "min_date": "2018-10-28T09:48:00Z", "max_date": "2018-10-28T09:48:00Z", "count_points": 2, "latitude": 48.38129, "longitude": 30.00458, "city": "Hayvoron", "images": []}, {"id": 404544, "min_date": "2018-10-28T09:48:00Z", "max_date": "2018-10-28T10:21:00Z", "count_points": 3, "latitude": 48.2057, "longitude": 30.29736, "city": "Blahovishchens\u2019ke", "images": []}, {"id": 404545, "min_date": "2018-10-28T09:48:00Z", "max_date": "2018-10-28T09:48:00Z", "count_points": 2, "latitude": 45.73325, "longitude": 28.70962, "city": "Zaliznychne", "images": []}, {"id": 404546, "min_date": "2018-10-28T09:48:00Z", "max_date": "2018-10-28T09:48:00Z", "count_points": 2, "latitude": 48.22155, "longitude": 28.85495, "city": "Pishchanka", "images": []}, {"id": 404547, "min_date": "2018-10-28T09:48:00Z", "max_date": "2018-10-28T09:48:00Z", "count_points": 1, "latitude": 49.32223, "longitude": 30.49044, "city": "Kalynove", "images": []}, {"id": 404548, "min_date": "2018-10-28T09:48:00Z", "max_date": "2018-10-28T10:21:00Z", "count_points": 6, "latitude": 49.53581, "longitude": 30.25194, "city": "Stavyshche", "images": [{"image_url": "404548.jpg", "timestamp": "2018-10-28T10:21:00Z"}]}, {"id": 404549, "min_date": "2018-10-28T09:48:00Z", "max_date": "2018-10-28T09:48:00Z", "count_points": 1, "latitude": 49.26126, "longitude": 32.20641, "city": "Chervona Sloboda", "images": []}, {"id": 404550, "min_date": "2018-10-28T09:48:00Z", "max_date": "2018-10-28T09:48:00Z", "count_points": 1, "latitude": 48.01332, "longitude": 28.98578, "city": "Zagnitkiv", "images": []}, {"id": 404551, "min_date": "2018-10-28T09:48:00Z", "max_date": "2018-10-28T09:48:00Z", "count_points": 1, "latitude": 47.41192, "longitude": 32.18916, "city": "Bashtanka", "images": []}, {"id": 404552, "min_date": "2018-10-28T09:48:00Z", "max_date": "2018-10-28T08:37:00Z", "count_points": 4, "latitude": 48.01076, "longitude": 29.20242, "city": "Kodyma", "images": [{"image_url": "404552.jpg", "timestamp": "2018-10-28T08:37:00Z"}]}, {"id": 404553, "min_date": "2018-10-28T09:48:00Z", "max_date": "2018-10-28T09:48:00Z", "count_points": 2, "latitude": 48.0442, "longitude": 30.43621, "city": "Kryve Ozero", "images": []}, {"id": 404554, "min_date": "2018-10-28T11:24:00Z", "max_date": "2018-10-23T11:39:00Z", "count_points": 4, "latitude": 45.47239, "longitude": 29.42685, "city": "Shevchenkove", "images": []}, {"id": 404555, "min_date": "2018-10-28T11:30:00Z", "max_date": "2018-10-28T11:30:00Z", "count_points": 4, "latitude": 48.10127, "longitude": 29.16525, "city": "Kodyma", "images": []}, {"id": 404556, "min_date": "2018-10-28T11:30:00Z", "max_date": "2018-10-28T11:30:00Z", "count_points": 2, "latitude": 48.58623, "longitude": 28.36172, "city": "Tomashpil\u2019", "images": []}, {"id": 404557, "min_date": "2018-10-28T11:30:00Z", "max_date": "2018-10-28T11:30:00Z", "count_points": 1, "latitude": 48.46817, "longitude": 28.58521, "city": "Tomashpil\u2019", "images": []}, {"id": 404558, "min_date": "2018-10-28T11:30:00Z", "max_date": "2018-10-28T11:30:00Z", "count_points": 1, "latitude": 48.51696, "longitude": 28.55538, "city": "Tomashpil\u2019", "images": []}, {"id": 404559, "min_date": "2018-10-28T11:30:00Z", "max_date": "2018-10-28T11:30:00Z", "count_points": 2, "latitude": 48.60587, "longitude": 28.86118, "city": "Tulchyn", "images": []}, {"id": 404560, "min_date": "2018-10-28T11:30:00Z", "max_date": "2018-10-28T11:30:00Z", "count_points": 2, "latitude": 48.6397, "longitude": 36.25657, "city": "Yur\u201dyivka", "images": []}, {"id": 404561, "min_date": "2018-10-28T11:30:00Z", "max_date": "2018-10-28T11:30:00Z", "count_points": 1, "latitude": 48.60721, "longitude": 36.24695, "city": "Petropavlivka", "images": []}, {"id": 404562, "min_date": "2018-10-28T11:30:00Z", "max_date": "2018-10-28T11:30:00Z", "count_points": 3, "latitude": 48.76981, "longitude": 29.96805, "city": "Khrystynivka", "images": []}, {"id": 404563, "min_date": "2018-10-28T11:30:00Z", "max_date": "2018-10-28T11:30:00Z", "count_points": 1, "latitude": 49.15852, "longitude": 33.96483, "city": "Lutovynivka", "images": []}, {"id": 404564, "min_date": "2018-10-28T11:30:00Z", "max_date": "2018-10-28T11:30:00Z", "count_points": 3, "latitude": 47.09072, "longitude": 29.83485, "city": "Velyka Mykhaylivka", "images": []}, {"id": 404565, "min_date": "2018-10-22T09:13:00Z", "max_date": "2018-10-22T10:57:00Z", "count_points": 3, "latitude": 49.09337, "longitude": 29.97593, "city": "Tsibulev", "images": []}, {"id": 404566, "min_date": "2018-10-22T09:13:00Z", "max_date": "2018-10-22T09:13:00Z", "count_points": 4, "latitude": 49.41045, "longitude": 30.49275, "city": "Kalynove", "images": []}, {"id": 404567, "min_date": "2018-10-22T09:13:00Z", "max_date": "2018-10-22T09:13:00Z", "count_points": 1, "latitude": 49.9268, "longitude": 32.5767, "city": "Orzhytsya", "images": []}, {"id": 404568, "min_date": "2018-10-22T09:13:00Z", "max_date": "2018-10-22T09:13:00Z", "count_points": 1, "latitude": 48.9388, "longitude": 34.0796, "city": "Kobelyaky", "images": []}, {"id": 404569, "min_date": "2018-10-22T09:13:00Z", "max_date": "2018-10-22T09:13:00Z", "count_points": 2, "latitude": 48.7062, "longitude": 33.3563, "city": "Pavlysh", "images": []}, {"id": 404570, "min_date": "2018-10-22T09:13:00Z", "max_date": "2018-10-22T09:13:00Z", "count_points": 1, "latitude": 49.9121, "longitude": 30.7681, "city": "Kaharlyk", "images": []}, {"id": 404571, "min_date": "2018-10-22T09:13:00Z", "max_date": "2018-10-22T09:13:00Z", "count_points": 1, "latitude": 51.0346, "longitude": 34.3421, "city": "Bilopillya", "images": []}, {"id": 404572, "min_date": "2018-10-22T09:13:00Z", "max_date": "2018-10-22T09:13:00Z", "count_points": 2, "latitude": 50.7131, "longitude": 34.9307, "city": "Boromlya", "images": []}, {"id": 404573, "min_date": "2018-10-22T09:13:00Z", "max_date": "2018-10-22T09:13:00Z", "count_points": 1, "latitude": 49.4035, "longitude": 33.4143, "city": "Hlobyne", "images": []}, {"id": 404574, "min_date": "2018-10-22T09:13:00Z", "max_date": "2018-10-22T09:13:00Z", "count_points": 2, "latitude": 49.8674, "longitude": 33.7359, "city": "Velyka Bahachka", "images": []}, {"id": 404575, "min_date": "2018-10-22T09:13:00Z", "max_date": "2018-10-22T09:13:00Z", "count_points": 1, "latitude": 49.7795, "longitude": 33.5897, "city": "Velyka Bahachka", "images": []}, {"id": 404576, "min_date": "2018-10-22T09:13:00Z", "max_date": "2018-10-22T09:13:00Z", "count_points": 2, "latitude": 49.88545, "longitude": 26.75325, "city": "Antoniny", "images": []}, {"id": 404577, "min_date": "2018-10-22T09:13:00Z", "max_date": "2018-10-22T09:13:00Z", "count_points": 1, "latitude": 51.6381, "longitude": 32.8769, "city": "Korop", "images": []}, {"id": 404578, "min_date": "2018-10-22T09:14:00Z", "max_date": "2018-10-22T10:57:00Z", "count_points": 2, "latitude": 48.4558, "longitude": 31.67485, "city": "Zlynka", "images": []}, {"id": 404579, "min_date": "2018-10-22T09:14:00Z", "max_date": "2018-10-22T09:14:00Z", "count_points": 1, "latitude": 46.8146, "longitude": 34.1684, "city": "Nyzhni Sirohozy", "images": []}, {"id": 404580, "min_date": "2018-10-22T09:14:00Z", "max_date": "2018-10-22T09:14:00Z", "count_points": 2, "latitude": 47.6195, "longitude": 29.76175, "city": "Ananyiv Pershyi", "images": []}, {"id": 404581, "min_date": "2018-10-22T09:14:00Z", "max_date": "2018-10-22T09:14:00Z", "count_points": 1, "latitude": 48.3906, "longitude": 29.608, "city": "Viytivka", "images": []}, {"id": 404582, "min_date": "2018-10-22T09:14:00Z", "max_date": "2018-10-22T09:14:00Z", "count_points": 1, "latitude": 46.7836, "longitude": 33.2784, "city": "Dnipryany", "images": []}, {"id": 404583, "min_date": "2018-10-22T09:14:00Z", "max_date": "2018-10-22T09:14:00Z", "count_points": 1, "latitude": 48.2751, "longitude": 29.6884, "city": "Peschana", "images": []}, {"id": 404584, "min_date": "2018-10-22T09:14:00Z", "max_date": "2018-10-22T09:14:00Z", "count_points": 1, "latitude": 48.5845, "longitude": 29.5612, "city": "Viytivka", "images": []}, {"id": 404585, "min_date": "2018-10-22T10:57:00Z", "max_date": "2018-10-22T10:57:00Z", "count_points": 2, "latitude": 48.24725, "longitude": 31.1103, "city": "Lysa Hora", "images": []}, {"id": 404586, "min_date": "2018-10-22T10:57:00Z", "max_date": "2018-10-22T10:57:00Z", "count_points": 1, "latitude": 49.1784, "longitude": 30.7842, "city": "Lysyanka", "images": []}, {"id": 404587, "min_date": "2018-10-22T10:57:00Z", "max_date": "2018-10-22T10:57:00Z", "count_points": 1, "latitude": 48.2935, "longitude": 30.1542, "city": "Blahovishchens\u2019ke", "images": []}, {"id": 404588, "min_date": "2018-10-22T10:57:00Z", "max_date": "2018-10-22T10:57:00Z", "count_points": 1, "latitude": 49.2226, "longitude": 30.2402, "city": "Zhashkiv", "images": []}, {"id": 404589, "min_date": "2018-10-22T10:57:00Z", "max_date": "2018-10-22T10:57:00Z", "count_points": 1, "latitude": 46.1709, "longitude": 33.1707, "city": "Kalanchak", "images": []}, {"id": 404590, "min_date": "2018-10-22T10:57:00Z", "max_date": "2018-10-22T10:57:00Z", "count_points": 1, "latitude": 48.451, "longitude": 28.5016, "city": "Tomashpil\u2019", "images": []}, {"id": 404591, "min_date": "2018-10-22T10:57:00Z", "max_date": "2018-10-22T10:57:00Z", "count_points": 1, "latitude": 48.6747, "longitude": 28.2133, "city": "Sharhorod", "images": []}, {"id": 404592, "min_date": "2018-10-22T10:57:00Z", "max_date": "2018-10-22T10:57:00Z", "count_points": 1, "latitude": 49.2019, "longitude": 29.8305, "city": "Tsibulev", "images": []}, {"id": 404593, "min_date": "2018-10-22T10:57:00Z", "max_date": "2018-10-22T10:57:00Z", "count_points": 2, "latitude": 48.3629, "longitude": 29.437, "city": "Bershad", "images": []}, {"id": 404594, "min_date": "2018-10-22T10:57:00Z", "max_date": "2018-10-22T10:57:00Z", "count_points": 1, "latitude": 48.6479, "longitude": 30.0402, "city": "Verkhnyachka", "images": []}, {"id": 404595, "min_date": "2018-10-22T10:57:00Z", "max_date": "2018-10-22T10:57:00Z", "count_points": 1, "latitude": 48.658, "longitude": 26.2897, "city": "Skala-Podil\u2019s\u2019ka", "images": []}, {"id": 404596, "min_date": "2018-10-22T10:57:00Z", "max_date": "2018-10-22T10:57:00Z", "count_points": 1, "latitude": 48.6102, "longitude": 28.9247, "city": "Tulchyn", "images": []}, {"id": 404597, "min_date": "2018-10-22T10:57:00Z", "max_date": "2018-10-22T10:57:00Z", "count_points": 1, "latitude": 49.028, "longitude": 29.7192, "city": "Monastyryshche", "images": []}, {"id": 404598, "min_date": "2018-10-22T10:57:00Z", "max_date": "2018-10-22T10:57:00Z", "count_points": 1, "latitude": 49.0409, "longitude": 29.3709, "city": "Dashiv", "images": []}, {"id": 404599, "min_date": "2018-10-22T10:57:00Z", "max_date": "2018-10-22T10:57:00Z", "count_points": 1, "latitude": 46.5971, "longitude": 34.4432, "city": "Ivanivka", "images": []}, {"id": 404600, "min_date": "2018-10-22T10:57:00Z", "max_date": "2018-10-22T10:57:00Z", "count_points": 1, "latitude": 48.7757, "longitude": 31.5831, "city": "Novomyrhorod", "images": []}, {"id": 404601, "min_date": "2018-10-22T10:57:00Z", "max_date": "2018-10-22T10:57:00Z", "count_points": 2, "latitude": 48.35215, "longitude": 31.00275, "city": "Lypnyazhka", "images": []}, {"id": 404602, "min_date": "2018-10-22T10:57:00Z", "max_date": "2018-10-22T10:57:00Z", "count_points": 1, "latitude": 48.3176, "longitude": 30.4579, "city": "Holovanivs\u2019k", "images": []}, {"id": 404603, "min_date": "2018-10-22T10:57:00Z", "max_date": "2018-10-22T10:57:00Z", "count_points": 1, "latitude": 48.8716, "longitude": 32.3428, "city": "Yelyzavethradka", "images": []}, {"id": 404604, "min_date": "2018-10-22T10:57:00Z", "max_date": "2018-10-22T10:57:00Z", "count_points": 1, "latitude": 48.6405, "longitude": 30.9773, "city": "Tyshkivka", "images": []}, {"id": 404605, "min_date": "2018-10-22T10:57:00Z", "max_date": "2018-10-22T10:57:00Z", "count_points": 1, "latitude": 48.122, "longitude": 30.4502, "city": "Pobugskoye", "images": []}, {"id": 404606, "min_date": "2018-10-22T10:57:00Z", "max_date": "2018-10-23T08:18:00Z", "count_points": 3, "latitude": 49.31307, "longitude": 33.35, "city": "Hlobyne", "images": []}, {"id": 404607, "min_date": "2018-10-22T10:57:00Z", "max_date": "2018-10-22T10:57:00Z", "count_points": 1, "latitude": 48.372, "longitude": 31.5211, "city": "Novoukrayinka", "images": []}, {"id": 404608, "min_date": "2018-10-22T10:57:00Z", "max_date": "2018-10-22T10:57:00Z", "count_points": 1, "latitude": 49.4306, "longitude": 33.0136, "city": "Semenivka", "images": []}, {"id": 404609, "min_date": "2018-10-22T10:57:00Z", "max_date": "2018-10-22T10:57:00Z", "count_points": 1, "latitude": 49.0727, "longitude": 32.6864, "city": "Chyhyryn", "images": []}, {"id": 404610, "min_date": "2018-10-22T10:57:00Z", "max_date": "2018-10-22T10:57:00Z", "count_points": 1, "latitude": 48.9989, "longitude": 34.5641, "city": "Tsarychanka", "images": []}, {"id": 404611, "min_date": "2018-10-22T10:57:00Z", "max_date": "2018-10-22T10:57:00Z", "count_points": 2, "latitude": 48.68755, "longitude": 30.5855, "city": "Babanka", "images": []}, {"id": 404612, "min_date": "2018-10-22T10:57:00Z", "max_date": "2018-10-22T10:57:00Z", "count_points": 3, "latitude": 48.59677, "longitude": 31.52993, "city": "Zlynka", "images": []}, {"id": 404613, "min_date": "2018-10-22T10:57:00Z", "max_date": "2018-10-22T10:57:00Z", "count_points": 1, "latitude": 48.6791, "longitude": 30.5253, "city": "Babanka", "images": []}, {"id": 404614, "min_date": "2018-10-22T10:57:00Z", "max_date": "2018-10-22T10:57:00Z", "count_points": 1, "latitude": 48.72, "longitude": 30.5471, "city": "Babanka", "images": []}, {"id": 404615, "min_date": "2018-10-22T10:57:00Z", "max_date": "2018-10-22T10:57:00Z", "count_points": 1, "latitude": 48.1402, "longitude": 30.5134, "city": "Pobugskoye", "images": []}, {"id": 404616, "min_date": "2018-10-22T10:57:00Z", "max_date": "2018-10-22T10:57:00Z", "count_points": 1, "latitude": 48.8114, "longitude": 31.8609, "city": "Kapitanivka", "images": []}, {"id": 404617, "min_date": "2018-10-22T10:57:00Z", "max_date": "2018-10-22T10:57:00Z", "count_points": 1, "latitude": 48.3805, "longitude": 30.181, "city": "Blahovishchens\u2019ke", "images": []}, {"id": 404618, "min_date": "2018-10-22T10:57:00Z", "max_date": "2018-10-22T10:57:00Z", "count_points": 1, "latitude": 47.8001, "longitude": 32.0161, "city": "Yelanets\u2019", "images": []}, {"id": 404619, "min_date": "2018-10-22T10:57:00Z", "max_date": "2018-10-22T10:57:00Z", "count_points": 2, "latitude": 48.0288, "longitude": 29.687, "city": "Balta", "images": []}, {"id": 404620, "min_date": "2018-10-22T10:58:00Z", "max_date": "2018-10-22T10:58:00Z", "count_points": 1, "latitude": 49.3711, "longitude": 29.216, "city": "Pohrebyshche", "images": []}, {"id": 404621, "min_date": "2018-10-22T10:58:00Z", "max_date": "2018-10-22T10:58:00Z", "count_points": 2, "latitude": 50.06845, "longitude": 27.58865, "city": "Novoselytsya", "images": []}, {"id": 404622, "min_date": "2018-10-22T10:58:00Z", "max_date": "2018-10-22T10:58:00Z", "count_points": 2, "latitude": 49.69645, "longitude": 27.88325, "city": "Khmilnyk", "images": []}, {"id": 404623, "min_date": "2018-10-22T10:58:00Z", "max_date": "2018-10-22T10:58:00Z", "count_points": 1, "latitude": 49.8128, "longitude": 31.7591, "city": "Tsybli", "images": []}, {"id": 404624, "min_date": "2018-10-22T10:58:00Z", "max_date": "2018-10-22T10:58:00Z", "count_points": 1, "latitude": 50.1272, "longitude": 29.1113, "city": "Andrushivka", "images": []}, {"id": 404625, "min_date": "2018-10-22T10:58:00Z", "max_date": "2018-10-22T10:58:00Z", "count_points": 1, "latitude": 49.5943, "longitude": 29.7854, "city": "Volodarka", "images": []}, {"id": 404626, "min_date": "2018-10-22T10:58:00Z", "max_date": "2018-10-22T10:58:00Z", "count_points": 1, "latitude": 49.5934, "longitude": 26.2654, "city": "Volochysk", "images": []}, {"id": 404627, "min_date": "2018-10-22T10:58:00Z", "max_date": "2018-10-22T10:58:00Z", "count_points": 1, "latitude": 49.3174, "longitude": 29.5386, "city": "Orativ", "images": []}, {"id": 404628, "min_date": "2018-10-22T10:58:00Z", "max_date": "2018-10-22T10:58:00Z", "count_points": 1, "latitude": 49.6771, "longitude": 26.3224, "city": "Bazaliya", "images": []}, {"id": 404629, "min_date": "2018-10-22T10:58:00Z", "max_date": "2018-10-22T10:58:00Z", "count_points": 1, "latitude": 49.9614, "longitude": 26.655, "city": "Izyaslav", "images": []}, {"id": 404630, "min_date": "2018-10-22T10:58:00Z", "max_date": "2018-10-22T10:58:00Z", "count_points": 1, "latitude": 49.3505, "longitude": 27.1487, "city": "Khmelnytskyi", "images": []}, {"id": 404631, "min_date": "2018-10-22T10:58:00Z", "max_date": "2018-10-22T10:58:00Z", "count_points": 1, "latitude": 50.7136, "longitude": 34.3519, "city": "Lebedyn", "images": []}, {"id": 404632, "min_date": "2018-10-22T10:58:00Z", "max_date": "2018-10-22T10:58:00Z", "count_points": 1, "latitude": 51.3478, "longitude": 33.6059, "city": "Sloboda", "images": []}, {"id": 404633, "min_date": "2018-10-22T10:58:00Z", "max_date": "2018-10-22T10:58:00Z", "count_points": 1, "latitude": 49.4271, "longitude": 30.444, "city": "Kalynove", "images": []}, {"id": 404634, "min_date": "2018-10-22T10:58:00Z", "max_date": "2018-10-22T10:58:00Z", "count_points": 1, "latitude": 49.7494, "longitude": 30.4996, "city": "Rokytne", "images": []}, {"id": 404635, "min_date": "2018-10-22T10:58:00Z", "max_date": "2018-10-22T10:58:00Z", "count_points": 2, "latitude": 50.6071, "longitude": 33.2067, "city": "Talalayivka", "images": []}, {"id": 404636, "min_date": "2018-10-22T10:58:00Z", "max_date": "2018-10-22T10:58:00Z", "count_points": 1, "latitude": 50.5943, "longitude": 34.1856, "city": "Hadyach", "images": []}, {"id": 404637, "min_date": "2018-10-22T10:58:00Z", "max_date": "2018-10-22T10:58:00Z", "count_points": 1, "latitude": 49.8287, "longitude": 33.2019, "city": "Khorol", "images": []}, {"id": 404638, "min_date": "2018-10-22T10:58:00Z", "max_date": "2018-10-22T10:58:00Z", "count_points": 2, "latitude": 51.63155, "longitude": 31.67955, "city": "Sedniv", "images": []}, {"id": 404639, "min_date": "2018-10-22T10:58:00Z", "max_date": "2018-10-22T10:58:00Z", "count_points": 1, "latitude": 50.0246, "longitude": 33.5869, "city": "Myrhorod", "images": []}, {"id": 404640, "min_date": "2018-10-22T10:58:00Z", "max_date": "2018-10-22T10:58:00Z", "count_points": 1, "latitude": 50.0717, "longitude": 32.2963, "city": "Hrebinka", "images": []}, {"id": 404641, "min_date": "2018-10-22T10:58:00Z", "max_date": "2018-10-22T10:58:00Z", "count_points": 1, "latitude": 50.8303, "longitude": 31.1276, "city": "Kozelets\u2019", "images": []}, {"id": 404642, "min_date": "2018-10-22T10:58:00Z", "max_date": "2018-10-22T10:58:00Z", "count_points": 1, "latitude": 50.7806, "longitude": 32.7887, "city": "Sribne", "images": []}, {"id": 404643, "min_date": "2018-10-22T10:58:00Z", "max_date": "2018-10-22T10:58:00Z", "count_points": 1, "latitude": 51.373, "longitude": 32.9916, "city": "Baturyn", "images": []}, {"id": 404644, "min_date": "2018-10-22T10:58:00Z", "max_date": "2018-10-22T10:58:00Z", "count_points": 1, "latitude": 49.6947, "longitude": 28.3471, "city": "Ulaniv", "images": []}, {"id": 404645, "min_date": "2018-10-22T10:58:00Z", "max_date": "2018-10-22T10:58:00Z", "count_points": 1, "latitude": 50.4124, "longitude": 26.2847, "city": "Zdovbytsya", "images": []}, {"id": 404646, "min_date": "2018-10-23T08:18:00Z", "max_date": "2018-10-23T08:18:00Z", "count_points": 1, "latitude": 49.6928, "longitude": 33.9495, "city": "Reshetylivka", "images": []}, {"id": 404647, "min_date": "2018-10-23T08:18:00Z", "max_date": "2018-10-23T08:18:00Z", "count_points": 2, "latitude": 50.537, "longitude": 34.3108, "city": "Lebedyn", "images": []}, {"id": 404648, "min_date": "2018-10-23T08:18:00Z", "max_date": "2018-10-23T08:18:00Z", "count_points": 2, "latitude": 49.29715, "longitude": 33.51015, "city": "Kremenchuk", "images": []}, {"id": 404649, "min_date": "2018-10-23T08:19:00Z", "max_date": "2018-10-23T08:19:00Z", "count_points": 1, "latitude": 46.8105, "longitude": 34.4304, "city": "Nyzhni Sirohozy", "images": []}, {"id": 404650, "min_date": "2018-10-23T08:19:00Z", "max_date": "2018-10-23T08:19:00Z", "count_points": 2, "latitude": 46.13165, "longitude": 33.3509, "city": "Kalanchak", "images": []}, {"id": 404651, "min_date": "2018-10-23T10:02:00Z", "max_date": "2018-10-23T10:02:00Z", "count_points": 3, "latitude": 49.3657, "longitude": 34.19363, "city": "Novi Sanzhary", "images": []}, {"id": 404652, "min_date": "2018-10-23T10:02:00Z", "max_date": "2018-10-23T10:02:00Z", "count_points": 2, "latitude": 49.70225, "longitude": 33.6571, "city": "Velyka Bahachka", "images": []}, {"id": 404653, "min_date": "2018-10-23T10:02:00Z", "max_date": "2018-10-23T10:02:00Z", "count_points": 2, "latitude": 48.974, "longitude": 34.9577, "city": "Mahdalynivka", "images": []}, {"id": 404654, "min_date": "2018-10-23T10:02:00Z", "max_date": "2018-10-23T10:02:00Z", "count_points": 1, "latitude": 49.191, "longitude": 35.7969, "city": "Sakhnovshchyna", "images": []}, {"id": 404655, "min_date": "2018-10-23T10:02:00Z", "max_date": "2018-10-23T10:02:00Z", "count_points": 1, "latitude": 49.0423, "longitude": 34.4133, "city": "Tsarychanka", "images": []}, {"id": 404656, "min_date": "2018-10-23T10:02:00Z", "max_date": "2018-10-23T10:02:00Z", "count_points": 1, "latitude": 49.5448, "longitude": 36.1629, "city": "Pervomays\u2019kyy", "images": []}, {"id": 404657, "min_date": "2018-10-23T10:03:00Z", "max_date": "2018-10-23T10:03:00Z", "count_points": 1, "latitude": 50.6623, "longitude": 33.8655, "city": "Lypova Dolyna", "images": []}, {"id": 404658, "min_date": "2018-10-28T08:37:00Z", "max_date": "2018-10-28T08:37:00Z", "count_points": 1, "latitude": 46.1765, "longitude": 33.2616, "city": "Kalanchak", "images": []}, {"id": 404659, "min_date": "2018-10-28T10:20:00Z", "max_date": "2018-10-28T10:20:00Z", "count_points": 1, "latitude": 45.3136, "longitude": 35.1229, "city": "Tokarevo", "images": []}, {"id": 404660, "min_date": "2018-10-28T10:20:00Z", "max_date": "2018-10-28T10:20:00Z", "count_points": 1, "latitude": 48.8423, "longitude": 39.0863, "city": "Novoaydar", "images": []}, {"id": 404661, "min_date": "2018-10-28T10:21:00Z", "max_date": "2018-10-28T10:21:00Z", "count_points": 2, "latitude": 48.18525, "longitude": 29.69105, "city": "Peschana", "images": []}, {"id": 404662, "min_date": "2018-10-28T10:21:00Z", "max_date": "2018-10-28T10:21:00Z", "count_points": 2, "latitude": 48.67065, "longitude": 28.99405, "city": "Tulchyn", "images": []}, {"id": 404663, "min_date": "2018-10-28T10:21:00Z", "max_date": "2018-10-28T10:21:00Z", "count_points": 2, "latitude": 48.09455, "longitude": 30.53385, "city": "Pobugskoye", "images": []}]