[{"id": 402138, "min_date": "2018-10-15T00:42:00Z", "max_date": "2018-10-21T10:16:00Z", "count_points": 76, "latitude": 51.58566, "longitude": 27.1172, "city": "Rokytne", "images": [{"image_url": "402138.jpg", "timestamp": "2018-10-21T10:16:00Z"}]}, {"id": 402139, "min_date": "2018-10-15T00:42:00Z", "max_date": "2018-10-19T12:06:00Z", "count_points": 207, "latitude": 51.49368, "longitude": 27.00359, "city": "Rokytne", "images": []}, {"id": 402140, "min_date": "2018-10-15T00:42:00Z", "max_date": "2018-10-16T09:50:00Z", "count_points": 11, "latitude": 51.70899, "longitude": 25.65619, "city": "Lyubeshiv", "images": []}, {"id": 402141, "min_date": "2018-10-15T00:42:00Z", "max_date": "2018-10-15T00:42:00Z", "count_points": 1, "latitude": 48.38948, "longitude": 22.67761, "city": "Mukacheve", "images": []}, {"id": 402142, "min_date": "2018-10-15T00:42:00Z", "max_date": "2018-10-19T01:06:00Z", "count_points": 5, "latitude": 51.03752, "longitude": 25.12984, "city": "Ho\u0142oby", "images": []}, {"id": 402143, "min_date": "2018-10-15T00:42:00Z", "max_date": "2018-10-15T00:42:00Z", "count_points": 1, "latitude": 46.16444, "longitude": 32.90567, "city": "Skadovs\u2019k", "images": []}, {"id": 402144, "min_date": "2018-10-15T00:42:00Z", "max_date": "2018-10-17T00:06:00Z", "count_points": 3, "latitude": 51.68822, "longitude": 25.10163, "city": "Kamin-Kashyrskyi", "images": []}, {"id": 402145, "min_date": "2018-10-15T00:42:00Z", "max_date": "2018-10-16T11:35:00Z", "count_points": 22, "latitude": 51.70594, "longitude": 24.82767, "city": "Rakiv Lis", "images": [{"image_url": "402145.jpg", "timestamp": "2018-10-16T11:35:00Z"}]}, {"id": 402146, "min_date": "2018-10-15T00:42:00Z", "max_date": "2018-10-15T00:42:00Z", "count_points": 2, "latitude": 51.86165, "longitude": 24.40111, "city": "Ratne", "images": []}, {"id": 402147, "min_date": "2018-10-15T00:42:00Z", "max_date": "2018-10-18T11:23:00Z", "count_points": 15, "latitude": 51.51433, "longitude": 27.66404, "city": "Olevs\u2019k", "images": []}, {"id": 402148, "min_date": "2018-10-15T00:42:00Z", "max_date": "2018-10-15T00:42:00Z", "count_points": 1, "latitude": 50.53392, "longitude": 29.76872, "city": "Makariv", "images": []}, {"id": 402149, "min_date": "2018-10-15T00:42:00Z", "max_date": "2018-10-18T01:30:00Z", "count_points": 9, "latitude": 51.80804, "longitude": 25.12411, "city": "Kamin-Kashyrskyi", "images": []}, {"id": 402150, "min_date": "2018-10-15T00:42:00Z", "max_date": "2018-10-15T00:42:00Z", "count_points": 1, "latitude": 49.52626, "longitude": 23.58286, "city": "Rykhtychi", "images": []}, {"id": 402151, "min_date": "2018-10-15T00:42:00Z", "max_date": "2018-10-16T00:24:00Z", "count_points": 2, "latitude": 51.36143, "longitude": 27.07402, "city": "Rokytne", "images": []}, {"id": 402152, "min_date": "2018-10-15T00:42:00Z", "max_date": "2018-10-15T09:07:00Z", "count_points": 8, "latitude": 51.41169, "longitude": 27.35467, "city": "Rokytne", "images": []}, {"id": 402153, "min_date": "2018-10-15T00:42:00Z", "max_date": "2018-10-21T00:30:00Z", "count_points": 8, "latitude": 51.49994, "longitude": 27.41283, "city": "Rokytne", "images": []}, {"id": 402154, "min_date": "2018-10-15T00:42:00Z", "max_date": "2018-10-17T10:40:00Z", "count_points": 23, "latitude": 51.53324, "longitude": 27.50949, "city": "Olevs\u2019k", "images": [{"image_url": "402154.jpg", "timestamp": "2018-10-17T10:40:00Z"}]}, {"id": 402155, "min_date": "2018-10-15T00:48:00Z", "max_date": "2018-10-15T00:48:00Z", "count_points": 1, "latitude": 45.47328, "longitude": 28.43795, "city": "Reni", "images": []}, {"id": 402156, "min_date": "2018-10-15T08:48:00Z", "max_date": "2018-10-15T09:07:00Z", "count_points": 4, "latitude": 47.98856, "longitude": 37.73166, "city": "Donetsk", "images": []}, {"id": 402157, "min_date": "2018-10-15T08:48:00Z", "max_date": "2018-10-17T10:39:00Z", "count_points": 5, "latitude": 48.05633, "longitude": 37.6709, "city": "Avdiyivka", "images": []}, {"id": 402158, "min_date": "2018-10-15T08:48:00Z", "max_date": "2018-10-15T10:51:00Z", "count_points": 4, "latitude": 48.00961, "longitude": 39.71371, "city": "Biryukove", "images": []}, {"id": 402159, "min_date": "2018-10-15T08:48:00Z", "max_date": "2018-10-15T10:51:00Z", "count_points": 24, "latitude": 48.56134, "longitude": 36.18457, "city": "Yur\u201dyivka", "images": []}, {"id": 402160, "min_date": "2018-10-15T08:48:00Z", "max_date": "2018-10-15T10:51:00Z", "count_points": 6, "latitude": 49.21573, "longitude": 39.98864, "city": "Milove", "images": []}, {"id": 402161, "min_date": "2018-10-15T08:48:00Z", "max_date": "2018-10-15T08:48:00Z", "count_points": 1, "latitude": 49.63791, "longitude": 38.7682, "city": "Pavlivka", "images": []}, {"id": 402162, "min_date": "2018-10-15T08:54:00Z", "max_date": "2018-10-15T10:51:00Z", "count_points": 16, "latitude": 49.34965, "longitude": 34.59231, "city": "Poltava", "images": []}, {"id": 402163, "min_date": "2018-10-15T08:54:00Z", "max_date": "2018-10-17T10:39:00Z", "count_points": 12, "latitude": 50.27075, "longitude": 35.37347, "city": "Huty", "images": []}, {"id": 402164, "min_date": "2018-10-15T08:54:00Z", "max_date": "2018-10-15T09:07:00Z", "count_points": 4, "latitude": 50.28749, "longitude": 34.80164, "city": "Okhtyrka", "images": []}, {"id": 402165, "min_date": "2018-10-15T08:54:00Z", "max_date": "2018-10-15T09:07:00Z", "count_points": 4, "latitude": 50.95087, "longitude": 33.75425, "city": "Nedryhayliv", "images": []}, {"id": 402166, "min_date": "2018-10-15T10:30:00Z", "max_date": "2018-10-15T10:30:00Z", "count_points": 1, "latitude": 48.19374, "longitude": 39.25587, "city": "Millerovo", "images": []}, {"id": 402167, "min_date": "2018-10-15T10:30:00Z", "max_date": "2018-10-17T09:54:00Z", "count_points": 3, "latitude": 50.58861, "longitude": 31.65992, "city": "Zgurovka", "images": []}, {"id": 402168, "min_date": "2018-10-15T10:30:00Z", "max_date": "2018-10-19T08:43:00Z", "count_points": 10, "latitude": 49.10929, "longitude": 33.88928, "city": "Kozel\u2019shchyna", "images": []}, {"id": 402169, "min_date": "2018-10-15T10:30:00Z", "max_date": "2018-10-15T10:52:00Z", "count_points": 2, "latitude": 50.45283, "longitude": 32.61155, "city": "Zhuravka", "images": []}, {"id": 402170, "min_date": "2018-10-15T10:30:00Z", "max_date": "2018-10-18T11:22:00Z", "count_points": 17, "latitude": 48.85513, "longitude": 33.62268, "city": "Horishni Plavni", "images": []}, {"id": 402171, "min_date": "2018-10-15T10:30:00Z", "max_date": "2018-10-15T10:30:00Z", "count_points": 1, "latitude": 48.64459, "longitude": 34.12853, "city": "Verkhn\u2019odniprovs\u2019k", "images": []}, {"id": 402172, "min_date": "2018-10-15T10:30:00Z", "max_date": "2018-10-15T10:51:00Z", "count_points": 6, "latitude": 48.50645, "longitude": 28.22274, "city": "Chernivtsi", "images": [{"image_url": "402172.jpg", "timestamp": "2018-10-15T10:51:00Z"}]}, {"id": 402173, "min_date": "2018-10-15T10:30:00Z", "max_date": "2018-10-18T11:22:00Z", "count_points": 6, "latitude": 49.923, "longitude": 33.41134, "city": "Romodan", "images": []}, {"id": 402174, "min_date": "2018-10-15T10:30:00Z", "max_date": "2018-10-15T10:30:00Z", "count_points": 1, "latitude": 49.65466, "longitude": 33.8267, "city": "Velyka Bahachka", "images": []}, {"id": 402175, "min_date": "2018-10-15T10:30:00Z", "max_date": "2018-10-17T09:54:00Z", "count_points": 3, "latitude": 50.36956, "longitude": 32.05883, "city": "Chernyakhivka", "images": []}, {"id": 402176, "min_date": "2018-10-15T10:30:00Z", "max_date": "2018-10-20T11:10:00Z", "count_points": 7, "latitude": 49.2181, "longitude": 34.62062, "city": "Hupalivka", "images": []}, {"id": 402177, "min_date": "2018-10-15T10:30:00Z", "max_date": "2018-10-19T10:54:00Z", "count_points": 2, "latitude": 49.72254, "longitude": 35.4782, "city": "Valky", "images": []}, {"id": 402178, "min_date": "2018-10-15T10:30:00Z", "max_date": "2018-10-15T09:07:00Z", "count_points": 3, "latitude": 48.97629, "longitude": 34.94166, "city": "Mahdalynivka", "images": []}, {"id": 402179, "min_date": "2018-10-15T10:30:00Z", "max_date": "2018-10-16T10:12:00Z", "count_points": 2, "latitude": 50.58085, "longitude": 31.52457, "city": "Korniyivka", "images": []}, {"id": 402180, "min_date": "2018-10-15T10:30:00Z", "max_date": "2018-10-19T10:27:00Z", "count_points": 3, "latitude": 49.19488, "longitude": 34.05629, "city": "Kobelyaky", "images": []}, {"id": 402181, "min_date": "2018-10-15T10:30:00Z", "max_date": "2018-10-15T10:51:00Z", "count_points": 5, "latitude": 49.16649, "longitude": 34.74478, "city": "Hupalivka", "images": []}, {"id": 402182, "min_date": "2018-10-15T10:30:00Z", "max_date": "2018-10-15T10:51:00Z", "count_points": 12, "latitude": 48.97264, "longitude": 34.44812, "city": "Tsarychanka", "images": []}, {"id": 402183, "min_date": "2018-10-15T10:30:00Z", "max_date": "2018-10-15T10:30:00Z", "count_points": 1, "latitude": 49.39223, "longitude": 34.97431, "city": "Mashivka", "images": []}, {"id": 402184, "min_date": "2018-10-15T10:30:00Z", "max_date": "2018-10-15T10:30:00Z", "count_points": 1, "latitude": 49.52564, "longitude": 33.78276, "city": "Velyka Bahachka", "images": []}, {"id": 402185, "min_date": "2018-10-15T10:30:00Z", "max_date": "2018-10-20T10:36:00Z", "count_points": 3, "latitude": 49.40174, "longitude": 35.05181, "city": "Karlivka", "images": []}, {"id": 402186, "min_date": "2018-10-15T10:30:00Z", "max_date": "2018-10-15T10:30:00Z", "count_points": 1, "latitude": 49.40782, "longitude": 35.25243, "city": "Karlivka", "images": []}, {"id": 402187, "min_date": "2018-10-15T10:30:00Z", "max_date": "2018-10-15T10:30:00Z", "count_points": 1, "latitude": 49.7007, "longitude": 35.39198, "city": "Kolomak", "images": []}, {"id": 402188, "min_date": "2018-10-15T10:30:00Z", "max_date": "2018-10-19T08:42:00Z", "count_points": 8, "latitude": 51.03958, "longitude": 34.23394, "city": "Bilopillya", "images": []}, {"id": 402189, "min_date": "2018-10-15T10:30:00Z", "max_date": "2018-10-15T10:30:00Z", "count_points": 2, "latitude": 50.4289, "longitude": 32.13628, "city": "Chernyakhivka", "images": []}, {"id": 402190, "min_date": "2018-10-15T10:30:00Z", "max_date": "2018-10-15T10:51:00Z", "count_points": 2, "latitude": 49.11302, "longitude": 33.94331, "city": "Lutovynivka", "images": []}, {"id": 402191, "min_date": "2018-10-15T10:30:00Z", "max_date": "2018-10-15T10:30:00Z", "count_points": 1, "latitude": 49.07261, "longitude": 34.47391, "city": "Tsarychanka", "images": []}, {"id": 402192, "min_date": "2018-10-15T10:30:00Z", "max_date": "2018-10-15T10:30:00Z", "count_points": 1, "latitude": 50.9049, "longitude": 34.20031, "city": "Terny", "images": []}, {"id": 402193, "min_date": "2018-10-15T10:30:00Z", "max_date": "2018-10-15T10:51:00Z", "count_points": 3, "latitude": 48.62189, "longitude": 33.6257, "city": "Piatykhatky", "images": []}, {"id": 402194, "min_date": "2018-10-15T10:30:00Z", "max_date": "2018-10-19T10:27:00Z", "count_points": 25, "latitude": 50.47114, "longitude": 35.08339, "city": "Trostyanets\u2019", "images": []}, {"id": 402195, "min_date": "2018-10-15T10:30:00Z", "max_date": "2018-10-17T10:39:00Z", "count_points": 11, "latitude": 49.85819, "longitude": 33.83638, "city": "Velyka Bahachka", "images": []}, {"id": 402196, "min_date": "2018-10-15T10:30:00Z", "max_date": "2018-10-15T10:30:00Z", "count_points": 1, "latitude": 49.13404, "longitude": 39.31549, "city": "Bilovodsk", "images": []}, {"id": 402197, "min_date": "2018-10-15T10:30:00Z", "max_date": "2018-10-15T10:52:00Z", "count_points": 2, "latitude": 50.71144, "longitude": 31.49825, "city": "Bobrovytsya", "images": []}, {"id": 402198, "min_date": "2018-10-15T10:30:00Z", "max_date": "2018-10-15T10:30:00Z", "count_points": 1, "latitude": 49.84731, "longitude": 34.4587, "city": "Dykan\u2019ka", "images": []}, {"id": 402199, "min_date": "2018-10-15T10:30:00Z", "max_date": "2018-10-15T10:51:00Z", "count_points": 8, "latitude": 49.91979, "longitude": 34.37696, "city": "Dykan\u2019ka", "images": []}, {"id": 402200, "min_date": "2018-10-15T10:30:00Z", "max_date": "2018-10-15T10:51:00Z", "count_points": 3, "latitude": 49.05587, "longitude": 33.81878, "city": "Kozel\u2019shchyna", "images": []}, {"id": 402201, "min_date": "2018-10-15T10:30:00Z", "max_date": "2018-10-15T10:30:00Z", "count_points": 1, "latitude": 49.16246, "longitude": 34.69823, "city": "Hupalivka", "images": []}, {"id": 402202, "min_date": "2018-10-15T10:30:00Z", "max_date": "2018-10-15T10:30:00Z", "count_points": 1, "latitude": 47.92038, "longitude": 39.4803, "city": "Roven\u2019ky", "images": []}, {"id": 402203, "min_date": "2018-10-15T10:30:00Z", "max_date": "2018-10-15T10:30:00Z", "count_points": 1, "latitude": 49.0121, "longitude": 34.37291, "city": "Tsarychanka", "images": []}, {"id": 402204, "min_date": "2018-10-15T10:30:00Z", "max_date": "2018-10-16T10:12:00Z", "count_points": 3, "latitude": 49.58575, "longitude": 33.49769, "city": "Khorol", "images": []}, {"id": 402205, "min_date": "2018-10-15T10:30:00Z", "max_date": "2018-10-15T10:51:00Z", "count_points": 3, "latitude": 49.18474, "longitude": 34.51787, "city": "Hupalivka", "images": []}, {"id": 402206, "min_date": "2018-10-15T10:30:00Z", "max_date": "2018-10-15T10:30:00Z", "count_points": 1, "latitude": 48.83663, "longitude": 33.79503, "city": "Lykhivka", "images": []}, {"id": 402207, "min_date": "2018-10-15T10:30:00Z", "max_date": "2018-10-20T11:10:00Z", "count_points": 5, "latitude": 49.03681, "longitude": 35.04263, "city": "Mahdalynivka", "images": []}, {"id": 402208, "min_date": "2018-10-15T10:30:00Z", "max_date": "2018-10-15T10:52:00Z", "count_points": 33, "latitude": 50.47566, "longitude": 26.29145, "city": "Zdovbytsya", "images": []}, {"id": 402209, "min_date": "2018-10-15T10:30:00Z", "max_date": "2018-10-17T10:39:00Z", "count_points": 10, "latitude": 48.99409, "longitude": 33.88993, "city": "Kozel\u2019shchyna", "images": []}, {"id": 402210, "min_date": "2018-10-15T10:30:00Z", "max_date": "2018-10-19T10:27:00Z", "count_points": 8, "latitude": 49.00076, "longitude": 34.05053, "city": "Kobelyaky", "images": []}, {"id": 402211, "min_date": "2018-10-15T10:30:00Z", "max_date": "2018-10-15T10:51:00Z", "count_points": 5, "latitude": 48.96988, "longitude": 34.07312, "city": "Kobelyaky", "images": []}, {"id": 402212, "min_date": "2018-10-15T10:30:00Z", "max_date": "2018-10-15T10:51:00Z", "count_points": 6, "latitude": 49.57682, "longitude": 38.26445, "city": "Nyzhnya Duvanka", "images": []}, {"id": 402213, "min_date": "2018-10-15T10:30:00Z", "max_date": "2018-10-15T10:30:00Z", "count_points": 2, "latitude": 48.78414, "longitude": 39.11501, "city": "Shchastya", "images": []}, {"id": 402214, "min_date": "2018-10-15T10:30:00Z", "max_date": "2018-10-15T10:30:00Z", "count_points": 1, "latitude": 50.34481, "longitude": 35.15886, "city": "Kyrykivka", "images": []}, {"id": 402215, "min_date": "2018-10-15T10:30:00Z", "max_date": "2018-10-15T10:30:00Z", "count_points": 1, "latitude": 50.39756, "longitude": 35.18447, "city": "Kyrykivka", "images": []}, {"id": 402216, "min_date": "2018-10-15T10:30:00Z", "max_date": "2018-10-15T10:51:00Z", "count_points": 2, "latitude": 48.68333, "longitude": 27.98544, "city": "Sharhorod", "images": []}, {"id": 402217, "min_date": "2018-10-15T10:30:00Z", "max_date": "2018-10-15T10:30:00Z", "count_points": 1, "latitude": 47.50253, "longitude": 29.40367, "city": "Okny", "images": []}, {"id": 402218, "min_date": "2018-10-15T10:30:00Z", "max_date": "2018-10-15T10:51:00Z", "count_points": 8, "latitude": 49.73677, "longitude": 35.26153, "city": "Chutove", "images": []}, {"id": 402219, "min_date": "2018-10-15T10:30:00Z", "max_date": "2018-10-20T11:10:00Z", "count_points": 16, "latitude": 49.66985, "longitude": 35.24326, "city": "Chutove", "images": []}, {"id": 402220, "min_date": "2018-10-15T10:30:00Z", "max_date": "2018-10-15T10:30:00Z", "count_points": 2, "latitude": 49.27787, "longitude": 26.42434, "city": "Zakupne", "images": []}, {"id": 402221, "min_date": "2018-10-15T10:30:00Z", "max_date": "2018-10-19T10:27:00Z", "count_points": 15, "latitude": 49.05129, "longitude": 34.03262, "city": "Lutovynivka", "images": []}, {"id": 402222, "min_date": "2018-10-15T10:30:00Z", "max_date": "2018-10-15T10:30:00Z", "count_points": 1, "latitude": 51.38905, "longitude": 27.24362, "city": "Rokytne", "images": []}, {"id": 402223, "min_date": "2018-10-15T10:30:00Z", "max_date": "2018-10-15T10:30:00Z", "count_points": 1, "latitude": 47.6057, "longitude": 29.8168, "city": "Ananyiv Pershyi", "images": []}, {"id": 402224, "min_date": "2018-10-15T10:30:00Z", "max_date": "2018-10-15T10:30:00Z", "count_points": 5, "latitude": 46.23352, "longitude": 29.03917, "city": "Serpneve", "images": []}, {"id": 402225, "min_date": "2018-10-15T10:30:00Z", "max_date": "2018-10-15T10:51:00Z", "count_points": 2, "latitude": 47.8093, "longitude": 29.44116, "city": "Podil\u2019s\u2019k", "images": []}, {"id": 402226, "min_date": "2018-10-15T10:30:00Z", "max_date": "2018-10-15T10:30:00Z", "count_points": 1, "latitude": 49.30914, "longitude": 34.53939, "city": "Novi Sanzhary", "images": []}, {"id": 402227, "min_date": "2018-10-15T10:30:00Z", "max_date": "2018-10-15T10:30:00Z", "count_points": 1, "latitude": 49.16607, "longitude": 34.54232, "city": "Hupalivka", "images": []}, {"id": 402228, "min_date": "2018-10-15T10:30:00Z", "max_date": "2018-10-15T10:30:00Z", "count_points": 1, "latitude": 49.55384, "longitude": 34.95486, "city": "Mashivka", "images": []}, {"id": 402229, "min_date": "2018-10-15T10:30:00Z", "max_date": "2018-10-17T10:39:00Z", "count_points": 7, "latitude": 49.17567, "longitude": 33.94959, "city": "Lutovynivka", "images": []}, {"id": 402230, "min_date": "2018-10-15T10:30:00Z", "max_date": "2018-10-15T10:30:00Z", "count_points": 1, "latitude": 49.42041, "longitude": 38.36198, "city": "Svatove", "images": []}, {"id": 402231, "min_date": "2018-10-15T10:30:00Z", "max_date": "2018-10-15T10:51:00Z", "count_points": 8, "latitude": 49.13323, "longitude": 33.72888, "city": "Kozel\u2019shchyna", "images": []}, {"id": 402232, "min_date": "2018-10-15T10:30:00Z", "max_date": "2018-10-20T09:25:00Z", "count_points": 46, "latitude": 49.88575, "longitude": 33.74441, "city": "Myrhorod", "images": []}, {"id": 402233, "min_date": "2018-10-15T10:30:00Z", "max_date": "2018-10-15T10:51:00Z", "count_points": 6, "latitude": 49.52657, "longitude": 34.94846, "city": "Mashivka", "images": []}, {"id": 402234, "min_date": "2018-10-15T10:30:00Z", "max_date": "2018-10-15T10:51:00Z", "count_points": 3, "latitude": 49.75483, "longitude": 33.64785, "city": "Velyka Bahachka", "images": []}, {"id": 402235, "min_date": "2018-10-15T10:30:00Z", "max_date": "2018-10-19T10:54:00Z", "count_points": 5, "latitude": 48.42435, "longitude": 38.21835, "city": "Svetlodarsk", "images": []}, {"id": 402236, "min_date": "2018-10-15T10:30:00Z", "max_date": "2018-10-15T10:51:00Z", "count_points": 5, "latitude": 47.97601, "longitude": 38.67372, "city": "Torez", "images": []}, {"id": 402237, "min_date": "2018-10-15T10:30:00Z", "max_date": "2018-10-15T10:30:00Z", "count_points": 2, "latitude": 49.90911, "longitude": 33.78902, "city": "Velyka Bahachka", "images": []}, {"id": 402238, "min_date": "2018-10-15T10:30:00Z", "max_date": "2018-10-19T08:43:00Z", "count_points": 12, "latitude": 49.08577, "longitude": 34.11043, "city": "Kobelyaky", "images": []}, {"id": 402239, "min_date": "2018-10-15T10:30:00Z", "max_date": "2018-10-15T10:30:00Z", "count_points": 2, "latitude": 48.63282, "longitude": 38.02253, "city": "Artemivs\u2019k", "images": []}, {"id": 402240, "min_date": "2018-10-15T10:30:00Z", "max_date": "2018-10-15T10:30:00Z", "count_points": 2, "latitude": 48.16521, "longitude": 38.54253, "city": "Rozsypne", "images": []}, {"id": 402241, "min_date": "2018-10-15T10:30:00Z", "max_date": "2018-10-15T10:51:00Z", "count_points": 4, "latitude": 49.12976, "longitude": 34.56518, "city": "Hupalivka", "images": []}, {"id": 402242, "min_date": "2018-10-15T10:30:00Z", "max_date": "2018-10-20T11:10:00Z", "count_points": 6, "latitude": 49.07178, "longitude": 35.0882, "city": "Zachepylivka", "images": []}, {"id": 402243, "min_date": "2018-10-15T10:30:00Z", "max_date": "2018-10-15T10:51:00Z", "count_points": 6, "latitude": 48.82238, "longitude": 35.32085, "city": "Hubynykha", "images": []}, {"id": 402244, "min_date": "2018-10-15T10:30:00Z", "max_date": "2018-10-15T10:51:00Z", "count_points": 5, "latitude": 48.48447, "longitude": 31.0995, "city": "Lypnyazhka", "images": []}, {"id": 402245, "min_date": "2018-10-15T10:30:00Z", "max_date": "2018-10-15T10:30:00Z", "count_points": 1, "latitude": 50.34067, "longitude": 25.17434, "city": "Berestechko", "images": []}, {"id": 402246, "min_date": "2018-10-15T10:30:00Z", "max_date": "2018-10-15T10:30:00Z", "count_points": 2, "latitude": 48.40135, "longitude": 31.50799, "city": "Novoukrayinka", "images": []}, {"id": 402247, "min_date": "2018-10-15T10:30:00Z", "max_date": "2018-10-18T11:22:00Z", "count_points": 6, "latitude": 48.35547, "longitude": 32.02536, "city": "Kompaniyivka", "images": []}, {"id": 402248, "min_date": "2018-10-15T10:30:00Z", "max_date": "2018-10-15T10:30:00Z", "count_points": 1, "latitude": 50.51172, "longitude": 24.55209, "city": "Horokhiv", "images": []}, {"id": 402249, "min_date": "2018-10-15T10:30:00Z", "max_date": "2018-10-15T10:30:00Z", "count_points": 1, "latitude": 50.76364, "longitude": 24.55649, "city": "Lokachi", "images": []}, {"id": 402250, "min_date": "2018-10-15T10:30:00Z", "max_date": "2018-10-15T10:30:00Z", "count_points": 1, "latitude": 51.25815, "longitude": 24.29748, "city": "Stara Vyzhivka", "images": []}, {"id": 402251, "min_date": "2018-10-15T10:30:00Z", "max_date": "2018-10-15T10:52:00Z", "count_points": 2, "latitude": 50.378, "longitude": 24.93263, "city": "Kulykiv", "images": []}, {"id": 402252, "min_date": "2018-10-15T10:30:00Z", "max_date": "2018-10-17T10:39:00Z", "count_points": 4, "latitude": 48.49966, "longitude": 31.6395, "city": "Zlynka", "images": []}, {"id": 402253, "min_date": "2018-10-15T10:30:00Z", "max_date": "2018-10-19T10:27:00Z", "count_points": 12, "latitude": 48.43429, "longitude": 31.72832, "city": "Zlynka", "images": []}, {"id": 402254, "min_date": "2018-10-15T10:30:00Z", "max_date": "2018-10-17T00:06:00Z", "count_points": 4, "latitude": 45.46466, "longitude": 28.53117, "city": "Ozerne", "images": []}, {"id": 402255, "min_date": "2018-10-15T10:30:00Z", "max_date": "2018-10-15T10:30:00Z", "count_points": 1, "latitude": 46.49157, "longitude": 34.5855, "city": "Partyzany", "images": []}, {"id": 402256, "min_date": "2018-10-15T10:30:00Z", "max_date": "2018-10-15T10:30:00Z", "count_points": 1, "latitude": 47.75748, "longitude": 33.38061, "city": "Shyroke", "images": []}, {"id": 402257, "min_date": "2018-10-15T10:30:00Z", "max_date": "2018-10-15T10:30:00Z", "count_points": 2, "latitude": 45.37824, "longitude": 28.67376, "city": "Ozerne", "images": []}, {"id": 402258, "min_date": "2018-10-15T10:30:00Z", "max_date": "2018-10-15T09:07:00Z", "count_points": 7, "latitude": 48.40148, "longitude": 34.33293, "city": "Krynychky", "images": []}, {"id": 402259, "min_date": "2018-10-15T10:30:00Z", "max_date": "2018-10-15T10:30:00Z", "count_points": 1, "latitude": 45.70194, "longitude": 28.59716, "city": "Bolhrad", "images": []}, {"id": 402260, "min_date": "2018-10-15T10:30:00Z", "max_date": "2018-10-15T10:30:00Z", "count_points": 1, "latitude": 50.80543, "longitude": 25.3001, "city": "Lutsk", "images": []}, {"id": 402261, "min_date": "2018-10-15T10:30:00Z", "max_date": "2018-10-15T10:52:00Z", "count_points": 7, "latitude": 49.69796, "longitude": 27.69899, "city": "Stara Syniava", "images": []}, {"id": 402262, "min_date": "2018-10-15T10:30:00Z", "max_date": "2018-10-15T10:52:00Z", "count_points": 3, "latitude": 50.08129, "longitude": 27.94006, "city": "Romaniv", "images": []}, {"id": 402263, "min_date": "2018-10-15T10:30:00Z", "max_date": "2018-10-15T10:30:00Z", "count_points": 1, "latitude": 49.77322, "longitude": 28.30874, "city": "Ulaniv", "images": []}, {"id": 402264, "min_date": "2018-10-15T10:30:00Z", "max_date": "2018-10-15T10:30:00Z", "count_points": 1, "latitude": 50.45002, "longitude": 25.81589, "city": "Dubno", "images": []}, {"id": 402265, "min_date": "2018-10-15T10:30:00Z", "max_date": "2018-10-15T10:30:00Z", "count_points": 1, "latitude": 48.56797, "longitude": 27.76826, "city": "Vendychany", "images": []}, {"id": 402266, "min_date": "2018-10-15T10:30:00Z", "max_date": "2018-10-15T10:51:00Z", "count_points": 4, "latitude": 49.74328, "longitude": 35.66541, "city": "Valky", "images": []}, {"id": 402267, "min_date": "2018-10-15T10:30:00Z", "max_date": "2018-10-15T10:30:00Z", "count_points": 1, "latitude": 49.76025, "longitude": 27.83728, "city": "Liubar", "images": []}, {"id": 402268, "min_date": "2018-10-15T10:30:00Z", "max_date": "2018-10-15T10:30:00Z", "count_points": 1, "latitude": 48.71161, "longitude": 28.21878, "city": "Sharhorod", "images": []}, {"id": 402269, "min_date": "2018-10-15T10:30:00Z", "max_date": "2018-10-15T10:30:00Z", "count_points": 1, "latitude": 49.18497, "longitude": 27.53129, "city": "Derazhnya", "images": []}, {"id": 402270, "min_date": "2018-10-15T10:30:00Z", "max_date": "2018-10-15T10:30:00Z", "count_points": 1, "latitude": 48.64357, "longitude": 27.99068, "city": "Sharhorod", "images": []}, {"id": 402271, "min_date": "2018-10-15T10:30:00Z", "max_date": "2018-10-17T08:55:00Z", "count_points": 4, "latitude": 50.04434, "longitude": 27.76752, "city": "Liubar", "images": [{"image_url": "402271.jpg", "timestamp": "2018-10-17T08:55:00Z"}]}, {"id": 402272, "min_date": "2018-10-15T10:30:00Z", "max_date": "2018-10-19T08:43:00Z", "count_points": 29, "latitude": 48.59659, "longitude": 31.62904, "city": "Mala Vyska", "images": [{"image_url": "402272.jpg", "timestamp": "2018-10-19T08:43:00Z"}]}, {"id": 402273, "min_date": "2018-10-15T10:30:00Z", "max_date": "2018-10-15T10:51:00Z", "count_points": 18, "latitude": 48.79015, "longitude": 32.36109, "city": "Yelyzavethradka", "images": []}, {"id": 402274, "min_date": "2018-10-15T10:30:00Z", "max_date": "2018-10-15T10:51:00Z", "count_points": 3, "latitude": 48.58382, "longitude": 31.73503, "city": "Mala Vyska", "images": []}, {"id": 402275, "min_date": "2018-10-15T10:30:00Z", "max_date": "2018-10-15T10:51:00Z", "count_points": 3, "latitude": 48.69524, "longitude": 32.60872, "city": "Znomenka", "images": []}, {"id": 402276, "min_date": "2018-10-15T10:30:00Z", "max_date": "2018-10-15T10:51:00Z", "count_points": 2, "latitude": 48.78137, "longitude": 36.10941, "city": "Yur\u201dyivka", "images": []}, {"id": 402277, "min_date": "2018-10-15T10:30:00Z", "max_date": "2018-10-15T10:30:00Z", "count_points": 1, "latitude": 49.71005, "longitude": 30.09431, "city": "Bila Tserkva", "images": []}, {"id": 402278, "min_date": "2018-10-15T10:30:00Z", "max_date": "2018-10-15T10:30:00Z", "count_points": 1, "latitude": 49.79826, "longitude": 32.27231, "city": "Chornobay", "images": []}, {"id": 402279, "min_date": "2018-10-15T10:30:00Z", "max_date": "2018-10-15T09:08:00Z", "count_points": 3, "latitude": 47.33275, "longitude": 37.60135, "city": "Sartana", "images": []}, {"id": 402280, "min_date": "2018-10-15T10:30:00Z", "max_date": "2018-10-18T11:22:00Z", "count_points": 15, "latitude": 49.44009, "longitude": 30.48242, "city": "Kalynove", "images": []}, {"id": 402281, "min_date": "2018-10-15T10:30:00Z", "max_date": "2018-10-15T10:51:00Z", "count_points": 2, "latitude": 49.02979, "longitude": 32.48958, "city": "Chyhyryn", "images": []}, {"id": 402282, "min_date": "2018-10-15T10:30:00Z", "max_date": "2018-10-15T10:30:00Z", "count_points": 1, "latitude": 48.72452, "longitude": 30.94536, "city": "Novoarkhanhel\u2019s\u2019k", "images": []}, {"id": 402283, "min_date": "2018-10-15T10:30:00Z", "max_date": "2018-10-17T10:39:00Z", "count_points": 17, "latitude": 48.85711, "longitude": 29.81115, "city": "Nove-Misto", "images": []}, {"id": 402284, "min_date": "2018-10-15T10:30:00Z", "max_date": "2018-10-15T10:30:00Z", "count_points": 2, "latitude": 48.62335, "longitude": 31.04935, "city": "Tyshkivka", "images": []}, {"id": 402285, "min_date": "2018-10-15T10:30:00Z", "max_date": "2018-10-16T11:34:00Z", "count_points": 27, "latitude": 48.61894, "longitude": 32.43596, "city": "Subottsi", "images": []}, {"id": 402286, "min_date": "2018-10-15T10:30:00Z", "max_date": "2018-10-18T11:22:00Z", "count_points": 3, "latitude": 49.85712, "longitude": 30.46493, "city": "Uzyn", "images": []}, {"id": 402287, "min_date": "2018-10-15T10:30:00Z", "max_date": "2018-10-17T10:39:00Z", "count_points": 9, "latitude": 49.75203, "longitude": 32.76037, "city": "Orzhytsya", "images": []}, {"id": 402288, "min_date": "2018-10-15T10:30:00Z", "max_date": "2018-10-15T10:30:00Z", "count_points": 1, "latitude": 49.18853, "longitude": 36.49538, "city": "Krasnopavlivka", "images": []}, {"id": 402289, "min_date": "2018-10-15T10:30:00Z", "max_date": "2018-10-17T10:39:00Z", "count_points": 18, "latitude": 48.69076, "longitude": 32.16553, "city": "Kropyvnytskyi", "images": []}, {"id": 402290, "min_date": "2018-10-15T10:30:00Z", "max_date": "2018-10-15T10:51:00Z", "count_points": 2, "latitude": 48.56054, "longitude": 32.42579, "city": "Adzhamka", "images": []}, {"id": 402291, "min_date": "2018-10-15T10:30:00Z", "max_date": "2018-10-15T10:30:00Z", "count_points": 1, "latitude": 49.50798, "longitude": 33.12492, "city": "Semenivka", "images": []}, {"id": 402292, "min_date": "2018-10-15T10:30:00Z", "max_date": "2018-10-15T10:51:00Z", "count_points": 4, "latitude": 49.56479, "longitude": 36.56892, "city": "Komsomol\u2019s\u2019ke", "images": []}, {"id": 402293, "min_date": "2018-10-15T10:30:00Z", "max_date": "2018-10-15T10:30:00Z", "count_points": 1, "latitude": 48.86713, "longitude": 31.31177, "city": "Shpola", "images": []}, {"id": 402294, "min_date": "2018-10-15T10:30:00Z", "max_date": "2018-10-17T11:36:00Z", "count_points": 2, "latitude": 48.6977, "longitude": 31.27913, "city": "Shpola", "images": []}, {"id": 402295, "min_date": "2018-10-15T10:30:00Z", "max_date": "2018-10-15T09:07:00Z", "count_points": 3, "latitude": 48.80973, "longitude": 31.26656, "city": "Shpola", "images": []}, {"id": 402296, "min_date": "2018-10-15T10:30:00Z", "max_date": "2018-10-15T10:30:00Z", "count_points": 1, "latitude": 49.67483, "longitude": 32.87308, "city": "Orzhytsya", "images": []}, {"id": 402297, "min_date": "2018-10-15T10:30:00Z", "max_date": "2018-10-18T11:22:00Z", "count_points": 13, "latitude": 49.15973, "longitude": 30.45825, "city": "Buky", "images": []}, {"id": 402298, "min_date": "2018-10-15T10:30:00Z", "max_date": "2018-10-15T10:30:00Z", "count_points": 1, "latitude": 50.03545, "longitude": 31.83767, "city": "Chernyakhivka", "images": []}, {"id": 402299, "min_date": "2018-10-15T10:30:00Z", "max_date": "2018-10-18T11:18:00Z", "count_points": 3, "latitude": 49.35891, "longitude": 32.681, "city": "Chyhyryn", "images": []}, {"id": 402300, "min_date": "2018-10-15T10:30:00Z", "max_date": "2018-10-15T10:51:00Z", "count_points": 3, "latitude": 48.62106, "longitude": 36.2591, "city": "Petropavlivka", "images": []}, {"id": 402301, "min_date": "2018-10-15T10:30:00Z", "max_date": "2018-10-16T11:34:00Z", "count_points": 3, "latitude": 49.28386, "longitude": 35.69476, "city": "Kehychivka", "images": []}, {"id": 402302, "min_date": "2018-10-15T10:30:00Z", "max_date": "2018-10-15T10:51:00Z", "count_points": 5, "latitude": 49.53072, "longitude": 37.09945, "city": "Savyntsi", "images": []}, {"id": 402303, "min_date": "2018-10-15T10:30:00Z", "max_date": "2018-10-17T11:36:00Z", "count_points": 5, "latitude": 48.62422, "longitude": 31.1512, "city": "Lypnyazhka", "images": []}, {"id": 402304, "min_date": "2018-10-15T10:30:00Z", "max_date": "2018-10-17T08:55:00Z", "count_points": 8, "latitude": 48.71509, "longitude": 31.16938, "city": "Lypnyazhka", "images": [{"image_url": "402304.jpg", "timestamp": "2018-10-17T08:55:00Z"}]}, {"id": 402305, "min_date": "2018-10-15T10:30:00Z", "max_date": "2018-10-15T09:07:00Z", "count_points": 3, "latitude": 49.83675, "longitude": 29.30356, "city": "Zaritcha", "images": []}, {"id": 402306, "min_date": "2018-10-15T10:30:00Z", "max_date": "2018-10-20T09:26:00Z", "count_points": 9, "latitude": 48.51234, "longitude": 31.32355, "city": "Dobrovelychkivka", "images": []}, {"id": 402307, "min_date": "2018-10-15T10:30:00Z", "max_date": "2018-10-15T10:30:00Z", "count_points": 1, "latitude": 49.2212, "longitude": 39.27348, "city": "Bilovodsk", "images": []}, {"id": 402308, "min_date": "2018-10-15T10:30:00Z", "max_date": "2018-10-15T10:30:00Z", "count_points": 1, "latitude": 49.59251, "longitude": 31.05257, "city": "Myronivka", "images": []}, {"id": 402309, "min_date": "2018-10-15T10:30:00Z", "max_date": "2018-10-18T09:44:00Z", "count_points": 12, "latitude": 49.94865, "longitude": 32.42819, "city": "Hrebinka", "images": []}, {"id": 402310, "min_date": "2018-10-15T10:30:00Z", "max_date": "2018-10-15T10:51:00Z", "count_points": 3, "latitude": 48.96375, "longitude": 30.35806, "city": "Mankivka", "images": []}, {"id": 402311, "min_date": "2018-10-15T10:30:00Z", "max_date": "2018-10-17T10:39:00Z", "count_points": 6, "latitude": 48.5893, "longitude": 31.22486, "city": "Dobrovelychkivka", "images": []}, {"id": 402312, "min_date": "2018-10-15T10:30:00Z", "max_date": "2018-10-15T10:51:00Z", "count_points": 14, "latitude": 49.19659, "longitude": 29.71093, "city": "Tsibulev", "images": []}, {"id": 402313, "min_date": "2018-10-15T10:30:00Z", "max_date": "2018-10-20T11:10:00Z", "count_points": 5, "latitude": 49.21103, "longitude": 29.76783, "city": "Tsibulev", "images": []}, {"id": 402314, "min_date": "2018-10-15T10:30:00Z", "max_date": "2018-10-16T11:34:00Z", "count_points": 6, "latitude": 48.89856, "longitude": 35.69311, "city": "Sakhnovshchyna", "images": []}, {"id": 402315, "min_date": "2018-10-15T10:30:00Z", "max_date": "2018-10-15T10:30:00Z", "count_points": 1, "latitude": 49.12987, "longitude": 32.63224, "city": "Chyhyryn", "images": []}, {"id": 402316, "min_date": "2018-10-15T10:30:00Z", "max_date": "2018-10-15T10:30:00Z", "count_points": 1, "latitude": 49.73223, "longitude": 30.6377, "city": "Rokytne", "images": []}, {"id": 402317, "min_date": "2018-10-15T10:30:00Z", "max_date": "2018-10-19T10:54:00Z", "count_points": 2, "latitude": 48.87263, "longitude": 37.20436, "city": "Barvinkove", "images": []}, {"id": 402394, "min_date": "2018-10-15T10:30:00Z", "max_date": "2018-10-19T08:43:00Z", "count_points": 6, "latitude": 48.17526, "longitude": 31.685, "city": "Rivne", "images": []}, {"id": 402318, "min_date": "2018-10-15T10:30:00Z", "max_date": "2018-10-15T10:51:00Z", "count_points": 4, "latitude": 48.85787, "longitude": 37.24961, "city": "Barvinkove", "images": []}, {"id": 402319, "min_date": "2018-10-15T10:30:00Z", "max_date": "2018-10-15T10:30:00Z", "count_points": 1, "latitude": 48.59453, "longitude": 36.22837, "city": "Petropavlivka", "images": []}, {"id": 402320, "min_date": "2018-10-15T10:30:00Z", "max_date": "2018-10-19T10:27:00Z", "count_points": 21, "latitude": 48.59978, "longitude": 29.85667, "city": "Teplyk", "images": []}, {"id": 402321, "min_date": "2018-10-15T10:30:00Z", "max_date": "2018-10-17T10:39:00Z", "count_points": 6, "latitude": 49.3993, "longitude": 31.36611, "city": "Korsun-Shevchenkivskyi", "images": []}, {"id": 402322, "min_date": "2018-10-15T10:30:00Z", "max_date": "2018-10-15T10:30:00Z", "count_points": 1, "latitude": 48.73679, "longitude": 31.714, "city": "Novomyrhorod", "images": []}, {"id": 402323, "min_date": "2018-10-15T10:30:00Z", "max_date": "2018-10-15T10:51:00Z", "count_points": 2, "latitude": 48.78569, "longitude": 31.63669, "city": "Novomyrhorod", "images": []}, {"id": 402324, "min_date": "2018-10-15T10:30:00Z", "max_date": "2018-10-15T10:30:00Z", "count_points": 1, "latitude": 49.50554, "longitude": 26.46077, "city": "Narkevychi", "images": []}, {"id": 402325, "min_date": "2018-10-15T10:30:00Z", "max_date": "2018-10-15T10:51:00Z", "count_points": 3, "latitude": 48.37136, "longitude": 28.91382, "city": "Kryzhopil\u2019", "images": []}, {"id": 402326, "min_date": "2018-10-15T10:30:00Z", "max_date": "2018-10-15T09:08:00Z", "count_points": 3, "latitude": 48.66637, "longitude": 26.21976, "city": "Skala-Podil\u2019s\u2019ka", "images": []}, {"id": 402327, "min_date": "2018-10-15T10:30:00Z", "max_date": "2018-10-15T10:52:00Z", "count_points": 2, "latitude": 49.48982, "longitude": 26.58349, "city": "Narkevychi", "images": []}, {"id": 402328, "min_date": "2018-10-15T10:30:00Z", "max_date": "2018-10-15T10:30:00Z", "count_points": 1, "latitude": 50.40593, "longitude": 33.75512, "city": "Lypova Dolyna", "images": []}, {"id": 402329, "min_date": "2018-10-15T10:30:00Z", "max_date": "2018-10-15T10:30:00Z", "count_points": 2, "latitude": 48.33028, "longitude": 28.77131, "city": "Kryzhopil\u2019", "images": []}, {"id": 402330, "min_date": "2018-10-15T10:30:00Z", "max_date": "2018-10-15T10:30:00Z", "count_points": 2, "latitude": 46.87095, "longitude": 33.18333, "city": "Dnipryany", "images": []}, {"id": 402331, "min_date": "2018-10-15T10:30:00Z", "max_date": "2018-10-15T10:30:00Z", "count_points": 1, "latitude": 48.4711, "longitude": 22.23418, "city": "Chop", "images": []}, {"id": 402332, "min_date": "2018-10-15T10:30:00Z", "max_date": "2018-10-18T09:38:00Z", "count_points": 7, "latitude": 48.55212, "longitude": 26.37811, "city": "Zhvanets", "images": [{"image_url": "402332.jpg", "timestamp": "2018-10-18T09:38:00Z"}]}, {"id": 402333, "min_date": "2018-10-15T10:30:00Z", "max_date": "2018-10-15T10:51:00Z", "count_points": 3, "latitude": 47.31709, "longitude": 30.36791, "city": "Shyryayeve", "images": []}, {"id": 402334, "min_date": "2018-10-15T10:30:00Z", "max_date": "2018-10-15T10:51:00Z", "count_points": 6, "latitude": 47.26365, "longitude": 30.41328, "city": "Shyryayeve", "images": []}, {"id": 402335, "min_date": "2018-10-15T10:30:00Z", "max_date": "2018-10-15T10:30:00Z", "count_points": 1, "latitude": 48.36979, "longitude": 22.49756, "city": "Strabychovo", "images": []}, {"id": 402336, "min_date": "2018-10-15T10:30:00Z", "max_date": "2018-10-15T10:30:00Z", "count_points": 1, "latitude": 48.38208, "longitude": 22.42901, "city": "Batiovo", "images": []}, {"id": 402337, "min_date": "2018-10-15T10:30:00Z", "max_date": "2018-10-15T10:30:00Z", "count_points": 1, "latitude": 48.88782, "longitude": 26.81051, "city": "Dunaivtsi", "images": []}, {"id": 402338, "min_date": "2018-10-15T10:30:00Z", "max_date": "2018-10-16T09:57:00Z", "count_points": 17, "latitude": 50.98086, "longitude": 34.42655, "city": "Bilopillya", "images": []}, {"id": 402339, "min_date": "2018-10-15T10:30:00Z", "max_date": "2018-10-15T10:52:00Z", "count_points": 3, "latitude": 51.04768, "longitude": 34.5597, "city": "Bilopillya", "images": []}, {"id": 402340, "min_date": "2018-10-15T10:30:00Z", "max_date": "2018-10-15T10:51:00Z", "count_points": 2, "latitude": 48.43421, "longitude": 28.49516, "city": "Klembivka", "images": []}, {"id": 402341, "min_date": "2018-10-15T10:30:00Z", "max_date": "2018-10-15T10:30:00Z", "count_points": 1, "latitude": 47.61477, "longitude": 29.43029, "city": "Okny", "images": []}, {"id": 402342, "min_date": "2018-10-15T10:30:00Z", "max_date": "2018-10-17T08:55:00Z", "count_points": 12, "latitude": 50.54723, "longitude": 34.26895, "city": "Lebedyn", "images": []}, {"id": 402343, "min_date": "2018-10-15T10:30:00Z", "max_date": "2018-10-15T09:08:00Z", "count_points": 3, "latitude": 47.50217, "longitude": 29.92648, "city": "Zatyshshya", "images": []}, {"id": 402344, "min_date": "2018-10-15T10:30:00Z", "max_date": "2018-10-15T10:30:00Z", "count_points": 3, "latitude": 48.60017, "longitude": 26.38265, "city": "Zhvanets", "images": []}, {"id": 402345, "min_date": "2018-10-15T10:30:00Z", "max_date": "2018-10-15T10:52:00Z", "count_points": 5, "latitude": 48.82158, "longitude": 23.25226, "city": "Volovets", "images": []}, {"id": 402346, "min_date": "2018-10-15T10:30:00Z", "max_date": "2018-10-16T09:56:00Z", "count_points": 17, "latitude": 49.3147, "longitude": 39.76758, "city": "Bilovodsk", "images": []}, {"id": 402347, "min_date": "2018-10-15T10:30:00Z", "max_date": "2018-10-15T10:51:00Z", "count_points": 7, "latitude": 50.10926, "longitude": 35.49466, "city": "Bohodukhiv", "images": []}, {"id": 402348, "min_date": "2018-10-15T10:30:00Z", "max_date": "2018-10-18T11:22:00Z", "count_points": 5, "latitude": 49.22861, "longitude": 35.04323, "city": "Zachepylivka", "images": []}, {"id": 402349, "min_date": "2018-10-15T10:30:00Z", "max_date": "2018-10-18T09:44:00Z", "count_points": 11, "latitude": 49.79297, "longitude": 35.29975, "city": "Kolomak", "images": []}, {"id": 402350, "min_date": "2018-10-15T10:30:00Z", "max_date": "2018-10-20T11:10:00Z", "count_points": 72, "latitude": 51.13566, "longitude": 34.04407, "city": "Vorozhba", "images": []}, {"id": 402351, "min_date": "2018-10-15T10:30:00Z", "max_date": "2018-10-15T10:30:00Z", "count_points": 1, "latitude": 51.60331, "longitude": 31.64544, "city": "Sedniv", "images": []}, {"id": 402352, "min_date": "2018-10-15T10:30:00Z", "max_date": "2018-10-15T10:30:00Z", "count_points": 1, "latitude": 48.75253, "longitude": 35.05451, "city": "Spas\u2019ke", "images": []}, {"id": 402353, "min_date": "2018-10-15T10:30:00Z", "max_date": "2018-10-16T10:12:00Z", "count_points": 3, "latitude": 48.64444, "longitude": 35.08868, "city": "Spas\u2019ke", "images": []}, {"id": 402354, "min_date": "2018-10-15T10:30:00Z", "max_date": "2018-10-15T10:52:00Z", "count_points": 2, "latitude": 51.1955, "longitude": 34.25524, "city": "Vorozhba", "images": []}, {"id": 402355, "min_date": "2018-10-15T10:30:00Z", "max_date": "2018-10-19T10:27:00Z", "count_points": 29, "latitude": 51.23726, "longitude": 34.38603, "city": "Bilopillya", "images": []}, {"id": 402356, "min_date": "2018-10-15T10:30:00Z", "max_date": "2018-10-19T10:27:00Z", "count_points": 5, "latitude": 49.08598, "longitude": 35.15414, "city": "Zachepylivka", "images": []}, {"id": 402357, "min_date": "2018-10-15T10:30:00Z", "max_date": "2018-10-15T10:30:00Z", "count_points": 1, "latitude": 51.67593, "longitude": 31.40502, "city": "Sedniv", "images": []}, {"id": 402358, "min_date": "2018-10-15T10:30:00Z", "max_date": "2018-10-15T10:51:00Z", "count_points": 2, "latitude": 49.92029, "longitude": 35.46228, "city": "Valky", "images": []}, {"id": 402359, "min_date": "2018-10-15T10:30:00Z", "max_date": "2018-10-15T10:52:00Z", "count_points": 10, "latitude": 51.82721, "longitude": 24.90961, "city": "Rakiv Lis", "images": []}, {"id": 402360, "min_date": "2018-10-15T10:30:00Z", "max_date": "2018-10-15T09:07:00Z", "count_points": 2, "latitude": 48.96745, "longitude": 35.54884, "city": "Hubynykha", "images": []}, {"id": 402361, "min_date": "2018-10-15T10:30:00Z", "max_date": "2018-10-17T10:38:00Z", "count_points": 10, "latitude": 46.4331, "longitude": 34.19715, "city": "Novotroyits\u2019ke", "images": []}, {"id": 402362, "min_date": "2018-10-15T10:30:00Z", "max_date": "2018-10-15T10:30:00Z", "count_points": 1, "latitude": 49.29084, "longitude": 35.00227, "city": "Mashivka", "images": []}, {"id": 402363, "min_date": "2018-10-15T10:30:00Z", "max_date": "2018-10-15T10:30:00Z", "count_points": 2, "latitude": 48.31669, "longitude": 34.98748, "city": "Aviatorske", "images": []}, {"id": 402364, "min_date": "2018-10-15T10:30:00Z", "max_date": "2018-10-15T10:50:00Z", "count_points": 5, "latitude": 45.57531, "longitude": 28.65416, "city": "Bolhrad", "images": []}, {"id": 402365, "min_date": "2018-10-15T10:30:00Z", "max_date": "2018-10-15T10:51:00Z", "count_points": 8, "latitude": 48.05787, "longitude": 29.36141, "city": "Chechelnyk", "images": []}, {"id": 402366, "min_date": "2018-10-15T10:30:00Z", "max_date": "2018-10-15T10:52:00Z", "count_points": 2, "latitude": 49.3138, "longitude": 24.15421, "city": "Zhydachiv", "images": []}, {"id": 402367, "min_date": "2018-10-15T10:30:00Z", "max_date": "2018-10-15T10:51:00Z", "count_points": 3, "latitude": 46.63781, "longitude": 35.08333, "city": "Yakymivka", "images": []}, {"id": 402368, "min_date": "2018-10-15T10:30:00Z", "max_date": "2018-10-15T10:51:00Z", "count_points": 6, "latitude": 48.29881, "longitude": 37.66573, "city": "Shcherbynivka", "images": []}, {"id": 402369, "min_date": "2018-10-15T10:30:00Z", "max_date": "2018-10-17T11:36:00Z", "count_points": 3, "latitude": 48.22089, "longitude": 30.4886, "city": "Pobugskoye", "images": []}, {"id": 402370, "min_date": "2018-10-15T10:30:00Z", "max_date": "2018-10-15T10:30:00Z", "count_points": 2, "latitude": 49.25315, "longitude": 34.47271, "city": "Novi Sanzhary", "images": []}, {"id": 402371, "min_date": "2018-10-15T10:30:00Z", "max_date": "2018-10-15T10:30:00Z", "count_points": 2, "latitude": 48.17495, "longitude": 34.36812, "city": "Krynychky", "images": []}, {"id": 402372, "min_date": "2018-10-15T10:30:00Z", "max_date": "2018-10-15T10:30:00Z", "count_points": 1, "latitude": 51.85868, "longitude": 25.89482, "city": "Kuznetsovs\u2019k", "images": []}, {"id": 402373, "min_date": "2018-10-15T10:30:00Z", "max_date": "2018-10-15T10:30:00Z", "count_points": 1, "latitude": 48.32515, "longitude": 36.08687, "city": "Vasyl\u2019kivka", "images": []}, {"id": 402374, "min_date": "2018-10-15T10:30:00Z", "max_date": "2018-10-15T10:30:00Z", "count_points": 1, "latitude": 48.46864, "longitude": 26.64416, "city": "Khotyn", "images": []}, {"id": 402375, "min_date": "2018-10-15T10:30:00Z", "max_date": "2018-10-15T10:30:00Z", "count_points": 1, "latitude": 50.64903, "longitude": 30.34489, "city": "Liutizh", "images": []}, {"id": 402376, "min_date": "2018-10-15T10:30:00Z", "max_date": "2018-10-15T10:30:00Z", "count_points": 1, "latitude": 47.78854, "longitude": 36.42058, "city": "Hulyaypole", "images": []}, {"id": 402377, "min_date": "2018-10-15T10:30:00Z", "max_date": "2018-10-15T10:52:00Z", "count_points": 2, "latitude": 51.06665, "longitude": 30.23251, "city": "Katyuzhanka", "images": []}, {"id": 402378, "min_date": "2018-10-15T10:30:00Z", "max_date": "2018-10-15T10:30:00Z", "count_points": 2, "latitude": 47.77878, "longitude": 36.49063, "city": "Hulyaypole", "images": []}, {"id": 402379, "min_date": "2018-10-15T10:30:00Z", "max_date": "2018-10-15T10:30:00Z", "count_points": 1, "latitude": 48.11626, "longitude": 35.9775, "city": "Vasyl\u2019kivka", "images": []}, {"id": 402380, "min_date": "2018-10-15T10:30:00Z", "max_date": "2018-10-15T10:51:00Z", "count_points": 17, "latitude": 48.12636, "longitude": 31.76954, "city": "Rivne", "images": []}, {"id": 402381, "min_date": "2018-10-15T10:30:00Z", "max_date": "2018-10-15T10:30:00Z", "count_points": 2, "latitude": 48.22703, "longitude": 25.40171, "city": "Berehomet", "images": []}, {"id": 402382, "min_date": "2018-10-15T10:30:00Z", "max_date": "2018-10-20T11:09:00Z", "count_points": 15, "latitude": 48.25924, "longitude": 30.46498, "city": "Holovanivs\u2019k", "images": []}, {"id": 402383, "min_date": "2018-10-15T10:30:00Z", "max_date": "2018-10-19T08:43:00Z", "count_points": 15, "latitude": 49.1737, "longitude": 35.15185, "city": "Zachepylivka", "images": []}, {"id": 402384, "min_date": "2018-10-15T10:30:00Z", "max_date": "2018-10-15T10:50:00Z", "count_points": 4, "latitude": 45.58814, "longitude": 29.47742, "city": "Shevchenkove", "images": []}, {"id": 402385, "min_date": "2018-10-15T10:30:00Z", "max_date": "2018-10-15T10:51:00Z", "count_points": 8, "latitude": 48.74805, "longitude": 34.94443, "city": "Spas\u2019ke", "images": []}, {"id": 402386, "min_date": "2018-10-15T10:30:00Z", "max_date": "2018-10-15T10:30:00Z", "count_points": 1, "latitude": 48.46817, "longitude": 29.33881, "city": "Obodivka", "images": []}, {"id": 402387, "min_date": "2018-10-15T10:30:00Z", "max_date": "2018-10-15T10:30:00Z", "count_points": 2, "latitude": 48.10528, "longitude": 29.64821, "city": "Peschana", "images": []}, {"id": 402388, "min_date": "2018-10-15T10:30:00Z", "max_date": "2018-10-20T11:10:00Z", "count_points": 38, "latitude": 48.91126, "longitude": 35.2915, "city": "Hubynykha", "images": []}, {"id": 402389, "min_date": "2018-10-15T10:30:00Z", "max_date": "2018-10-15T10:30:00Z", "count_points": 1, "latitude": 45.45837, "longitude": 29.23592, "city": "Kiliya", "images": []}, {"id": 402390, "min_date": "2018-10-15T10:30:00Z", "max_date": "2018-10-18T11:22:00Z", "count_points": 22, "latitude": 47.87266, "longitude": 29.3827, "city": "Slobidka", "images": [{"image_url": "402390.jpg", "timestamp": "2018-10-18T11:22:00Z"}]}, {"id": 402391, "min_date": "2018-10-15T10:30:00Z", "max_date": "2018-10-15T10:52:00Z", "count_points": 5, "latitude": 50.70794, "longitude": 34.29827, "city": "Lebedyn", "images": []}, {"id": 402392, "min_date": "2018-10-15T10:30:00Z", "max_date": "2018-10-15T10:51:00Z", "count_points": 3, "latitude": 48.08034, "longitude": 37.20275, "city": "Selydove", "images": []}, {"id": 402393, "min_date": "2018-10-15T10:30:00Z", "max_date": "2018-10-19T10:54:00Z", "count_points": 5, "latitude": 49.12694, "longitude": 35.31928, "city": "Zachepylivka", "images": []}, {"id": 402395, "min_date": "2018-10-15T10:30:00Z", "max_date": "2018-10-15T10:51:00Z", "count_points": 6, "latitude": 48.16314, "longitude": 31.63429, "city": "Rivne", "images": []}, {"id": 402396, "min_date": "2018-10-15T10:30:00Z", "max_date": "2018-10-15T10:51:00Z", "count_points": 4, "latitude": 48.02147, "longitude": 31.28392, "city": "Arbuzynka", "images": [{"image_url": "402396.jpg", "timestamp": "2018-10-15T10:51:00Z"}]}, {"id": 402397, "min_date": "2018-10-15T10:30:00Z", "max_date": "2018-10-18T11:12:00Z", "count_points": 2, "latitude": 47.85025, "longitude": 29.78187, "city": "Balta", "images": []}, {"id": 402398, "min_date": "2018-10-15T10:30:00Z", "max_date": "2018-10-17T10:39:00Z", "count_points": 11, "latitude": 48.21591, "longitude": 31.71806, "city": "Rivne", "images": [{"image_url": "402398.jpg", "timestamp": "2018-10-17T10:39:00Z"}]}, {"id": 402399, "min_date": "2018-10-15T10:30:00Z", "max_date": "2018-10-19T10:27:00Z", "count_points": 7, "latitude": 49.4192, "longitude": 34.10412, "city": "Reshetylivka", "images": []}, {"id": 402400, "min_date": "2018-10-15T10:30:00Z", "max_date": "2018-10-15T10:30:00Z", "count_points": 5, "latitude": 50.12459, "longitude": 31.32765, "city": "Pereyaslav-Khmel\u2019nyts\u2019kyy", "images": []}, {"id": 402401, "min_date": "2018-10-15T10:30:00Z", "max_date": "2018-10-15T10:52:00Z", "count_points": 2, "latitude": 50.64031, "longitude": 32.77846, "city": "Dihtyari", "images": []}, {"id": 402402, "min_date": "2018-10-15T10:30:00Z", "max_date": "2018-10-15T10:30:00Z", "count_points": 1, "latitude": 50.32848, "longitude": 31.70062, "city": "Yahotyn", "images": []}, {"id": 402403, "min_date": "2018-10-15T10:30:00Z", "max_date": "2018-10-15T10:52:00Z", "count_points": 5, "latitude": 50.81353, "longitude": 34.94602, "city": "Verkhnya Syrovatka", "images": []}, {"id": 402404, "min_date": "2018-10-15T10:30:00Z", "max_date": "2018-10-15T10:30:00Z", "count_points": 1, "latitude": 50.80401, "longitude": 34.36026, "city": "Lebedyn", "images": []}, {"id": 402405, "min_date": "2018-10-15T10:30:00Z", "max_date": "2018-10-15T10:52:00Z", "count_points": 3, "latitude": 50.52333, "longitude": 32.65877, "city": "Varva", "images": []}, {"id": 402406, "min_date": "2018-10-15T10:30:00Z", "max_date": "2018-10-19T10:27:00Z", "count_points": 6, "latitude": 50.30712, "longitude": 33.84696, "city": "Hadyach", "images": []}, {"id": 402407, "min_date": "2018-10-15T10:30:00Z", "max_date": "2018-10-15T10:30:00Z", "count_points": 1, "latitude": 50.08939, "longitude": 36.91246, "city": "Staryy Saltiv", "images": []}, {"id": 402408, "min_date": "2018-10-15T10:30:00Z", "max_date": "2018-10-15T10:30:00Z", "count_points": 1, "latitude": 48.59678, "longitude": 29.73085, "city": "Teplyk", "images": []}, {"id": 402409, "min_date": "2018-10-15T10:30:00Z", "max_date": "2018-10-15T10:30:00Z", "count_points": 1, "latitude": 50.52364, "longitude": 32.54701, "city": "Ladan", "images": []}, {"id": 402410, "min_date": "2018-10-15T10:30:00Z", "max_date": "2018-10-15T10:51:00Z", "count_points": 3, "latitude": 49.96045, "longitude": 36.45319, "city": "Kulynychi", "images": []}, {"id": 402411, "min_date": "2018-10-15T10:30:00Z", "max_date": "2018-10-15T09:07:00Z", "count_points": 4, "latitude": 50.28128, "longitude": 31.62315, "city": "Yahotyn", "images": []}, {"id": 402412, "min_date": "2018-10-15T10:30:00Z", "max_date": "2018-10-15T10:30:00Z", "count_points": 1, "latitude": 50.65435, "longitude": 33.34774, "city": "Romny", "images": []}, {"id": 402413, "min_date": "2018-10-15T10:30:00Z", "max_date": "2018-10-16T10:12:00Z", "count_points": 3, "latitude": 50.97642, "longitude": 33.63885, "city": "Sloboda", "images": []}, {"id": 402414, "min_date": "2018-10-15T10:30:00Z", "max_date": "2018-10-15T10:30:00Z", "count_points": 1, "latitude": 49.95987, "longitude": 30.44624, "city": "Uzyn", "images": []}, {"id": 402415, "min_date": "2018-10-15T10:30:00Z", "max_date": "2018-10-15T10:30:00Z", "count_points": 1, "latitude": 48.14228, "longitude": 29.02338, "city": "Kodyma", "images": []}, {"id": 402416, "min_date": "2018-10-15T10:30:00Z", "max_date": "2018-10-15T10:30:00Z", "count_points": 2, "latitude": 48.06208, "longitude": 28.85467, "city": "Zagnitkiv", "images": []}, {"id": 402417, "min_date": "2018-10-15T10:30:00Z", "max_date": "2018-10-15T10:51:00Z", "count_points": 8, "latitude": 48.4358, "longitude": 28.81498, "city": "Kryzhopil\u2019", "images": [{"image_url": "402417.jpg", "timestamp": "2018-10-15T10:51:00Z"}]}, {"id": 402418, "min_date": "2018-10-15T10:30:00Z", "max_date": "2018-10-15T10:51:00Z", "count_points": 11, "latitude": 47.80377, "longitude": 29.36135, "city": "Slobidka", "images": []}, {"id": 402419, "min_date": "2018-10-15T10:30:00Z", "max_date": "2018-10-15T10:30:00Z", "count_points": 2, "latitude": 49.62456, "longitude": 33.33139, "city": "Semenivka", "images": []}, {"id": 402420, "min_date": "2018-10-15T10:30:00Z", "max_date": "2018-10-15T10:51:00Z", "count_points": 7, "latitude": 49.6374, "longitude": 33.21939, "city": "Semenivka", "images": []}, {"id": 402421, "min_date": "2018-10-15T10:30:00Z", "max_date": "2018-10-15T10:30:00Z", "count_points": 1, "latitude": 48.07203, "longitude": 29.91129, "city": "Zavallya", "images": []}, {"id": 402422, "min_date": "2018-10-15T10:30:00Z", "max_date": "2018-10-15T10:52:00Z", "count_points": 4, "latitude": 51.19752, "longitude": 33.4188, "city": "Sloboda", "images": []}, {"id": 402423, "min_date": "2018-10-15T10:30:00Z", "max_date": "2018-10-15T10:30:00Z", "count_points": 1, "latitude": 49.71592, "longitude": 24.33556, "city": "Dzvinogrud", "images": []}, {"id": 402424, "min_date": "2018-10-15T10:30:00Z", "max_date": "2018-10-17T08:55:00Z", "count_points": 16, "latitude": 49.2791, "longitude": 35.16966, "city": "Karlivka", "images": []}, {"id": 402425, "min_date": "2018-10-15T10:30:00Z", "max_date": "2018-10-15T10:30:00Z", "count_points": 1, "latitude": 49.5577, "longitude": 26.0867, "city": "Pidvolochysk", "images": []}, {"id": 402426, "min_date": "2018-10-15T10:30:00Z", "max_date": "2018-10-15T10:30:00Z", "count_points": 1, "latitude": 48.33868, "longitude": 29.99177, "city": "Hayvoron", "images": []}, {"id": 402427, "min_date": "2018-10-15T10:30:00Z", "max_date": "2018-10-15T10:30:00Z", "count_points": 1, "latitude": 44.56636, "longitude": 33.79685, "city": "Ternovka", "images": []}, {"id": 402428, "min_date": "2018-10-15T10:30:00Z", "max_date": "2018-10-15T10:30:00Z", "count_points": 1, "latitude": 48.20339, "longitude": 29.87749, "city": "Hayvoron", "images": []}, {"id": 402429, "min_date": "2018-10-15T10:30:00Z", "max_date": "2018-10-18T11:21:00Z", "count_points": 18, "latitude": 46.17663, "longitude": 33.06648, "city": "Skadovs\u2019k", "images": []}, {"id": 402430, "min_date": "2018-10-15T10:30:00Z", "max_date": "2018-10-15T10:30:00Z", "count_points": 1, "latitude": 46.1415, "longitude": 32.93745, "city": "Skadovs\u2019k", "images": []}, {"id": 402431, "min_date": "2018-10-15T10:30:00Z", "max_date": "2018-10-15T10:51:00Z", "count_points": 3, "latitude": 48.39243, "longitude": 33.11352, "city": "Novyy Starodub", "images": []}, {"id": 402432, "min_date": "2018-10-15T10:30:00Z", "max_date": "2018-10-15T10:50:00Z", "count_points": 2, "latitude": 45.47622, "longitude": 29.35884, "city": "Shevchenkove", "images": []}, {"id": 402433, "min_date": "2018-10-15T10:30:00Z", "max_date": "2018-10-15T10:30:00Z", "count_points": 1, "latitude": 46.68462, "longitude": 31.41511, "city": "Rybakivka", "images": []}, {"id": 402434, "min_date": "2018-10-15T10:30:00Z", "max_date": "2018-10-15T10:30:00Z", "count_points": 1, "latitude": 45.5356, "longitude": 29.52982, "city": "Vylkove", "images": []}, {"id": 402435, "min_date": "2018-10-15T10:30:00Z", "max_date": "2018-10-18T11:22:00Z", "count_points": 11, "latitude": 48.15619, "longitude": 29.64815, "city": "Peschana", "images": [{"image_url": "402435.jpg", "timestamp": "2018-10-18T11:22:00Z"}]}, {"id": 402436, "min_date": "2018-10-15T10:30:00Z", "max_date": "2018-10-15T10:30:00Z", "count_points": 1, "latitude": 48.31083, "longitude": 33.28091, "city": "Petrove", "images": []}, {"id": 402437, "min_date": "2018-10-15T10:30:00Z", "max_date": "2018-10-17T10:39:00Z", "count_points": 6, "latitude": 47.84627, "longitude": 30.50375, "city": "Vradiyivka", "images": []}, {"id": 402438, "min_date": "2018-10-15T10:30:00Z", "max_date": "2018-10-15T10:51:00Z", "count_points": 5, "latitude": 48.21148, "longitude": 31.12299, "city": "Lysa Hora", "images": [{"image_url": "402438.jpg", "timestamp": "2018-10-15T10:51:00Z"}]}, {"id": 402439, "min_date": "2018-10-15T10:30:00Z", "max_date": "2018-10-17T10:39:00Z", "count_points": 7, "latitude": 48.15901, "longitude": 30.11873, "city": "Savran", "images": []}, {"id": 402440, "min_date": "2018-10-15T10:30:00Z", "max_date": "2018-10-15T10:30:00Z", "count_points": 1, "latitude": 48.31314, "longitude": 33.04812, "city": "Petrove", "images": []}, {"id": 402441, "min_date": "2018-10-15T10:30:00Z", "max_date": "2018-10-18T09:38:00Z", "count_points": 9, "latitude": 48.23813, "longitude": 29.41819, "city": "Chechelnyk", "images": [{"image_url": "402441.jpg", "timestamp": "2018-10-18T09:38:00Z"}]}, {"id": 402442, "min_date": "2018-10-15T10:30:00Z", "max_date": "2018-10-15T10:30:00Z", "count_points": 1, "latitude": 47.91866, "longitude": 32.77285, "city": "Kazanka", "images": []}, {"id": 402443, "min_date": "2018-10-15T10:30:00Z", "max_date": "2018-10-19T10:54:00Z", "count_points": 3, "latitude": 46.20248, "longitude": 32.21891, "city": "Bekhtery", "images": []}, {"id": 402444, "min_date": "2018-10-15T10:30:00Z", "max_date": "2018-10-20T11:09:00Z", "count_points": 10, "latitude": 47.60883, "longitude": 34.06468, "city": "Ordzhonikidze", "images": []}, {"id": 402445, "min_date": "2018-10-15T10:30:00Z", "max_date": "2018-10-15T09:07:00Z", "count_points": 4, "latitude": 50.66905, "longitude": 26.30389, "city": "Horodyshche", "images": []}, {"id": 402446, "min_date": "2018-10-15T10:30:00Z", "max_date": "2018-10-15T10:30:00Z", "count_points": 1, "latitude": 48.27532, "longitude": 33.85878, "city": "Vyshneve", "images": []}, {"id": 402447, "min_date": "2018-10-15T10:30:00Z", "max_date": "2018-10-15T10:30:00Z", "count_points": 1, "latitude": 48.43724, "longitude": 33.57325, "city": "Zhovti Vody", "images": []}, {"id": 402448, "min_date": "2018-10-15T10:30:00Z", "max_date": "2018-10-17T11:36:00Z", "count_points": 5, "latitude": 48.78429, "longitude": 25.68484, "city": "Tovste", "images": []}, {"id": 402449, "min_date": "2018-10-15T10:30:00Z", "max_date": "2018-10-15T10:30:00Z", "count_points": 1, "latitude": 51.51654, "longitude": 27.3268, "city": "Rokytne", "images": []}, {"id": 402450, "min_date": "2018-10-15T10:30:00Z", "max_date": "2018-10-15T10:30:00Z", "count_points": 1, "latitude": 48.7282, "longitude": 25.73723, "city": "Kostryzhivka", "images": []}, {"id": 402451, "min_date": "2018-10-15T10:30:00Z", "max_date": "2018-10-18T11:22:00Z", "count_points": 4, "latitude": 48.45386, "longitude": 34.07278, "city": "Vyshneve", "images": []}, {"id": 402452, "min_date": "2018-10-15T10:30:00Z", "max_date": "2018-10-15T10:51:00Z", "count_points": 4, "latitude": 46.91114, "longitude": 33.87799, "city": "Kayiry", "images": []}, {"id": 402453, "min_date": "2018-10-15T10:30:00Z", "max_date": "2018-10-15T10:30:00Z", "count_points": 1, "latitude": 48.64267, "longitude": 26.54338, "city": "Smotrych", "images": []}, {"id": 402454, "min_date": "2018-10-15T10:30:00Z", "max_date": "2018-10-15T09:08:00Z", "count_points": 2, "latitude": 49.17361, "longitude": 26.07812, "city": "Husiatyn", "images": []}, {"id": 402455, "min_date": "2018-10-15T10:30:00Z", "max_date": "2018-10-17T10:39:00Z", "count_points": 3, "latitude": 49.15218, "longitude": 25.92134, "city": "Kopychyntsi", "images": []}, {"id": 402456, "min_date": "2018-10-15T10:30:00Z", "max_date": "2018-10-18T11:23:00Z", "count_points": 28, "latitude": 51.45965, "longitude": 27.33688, "city": "Rokytne", "images": []}, {"id": 402457, "min_date": "2018-10-15T10:30:00Z", "max_date": "2018-10-15T10:30:00Z", "count_points": 1, "latitude": 48.92067, "longitude": 25.47781, "city": "Chernelytsya", "images": []}, {"id": 402458, "min_date": "2018-10-15T10:30:00Z", "max_date": "2018-10-15T10:30:00Z", "count_points": 1, "latitude": 48.2956, "longitude": 33.76925, "city": "Piatykhatky", "images": []}, {"id": 402459, "min_date": "2018-10-15T10:30:00Z", "max_date": "2018-10-15T10:52:00Z", "count_points": 4, "latitude": 51.93607, "longitude": 33.37542, "city": "Shostka", "images": []}, {"id": 402460, "min_date": "2018-10-15T10:30:00Z", "max_date": "2018-10-15T10:30:00Z", "count_points": 1, "latitude": 47.1922, "longitude": 38.12869, "city": "Novoazovsk", "images": []}, {"id": 402461, "min_date": "2018-10-15T10:30:00Z", "max_date": "2018-10-15T10:51:00Z", "count_points": 14, "latitude": 49.83244, "longitude": 37.36501, "city": "Velykyy Burluk", "images": []}, {"id": 402462, "min_date": "2018-10-15T10:30:00Z", "max_date": "2018-10-15T10:51:00Z", "count_points": 3, "latitude": 48.67995, "longitude": 36.91812, "city": "Oleksandrivka", "images": []}, {"id": 402463, "min_date": "2018-10-15T10:30:00Z", "max_date": "2018-10-15T10:30:00Z", "count_points": 2, "latitude": 49.79858, "longitude": 36.63888, "city": "Eskhar", "images": []}, {"id": 402464, "min_date": "2018-10-15T10:30:00Z", "max_date": "2018-10-15T10:51:00Z", "count_points": 5, "latitude": 49.03583, "longitude": 35.85545, "city": "Sakhnovshchyna", "images": []}, {"id": 402465, "min_date": "2018-10-15T10:30:00Z", "max_date": "2018-10-18T11:23:00Z", "count_points": 44, "latitude": 51.79299, "longitude": 31.87701, "city": "Shchors", "images": []}, {"id": 402466, "min_date": "2018-10-15T10:30:00Z", "max_date": "2018-10-15T10:30:00Z", "count_points": 2, "latitude": 49.82404, "longitude": 36.4033, "city": "Vasyshcheve", "images": []}, {"id": 402467, "min_date": "2018-10-15T10:30:00Z", "max_date": "2018-10-15T10:51:00Z", "count_points": 2, "latitude": 49.56415, "longitude": 35.94853, "city": "Nova Vodolaha", "images": []}, {"id": 402468, "min_date": "2018-10-15T12:12:00Z", "max_date": "2018-10-15T12:12:00Z", "count_points": 2, "latitude": 50.1128, "longitude": 24.68986, "city": "Bus\u2019k", "images": []}, {"id": 402469, "min_date": "2018-10-15T12:12:00Z", "max_date": "2018-10-15T12:12:00Z", "count_points": 1, "latitude": 50.89178, "longitude": 25.5595, "city": "Kivertsi", "images": []}, {"id": 402470, "min_date": "2018-10-15T12:12:00Z", "max_date": "2018-10-15T12:12:00Z", "count_points": 1, "latitude": 50.37367, "longitude": 24.57987, "city": "Radekhiv", "images": []}, {"id": 402471, "min_date": "2018-10-15T12:12:00Z", "max_date": "2018-10-15T12:12:00Z", "count_points": 1, "latitude": 51.08422, "longitude": 24.14212, "city": "Liuboml", "images": []}, {"id": 402472, "min_date": "2018-10-15T12:12:00Z", "max_date": "2018-10-15T12:12:00Z", "count_points": 1, "latitude": 50.26445, "longitude": 24.68993, "city": "Radekhiv", "images": []}, {"id": 402473, "min_date": "2018-10-15T12:12:00Z", "max_date": "2018-10-15T12:12:00Z", "count_points": 1, "latitude": 49.82081, "longitude": 28.53647, "city": "Berdychiv", "images": []}, {"id": 402474, "min_date": "2018-10-15T12:12:00Z", "max_date": "2018-10-16T09:50:00Z", "count_points": 8, "latitude": 48.99029, "longitude": 26.01449, "city": "Kopychyntsi", "images": [{"image_url": "402474.jpg", "timestamp": "2018-10-16T09:50:00Z"}]}, {"id": 402475, "min_date": "2018-10-15T12:12:00Z", "max_date": "2018-10-15T12:12:00Z", "count_points": 1, "latitude": 48.47243, "longitude": 28.46516, "city": "Tomashpil\u2019", "images": []}, {"id": 402476, "min_date": "2018-10-15T12:12:00Z", "max_date": "2018-10-15T10:52:00Z", "count_points": 4, "latitude": 48.42649, "longitude": 22.65244, "city": "Nove Davydkovo", "images": []}, {"id": 402477, "min_date": "2018-10-15T12:12:00Z", "max_date": "2018-10-15T12:12:00Z", "count_points": 2, "latitude": 48.7965, "longitude": 26.60564, "city": "Makiv", "images": []}, {"id": 402478, "min_date": "2018-10-15T12:12:00Z", "max_date": "2018-10-15T12:12:00Z", "count_points": 1, "latitude": 48.25814, "longitude": 22.96223, "city": "Oleshnyk", "images": []}, {"id": 402479, "min_date": "2018-10-15T12:12:00Z", "max_date": "2018-10-15T12:12:00Z", "count_points": 1, "latitude": 48.96623, "longitude": 25.92154, "city": "Chortkiv", "images": []}, {"id": 402480, "min_date": "2018-10-15T12:12:00Z", "max_date": "2018-10-15T12:12:00Z", "count_points": 2, "latitude": 48.97656, "longitude": 27.16919, "city": "Vinkivtsi", "images": []}, {"id": 402481, "min_date": "2018-10-15T12:12:00Z", "max_date": "2018-10-15T12:12:00Z", "count_points": 2, "latitude": 50.47617, "longitude": 26.21506, "city": "Zdovbytsya", "images": []}, {"id": 402482, "min_date": "2018-10-15T22:42:00Z", "max_date": "2018-10-16T10:12:00Z", "count_points": 4, "latitude": 48.74292, "longitude": 36.6035, "city": "Blyznyuky", "images": []}, {"id": 402483, "min_date": "2018-10-15T22:42:00Z", "max_date": "2018-10-15T22:42:00Z", "count_points": 1, "latitude": 49.01213, "longitude": 36.45995, "city": "Blyznyuky", "images": []}, {"id": 402484, "min_date": "2018-10-15T22:42:00Z", "max_date": "2018-10-17T10:39:00Z", "count_points": 41, "latitude": 48.17884, "longitude": 38.61981, "city": "Rozsypne", "images": []}, {"id": 402485, "min_date": "2018-10-15T22:42:00Z", "max_date": "2018-10-16T00:24:00Z", "count_points": 3, "latitude": 47.83018, "longitude": 37.7356, "city": "Dokuchayevs\u2019k", "images": []}, {"id": 402486, "min_date": "2018-10-15T22:42:00Z", "max_date": "2018-10-16T00:24:00Z", "count_points": 2, "latitude": 48.5023, "longitude": 38.18032, "city": "Svetlodarsk", "images": []}, {"id": 402487, "min_date": "2018-10-16T00:24:00Z", "max_date": "2018-10-15T10:52:00Z", "count_points": 10, "latitude": 51.63473, "longitude": 27.12161, "city": "Rokytne", "images": []}, {"id": 402488, "min_date": "2018-10-16T00:24:00Z", "max_date": "2018-10-16T00:24:00Z", "count_points": 1, "latitude": 51.26135, "longitude": 27.05838, "city": "Rokytne", "images": []}, {"id": 402489, "min_date": "2018-10-16T00:24:00Z", "max_date": "2018-10-16T00:24:00Z", "count_points": 1, "latitude": 50.16155, "longitude": 26.77091, "city": "Izyaslav", "images": []}, {"id": 402490, "min_date": "2018-10-16T00:24:00Z", "max_date": "2018-10-18T09:38:00Z", "count_points": 29, "latitude": 51.45366, "longitude": 25.62718, "city": "Manevychi", "images": []}, {"id": 402491, "min_date": "2018-10-16T00:24:00Z", "max_date": "2018-10-16T00:24:00Z", "count_points": 1, "latitude": 51.01331, "longitude": 26.71739, "city": "Berezne", "images": []}, {"id": 402492, "min_date": "2018-10-16T00:24:00Z", "max_date": "2018-10-16T00:24:00Z", "count_points": 1, "latitude": 51.68291, "longitude": 25.48417, "city": "Lyubeshiv", "images": []}, {"id": 402493, "min_date": "2018-10-16T00:24:00Z", "max_date": "2018-10-16T11:35:00Z", "count_points": 30, "latitude": 50.32541, "longitude": 26.55234, "city": "Ostroh", "images": [{"image_url": "402493.jpg", "timestamp": "2018-10-16T11:35:00Z"}]}, {"id": 402494, "min_date": "2018-10-16T00:24:00Z", "max_date": "2018-10-16T00:24:00Z", "count_points": 1, "latitude": 49.75882, "longitude": 38.77125, "city": "Lozno-Oleksandrivka", "images": []}, {"id": 402495, "min_date": "2018-10-16T00:24:00Z", "max_date": "2018-10-16T00:24:00Z", "count_points": 1, "latitude": 51.34779, "longitude": 24.57461, "city": "Stara Vyzhivka", "images": []}, {"id": 402496, "min_date": "2018-10-16T00:24:00Z", "max_date": "2018-10-17T23:48:00Z", "count_points": 4, "latitude": 51.41217, "longitude": 24.94586, "city": "Nuyno", "images": []}, {"id": 402497, "min_date": "2018-10-16T00:24:00Z", "max_date": "2018-10-21T00:30:00Z", "count_points": 7, "latitude": 51.38241, "longitude": 24.93196, "city": "Nuyno", "images": []}, {"id": 402498, "min_date": "2018-10-16T00:24:00Z", "max_date": "2018-10-16T00:24:00Z", "count_points": 3, "latitude": 47.08617, "longitude": 37.79199, "city": "Sartana", "images": []}, {"id": 402499, "min_date": "2018-10-16T00:24:00Z", "max_date": "2018-10-16T00:24:00Z", "count_points": 1, "latitude": 45.38583, "longitude": 34.94191, "city": "Sovetskiy", "images": []}, {"id": 402500, "min_date": "2018-10-16T00:24:00Z", "max_date": "2018-10-16T00:24:00Z", "count_points": 2, "latitude": 45.50493, "longitude": 29.39623, "city": "Shevchenkove", "images": []}, {"id": 402501, "min_date": "2018-10-16T00:24:00Z", "max_date": "2018-10-18T11:23:00Z", "count_points": 19, "latitude": 51.21826, "longitude": 27.88823, "city": "Novi Bilokorovychi", "images": [{"image_url": "402501.jpg", "timestamp": "2018-10-18T11:23:00Z"}]}, {"id": 402502, "min_date": "2018-10-16T10:12:00Z", "max_date": "2018-10-16T10:12:00Z", "count_points": 1, "latitude": 49.17761, "longitude": 25.53022, "city": "Druzhba", "images": []}, {"id": 402503, "min_date": "2018-10-16T10:12:00Z", "max_date": "2018-10-20T11:09:00Z", "count_points": 13, "latitude": 46.37124, "longitude": 33.65912, "city": "Chaplynka", "images": []}, {"id": 402504, "min_date": "2018-10-16T10:12:00Z", "max_date": "2018-10-16T10:12:00Z", "count_points": 1, "latitude": 51.67064, "longitude": 26.68254, "city": "Dubrovytsya", "images": []}, {"id": 402505, "min_date": "2018-10-16T10:12:00Z", "max_date": "2018-10-20T09:26:00Z", "count_points": 17, "latitude": 46.13768, "longitude": 33.40176, "city": "Kalanchak", "images": []}, {"id": 402506, "min_date": "2018-10-16T10:12:00Z", "max_date": "2018-10-16T11:34:00Z", "count_points": 7, "latitude": 49.5564, "longitude": 26.38854, "city": "Volochysk", "images": []}, {"id": 402507, "min_date": "2018-10-16T10:12:00Z", "max_date": "2018-10-21T12:00:00Z", "count_points": 6, "latitude": 51.6993, "longitude": 26.65861, "city": "Dubrovytsya", "images": [{"image_url": "402507.jpg", "timestamp": "2018-10-21T12:00:00Z"}]}, {"id": 402508, "min_date": "2018-10-16T10:12:00Z", "max_date": "2018-10-16T10:12:00Z", "count_points": 2, "latitude": 48.05413, "longitude": 33.84058, "city": "Sofiyivka", "images": []}, {"id": 402509, "min_date": "2018-10-16T10:12:00Z", "max_date": "2018-10-16T10:12:00Z", "count_points": 1, "latitude": 48.37481, "longitude": 22.72032, "city": "Mukacheve", "images": []}, {"id": 402510, "min_date": "2018-10-16T10:12:00Z", "max_date": "2018-10-16T10:12:00Z", "count_points": 2, "latitude": 48.72136, "longitude": 26.58976, "city": "Kamianets-Podilskyi", "images": []}, {"id": 402511, "min_date": "2018-10-16T10:12:00Z", "max_date": "2018-10-16T09:50:00Z", "count_points": 2, "latitude": 50.22849, "longitude": 26.54356, "city": "Ostroh", "images": []}, {"id": 402512, "min_date": "2018-10-16T10:12:00Z", "max_date": "2018-10-16T09:56:00Z", "count_points": 4, "latitude": 46.82859, "longitude": 34.03503, "city": "Nyzhni Sirohozy", "images": []}, {"id": 402513, "min_date": "2018-10-16T10:12:00Z", "max_date": "2018-10-16T10:12:00Z", "count_points": 1, "latitude": 49.5403, "longitude": 39.74157, "city": "Markivka", "images": []}, {"id": 402514, "min_date": "2018-10-16T10:12:00Z", "max_date": "2018-10-16T10:12:00Z", "count_points": 1, "latitude": 52.07311, "longitude": 32.62534, "city": "Semenivka", "images": []}, {"id": 402515, "min_date": "2018-10-16T10:12:00Z", "max_date": "2018-10-16T10:12:00Z", "count_points": 2, "latitude": 49.60049, "longitude": 35.93454, "city": "Nova Vodolaha", "images": []}, {"id": 402516, "min_date": "2018-10-16T10:12:00Z", "max_date": "2018-10-17T10:38:00Z", "count_points": 3, "latitude": 47.17714, "longitude": 37.37494, "city": "Volodars\u2019ke", "images": []}, {"id": 402517, "min_date": "2018-10-16T10:12:00Z", "max_date": "2018-10-16T11:35:00Z", "count_points": 8, "latitude": 51.61364, "longitude": 27.51624, "city": "Olevs\u2019k", "images": []}, {"id": 402518, "min_date": "2018-10-16T10:12:00Z", "max_date": "2018-10-18T11:22:00Z", "count_points": 22, "latitude": 48.99406, "longitude": 35.8095, "city": "Sakhnovshchyna", "images": []}, {"id": 402519, "min_date": "2018-10-16T10:12:00Z", "max_date": "2018-10-16T10:12:00Z", "count_points": 1, "latitude": 50.05585, "longitude": 36.69376, "city": "Staryy Saltiv", "images": []}, {"id": 402520, "min_date": "2018-10-16T10:12:00Z", "max_date": "2018-10-16T10:12:00Z", "count_points": 1, "latitude": 49.96692, "longitude": 37.21924, "city": "Velykyy Burluk", "images": []}, {"id": 402521, "min_date": "2018-10-16T10:12:00Z", "max_date": "2018-10-18T11:18:00Z", "count_points": 4, "latitude": 51.56354, "longitude": 27.53851, "city": "Olevs\u2019k", "images": []}, {"id": 402522, "min_date": "2018-10-16T10:12:00Z", "max_date": "2018-10-16T09:57:00Z", "count_points": 6, "latitude": 51.75658, "longitude": 31.68752, "city": "Horodnya", "images": []}, {"id": 402523, "min_date": "2018-10-16T10:12:00Z", "max_date": "2018-10-16T09:56:00Z", "count_points": 7, "latitude": 49.30342, "longitude": 33.39535, "city": "Hlobyne", "images": []}, {"id": 402524, "min_date": "2018-10-16T10:12:00Z", "max_date": "2018-10-16T08:12:00Z", "count_points": 2, "latitude": 48.92212, "longitude": 33.99513, "city": "Lykhivka", "images": []}, {"id": 402525, "min_date": "2018-10-16T10:12:00Z", "max_date": "2018-10-16T10:12:00Z", "count_points": 2, "latitude": 50.45982, "longitude": 34.32796, "city": "Lebedyn", "images": []}, {"id": 402526, "min_date": "2018-10-16T10:12:00Z", "max_date": "2018-10-16T10:12:00Z", "count_points": 1, "latitude": 49.00288, "longitude": 35.01772, "city": "Mahdalynivka", "images": []}, {"id": 402527, "min_date": "2018-10-16T10:12:00Z", "max_date": "2018-10-16T10:12:00Z", "count_points": 2, "latitude": 50.27098, "longitude": 31.91599, "city": "Chernyakhivka", "images": []}, {"id": 402528, "min_date": "2018-10-16T10:12:00Z", "max_date": "2018-10-16T10:12:00Z", "count_points": 1, "latitude": 48.70391, "longitude": 28.46354, "city": "Tomashpil\u2019", "images": []}, {"id": 402529, "min_date": "2018-10-16T10:12:00Z", "max_date": "2018-10-16T10:12:00Z", "count_points": 2, "latitude": 50.31797, "longitude": 35.31844, "city": "Huty", "images": []}, {"id": 402530, "min_date": "2018-10-16T10:12:00Z", "max_date": "2018-10-16T10:12:00Z", "count_points": 1, "latitude": 49.52582, "longitude": 35.26535, "city": "Varvarivka", "images": []}, {"id": 402531, "min_date": "2018-10-16T10:12:00Z", "max_date": "2018-10-16T11:35:00Z", "count_points": 4, "latitude": 50.89174, "longitude": 34.04095, "city": "Terny", "images": []}, {"id": 402532, "min_date": "2018-10-16T10:12:00Z", "max_date": "2018-10-16T10:12:00Z", "count_points": 1, "latitude": 49.20748, "longitude": 34.48667, "city": "Novi Sanzhary", "images": []}, {"id": 402533, "min_date": "2018-10-16T10:12:00Z", "max_date": "2018-10-16T09:50:00Z", "count_points": 5, "latitude": 50.35663, "longitude": 26.87157, "city": "Slavuta", "images": []}, {"id": 402534, "min_date": "2018-10-16T10:12:00Z", "max_date": "2018-10-16T09:56:00Z", "count_points": 8, "latitude": 49.98601, "longitude": 35.28312, "city": "Krasnokuts\u2019k", "images": []}, {"id": 402535, "min_date": "2018-10-16T10:12:00Z", "max_date": "2018-10-16T10:12:00Z", "count_points": 1, "latitude": 49.27491, "longitude": 33.54733, "city": "Kremenchuk", "images": []}, {"id": 402536, "min_date": "2018-10-16T10:12:00Z", "max_date": "2018-10-16T09:50:00Z", "count_points": 4, "latitude": 49.2609, "longitude": 33.3393, "city": "Hlobyne", "images": []}, {"id": 402537, "min_date": "2018-10-16T10:12:00Z", "max_date": "2018-10-16T10:12:00Z", "count_points": 1, "latitude": 51.4124, "longitude": 25.87693, "city": "Volodymyrets\u2019", "images": []}, {"id": 402538, "min_date": "2018-10-16T10:12:00Z", "max_date": "2018-10-16T10:12:00Z", "count_points": 1, "latitude": 51.13842, "longitude": 26.86221, "city": "Berezne", "images": []}, {"id": 402539, "min_date": "2018-10-16T10:12:00Z", "max_date": "2018-10-16T10:12:00Z", "count_points": 1, "latitude": 47.81944, "longitude": 29.30751, "city": "Slobidka", "images": []}, {"id": 402540, "min_date": "2018-10-16T10:12:00Z", "max_date": "2018-10-16T09:56:00Z", "count_points": 13, "latitude": 47.85599, "longitude": 29.26265, "city": "Slobidka", "images": []}, {"id": 402541, "min_date": "2018-10-16T10:12:00Z", "max_date": "2018-10-16T09:56:00Z", "count_points": 4, "latitude": 48.75415, "longitude": 33.98276, "city": "Lykhivka", "images": []}, {"id": 402542, "min_date": "2018-10-16T10:12:00Z", "max_date": "2018-10-16T10:12:00Z", "count_points": 1, "latitude": 49.64841, "longitude": 25.84104, "city": "Zbarazh", "images": []}, {"id": 402543, "min_date": "2018-10-16T10:12:00Z", "max_date": "2018-10-16T11:54:00Z", "count_points": 2, "latitude": 49.62067, "longitude": 25.46402, "city": "Ozerna", "images": []}, {"id": 402544, "min_date": "2018-10-16T10:12:00Z", "max_date": "2018-10-19T10:54:00Z", "count_points": 3, "latitude": 50.02447, "longitude": 33.28922, "city": "Romodan", "images": []}, {"id": 402545, "min_date": "2018-10-16T10:12:00Z", "max_date": "2018-10-18T09:38:00Z", "count_points": 5, "latitude": 49.69661, "longitude": 33.58419, "city": "Velyka Bahachka", "images": []}, {"id": 402546, "min_date": "2018-10-16T10:12:00Z", "max_date": "2018-10-16T10:12:00Z", "count_points": 1, "latitude": 48.11395, "longitude": 29.85608, "city": "Peschana", "images": []}, {"id": 402547, "min_date": "2018-10-16T10:12:00Z", "max_date": "2018-10-19T10:27:00Z", "count_points": 6, "latitude": 48.50683, "longitude": 35.2707, "city": "Novomoskovs\u2019k", "images": []}, {"id": 402548, "min_date": "2018-10-16T10:12:00Z", "max_date": "2018-10-16T10:12:00Z", "count_points": 1, "latitude": 50.41008, "longitude": 31.95672, "city": "Chernyakhivka", "images": []}, {"id": 402549, "min_date": "2018-10-16T10:12:00Z", "max_date": "2018-10-16T10:12:00Z", "count_points": 1, "latitude": 48.04662, "longitude": 29.9403, "city": "Savran", "images": []}, {"id": 402550, "min_date": "2018-10-16T10:12:00Z", "max_date": "2018-10-16T10:12:00Z", "count_points": 1, "latitude": 48.14695, "longitude": 22.8973, "city": "Oleshnyk", "images": []}, {"id": 402551, "min_date": "2018-10-16T10:12:00Z", "max_date": "2018-10-18T11:18:00Z", "count_points": 3, "latitude": 49.22104, "longitude": 35.11611, "city": "Zachepylivka", "images": []}, {"id": 402552, "min_date": "2018-10-16T10:12:00Z", "max_date": "2018-10-16T09:50:00Z", "count_points": 2, "latitude": 49.73709, "longitude": 24.35725, "city": "Verkhnyaya Belka", "images": []}, {"id": 402553, "min_date": "2018-10-16T10:12:00Z", "max_date": "2018-10-16T11:54:00Z", "count_points": 3, "latitude": 46.68722, "longitude": 32.12858, "city": "Stanislav", "images": []}, {"id": 402554, "min_date": "2018-10-16T10:12:00Z", "max_date": "2018-10-20T11:10:00Z", "count_points": 28, "latitude": 49.05628, "longitude": 35.19109, "city": "Zachepylivka", "images": []}, {"id": 402555, "min_date": "2018-10-16T10:12:00Z", "max_date": "2018-10-16T10:12:00Z", "count_points": 1, "latitude": 49.93908, "longitude": 37.559, "city": "Dvorichna", "images": []}, {"id": 402556, "min_date": "2018-10-16T10:12:00Z", "max_date": "2018-10-21T10:18:00Z", "count_points": 7, "latitude": 48.78148, "longitude": 34.87334, "city": "Mahdalynivka", "images": []}, {"id": 402557, "min_date": "2018-10-16T10:12:00Z", "max_date": "2018-10-19T10:54:00Z", "count_points": 2, "latitude": 47.30996, "longitude": 37.55382, "city": "Staryy Krym", "images": []}, {"id": 402558, "min_date": "2018-10-16T10:12:00Z", "max_date": "2018-10-17T10:39:00Z", "count_points": 3, "latitude": 50.20552, "longitude": 34.2036, "city": "Zin\u2019kiv", "images": []}, {"id": 402559, "min_date": "2018-10-16T10:12:00Z", "max_date": "2018-10-16T10:12:00Z", "count_points": 1, "latitude": 47.90904, "longitude": 37.47762, "city": "Mareyka", "images": []}, {"id": 402560, "min_date": "2018-10-16T10:12:00Z", "max_date": "2018-10-16T10:12:00Z", "count_points": 2, "latitude": 47.58859, "longitude": 37.44664, "city": "Volnovakha", "images": []}, {"id": 402561, "min_date": "2018-10-16T10:12:00Z", "max_date": "2018-10-16T09:56:00Z", "count_points": 3, "latitude": 47.65452, "longitude": 37.86822, "city": "Starobesheve", "images": []}, {"id": 402562, "min_date": "2018-10-16T10:12:00Z", "max_date": "2018-10-18T11:23:00Z", "count_points": 4, "latitude": 51.09982, "longitude": 31.25096, "city": "Olyshivka", "images": [{"image_url": "402562.jpg", "timestamp": "2018-10-18T11:23:00Z"}]}, {"id": 402563, "min_date": "2018-10-16T10:12:00Z", "max_date": "2018-10-16T08:12:00Z", "count_points": 3, "latitude": 47.52445, "longitude": 38.02126, "city": "Tel\u2019manove", "images": []}, {"id": 402564, "min_date": "2018-10-16T10:12:00Z", "max_date": "2018-10-16T10:12:00Z", "count_points": 1, "latitude": 47.75952, "longitude": 38.16433, "city": "Starobesheve", "images": []}, {"id": 402565, "min_date": "2018-10-16T10:12:00Z", "max_date": "2018-10-16T10:12:00Z", "count_points": 2, "latitude": 47.75573, "longitude": 38.51778, "city": "Amvrosiyivka", "images": []}, {"id": 402566, "min_date": "2018-10-16T10:12:00Z", "max_date": "2018-10-19T10:27:00Z", "count_points": 28, "latitude": 49.42107, "longitude": 35.33346, "city": "Krasnohrad", "images": []}, {"id": 402567, "min_date": "2018-10-16T10:12:00Z", "max_date": "2018-10-17T11:36:00Z", "count_points": 3, "latitude": 48.92506, "longitude": 34.55844, "city": "Tsarychanka", "images": []}, {"id": 402568, "min_date": "2018-10-16T10:12:00Z", "max_date": "2018-10-16T09:56:00Z", "count_points": 4, "latitude": 49.40208, "longitude": 34.46911, "city": "Novi Sanzhary", "images": []}, {"id": 402569, "min_date": "2018-10-16T10:12:00Z", "max_date": "2018-10-16T11:35:00Z", "count_points": 6, "latitude": 50.78829, "longitude": 33.95251, "city": "Nedryhayliv", "images": []}, {"id": 402570, "min_date": "2018-10-16T10:12:00Z", "max_date": "2018-10-16T10:12:00Z", "count_points": 4, "latitude": 49.6944, "longitude": 32.99199, "city": "Semenivka", "images": []}, {"id": 402571, "min_date": "2018-10-16T10:12:00Z", "max_date": "2018-10-16T09:56:00Z", "count_points": 3, "latitude": 48.90059, "longitude": 39.04382, "city": "Novoaydar", "images": []}, {"id": 402572, "min_date": "2018-10-16T10:12:00Z", "max_date": "2018-10-16T10:12:00Z", "count_points": 1, "latitude": 50.58866, "longitude": 31.73479, "city": "Zgurovka", "images": []}, {"id": 402573, "min_date": "2018-10-16T10:12:00Z", "max_date": "2018-10-19T10:27:00Z", "count_points": 3, "latitude": 48.59345, "longitude": 35.15855, "city": "Pidhorodne", "images": []}, {"id": 402574, "min_date": "2018-10-16T10:12:00Z", "max_date": "2018-10-16T10:12:00Z", "count_points": 2, "latitude": 49.01775, "longitude": 33.82995, "city": "Horishni Plavni", "images": []}, {"id": 402575, "min_date": "2018-10-16T10:12:00Z", "max_date": "2018-10-16T10:12:00Z", "count_points": 1, "latitude": 49.6924, "longitude": 35.34275, "city": "Kolomak", "images": []}, {"id": 402576, "min_date": "2018-10-16T10:12:00Z", "max_date": "2018-10-16T09:56:00Z", "count_points": 2, "latitude": 48.14821, "longitude": 39.26665, "city": "Millerovo", "images": []}, {"id": 402577, "min_date": "2018-10-16T10:12:00Z", "max_date": "2018-10-16T11:34:00Z", "count_points": 7, "latitude": 49.6734, "longitude": 34.30083, "city": "Reshetylivka", "images": []}, {"id": 402578, "min_date": "2018-10-16T10:12:00Z", "max_date": "2018-10-16T10:12:00Z", "count_points": 1, "latitude": 49.0152, "longitude": 39.02343, "city": "Novoaydar", "images": []}, {"id": 402579, "min_date": "2018-10-16T10:12:00Z", "max_date": "2018-10-16T10:12:00Z", "count_points": 1, "latitude": 50.15263, "longitude": 33.93911, "city": "Velyki Sorochyntsi", "images": []}, {"id": 402580, "min_date": "2018-10-16T10:12:00Z", "max_date": "2018-10-16T10:12:00Z", "count_points": 1, "latitude": 50.22449, "longitude": 33.8635, "city": "Komyshnya", "images": []}, {"id": 402581, "min_date": "2018-10-16T10:12:00Z", "max_date": "2018-10-16T10:12:00Z", "count_points": 1, "latitude": 48.71071, "longitude": 33.61084, "city": "Onufriyivka", "images": []}, {"id": 402582, "min_date": "2018-10-16T10:12:00Z", "max_date": "2018-10-16T10:12:00Z", "count_points": 1, "latitude": 49.32557, "longitude": 34.05928, "city": "Lutovynivka", "images": []}, {"id": 402583, "min_date": "2018-10-16T10:12:00Z", "max_date": "2018-10-16T10:12:00Z", "count_points": 1, "latitude": 49.96577, "longitude": 33.29087, "city": "Romodan", "images": []}, {"id": 402584, "min_date": "2018-10-16T10:12:00Z", "max_date": "2018-10-16T10:12:00Z", "count_points": 1, "latitude": 49.0205, "longitude": 34.57917, "city": "Tsarychanka", "images": []}, {"id": 402585, "min_date": "2018-10-16T10:12:00Z", "max_date": "2018-10-16T10:12:00Z", "count_points": 1, "latitude": 49.09345, "longitude": 34.68505, "city": "Hupalivka", "images": []}, {"id": 402586, "min_date": "2018-10-16T10:12:00Z", "max_date": "2018-10-16T10:12:00Z", "count_points": 1, "latitude": 49.33597, "longitude": 35.23674, "city": "Zachepylivka", "images": []}, {"id": 402587, "min_date": "2018-10-16T10:12:00Z", "max_date": "2018-10-16T10:12:00Z", "count_points": 1, "latitude": 50.44472, "longitude": 31.84314, "city": "Zgurovka", "images": []}, {"id": 402588, "min_date": "2018-10-16T10:12:00Z", "max_date": "2018-10-17T08:55:00Z", "count_points": 12, "latitude": 47.98455, "longitude": 29.11751, "city": "Kodyma", "images": []}, {"id": 402589, "min_date": "2018-10-16T10:12:00Z", "max_date": "2018-10-16T09:56:00Z", "count_points": 29, "latitude": 48.7663, "longitude": 33.29588, "city": "Pavlysh", "images": []}, {"id": 402590, "min_date": "2018-10-16T10:12:00Z", "max_date": "2018-10-16T10:12:00Z", "count_points": 1, "latitude": 48.153, "longitude": 30.81351, "city": "Pidhorodna", "images": []}, {"id": 402591, "min_date": "2018-10-16T10:12:00Z", "max_date": "2018-10-20T10:36:00Z", "count_points": 2, "latitude": 48.73761, "longitude": 34.71706, "city": "Petrykivka", "images": []}, {"id": 402592, "min_date": "2018-10-16T10:12:00Z", "max_date": "2018-10-20T11:10:00Z", "count_points": 10, "latitude": 48.47162, "longitude": 29.76463, "city": "Hayvoron", "images": []}, {"id": 402593, "min_date": "2018-10-16T10:12:00Z", "max_date": "2018-10-16T09:56:00Z", "count_points": 4, "latitude": 49.54219, "longitude": 34.7124, "city": "Poltava", "images": []}, {"id": 402594, "min_date": "2018-10-16T10:12:00Z", "max_date": "2018-10-16T10:12:00Z", "count_points": 3, "latitude": 50.71977, "longitude": 31.37911, "city": "Bobrovytsya", "images": []}, {"id": 402595, "min_date": "2018-10-16T10:12:00Z", "max_date": "2018-10-16T10:12:00Z", "count_points": 1, "latitude": 48.07393, "longitude": 29.25736, "city": "Kodyma", "images": []}, {"id": 402596, "min_date": "2018-10-16T10:12:00Z", "max_date": "2018-10-16T10:12:00Z", "count_points": 1, "latitude": 49.38403, "longitude": 34.69973, "city": "Mashivka", "images": []}, {"id": 402597, "min_date": "2018-10-16T10:12:00Z", "max_date": "2018-10-16T11:34:00Z", "count_points": 4, "latitude": 48.50325, "longitude": 29.13224, "city": "Trostyanets\u2019", "images": [{"image_url": "402597.jpg", "timestamp": "2018-10-16T11:34:00Z"}]}, {"id": 402598, "min_date": "2018-10-16T10:12:00Z", "max_date": "2018-10-16T10:12:00Z", "count_points": 3, "latitude": 47.77639, "longitude": 30.19816, "city": "Lyubashivka", "images": []}, {"id": 402599, "min_date": "2018-10-16T10:12:00Z", "max_date": "2018-10-16T11:34:00Z", "count_points": 10, "latitude": 49.95415, "longitude": 35.17541, "city": "Krasnokuts\u2019k", "images": []}, {"id": 402600, "min_date": "2018-10-16T10:12:00Z", "max_date": "2018-10-18T11:22:00Z", "count_points": 4, "latitude": 48.23326, "longitude": 31.26393, "city": "Pomichna", "images": []}, {"id": 402601, "min_date": "2018-10-16T10:12:00Z", "max_date": "2018-10-16T10:12:00Z", "count_points": 1, "latitude": 50.62667, "longitude": 32.89158, "city": "Sribne", "images": []}, {"id": 402602, "min_date": "2018-10-16T10:12:00Z", "max_date": "2018-10-16T10:12:00Z", "count_points": 1, "latitude": 48.92685, "longitude": 34.73268, "city": "Mahdalynivka", "images": []}, {"id": 402603, "min_date": "2018-10-16T10:12:00Z", "max_date": "2018-10-16T10:12:00Z", "count_points": 1, "latitude": 49.93678, "longitude": 35.13497, "city": "Krasnokuts\u2019k", "images": []}, {"id": 402604, "min_date": "2018-10-16T10:12:00Z", "max_date": "2018-10-16T10:12:00Z", "count_points": 1, "latitude": 48.24415, "longitude": 30.23869, "city": "Blahovishchens\u2019ke", "images": []}, {"id": 402605, "min_date": "2018-10-16T10:12:00Z", "max_date": "2018-10-16T09:56:00Z", "count_points": 6, "latitude": 49.8883, "longitude": 35.06686, "city": "Krasnokuts\u2019k", "images": []}, {"id": 402606, "min_date": "2018-10-16T10:12:00Z", "max_date": "2018-10-16T10:12:00Z", "count_points": 1, "latitude": 49.98245, "longitude": 34.32067, "city": "Zin\u2019kiv", "images": []}, {"id": 402607, "min_date": "2018-10-16T10:12:00Z", "max_date": "2018-10-19T08:42:00Z", "count_points": 9, "latitude": 50.50692, "longitude": 33.61248, "city": "Lypova Dolyna", "images": []}, {"id": 402608, "min_date": "2018-10-16T10:12:00Z", "max_date": "2018-10-16T10:12:00Z", "count_points": 1, "latitude": 48.3929, "longitude": 31.07371, "city": "Lypnyazhka", "images": []}, {"id": 402609, "min_date": "2018-10-16T10:12:00Z", "max_date": "2018-10-20T11:09:00Z", "count_points": 14, "latitude": 47.80403, "longitude": 29.95292, "city": "Ananyiv Pershyi", "images": []}, {"id": 402610, "min_date": "2018-10-16T10:12:00Z", "max_date": "2018-10-19T10:54:00Z", "count_points": 3, "latitude": 48.47586, "longitude": 35.4966, "city": "Synel\u2019nykove", "images": []}, {"id": 402611, "min_date": "2018-10-16T10:12:00Z", "max_date": "2018-10-15T09:08:00Z", "count_points": 3, "latitude": 47.88325, "longitude": 31.26233, "city": "Arbuzynka", "images": []}, {"id": 402612, "min_date": "2018-10-16T10:12:00Z", "max_date": "2018-10-16T10:12:00Z", "count_points": 1, "latitude": 48.21601, "longitude": 32.10718, "city": "Kompaniyivka", "images": []}, {"id": 402613, "min_date": "2018-10-16T10:12:00Z", "max_date": "2018-10-16T10:12:00Z", "count_points": 1, "latitude": 47.68624, "longitude": 29.66031, "city": "Podil\u2019s\u2019k", "images": []}, {"id": 402614, "min_date": "2018-10-16T10:12:00Z", "max_date": "2018-10-16T10:12:00Z", "count_points": 1, "latitude": 48.45307, "longitude": 35.42998, "city": "Synel\u2019nykove", "images": []}, {"id": 402615, "min_date": "2018-10-16T10:12:00Z", "max_date": "2018-10-16T10:12:00Z", "count_points": 1, "latitude": 47.93775, "longitude": 32.43486, "city": "Ustynivka", "images": []}, {"id": 402616, "min_date": "2018-10-16T10:12:00Z", "max_date": "2018-10-16T10:12:00Z", "count_points": 1, "latitude": 48.03734, "longitude": 38.08255, "city": "Khartsyz\u2019k", "images": []}, {"id": 402617, "min_date": "2018-10-16T10:12:00Z", "max_date": "2018-10-18T09:36:00Z", "count_points": 2, "latitude": 48.32627, "longitude": 37.81954, "city": "Shcherbynivka", "images": []}, {"id": 402618, "min_date": "2018-10-16T10:12:00Z", "max_date": "2018-10-16T10:12:00Z", "count_points": 1, "latitude": 49.56571, "longitude": 38.52137, "city": "Pavlivka", "images": []}, {"id": 402619, "min_date": "2018-10-16T10:12:00Z", "max_date": "2018-10-16T10:12:00Z", "count_points": 1, "latitude": 49.47084, "longitude": 33.84491, "city": "Lutovynivka", "images": []}, {"id": 402620, "min_date": "2018-10-16T10:12:00Z", "max_date": "2018-10-16T10:12:00Z", "count_points": 2, "latitude": 48.94255, "longitude": 34.20414, "city": "Kobelyaky", "images": []}, {"id": 402621, "min_date": "2018-10-16T10:12:00Z", "max_date": "2018-10-16T10:12:00Z", "count_points": 1, "latitude": 48.22061, "longitude": 38.07959, "city": "Krinichnaya", "images": []}, {"id": 402622, "min_date": "2018-10-16T10:12:00Z", "max_date": "2018-10-17T10:39:00Z", "count_points": 6, "latitude": 49.20184, "longitude": 33.90779, "city": "Lutovynivka", "images": []}, {"id": 402623, "min_date": "2018-10-16T10:12:00Z", "max_date": "2018-10-19T10:27:00Z", "count_points": 5, "latitude": 49.37194, "longitude": 33.93618, "city": "Lutovynivka", "images": []}, {"id": 402624, "min_date": "2018-10-16T10:12:00Z", "max_date": "2018-10-16T10:12:00Z", "count_points": 2, "latitude": 48.06089, "longitude": 37.99423, "city": "Makiyivka", "images": []}, {"id": 402625, "min_date": "2018-10-16T10:12:00Z", "max_date": "2018-10-20T10:36:00Z", "count_points": 8, "latitude": 49.98332, "longitude": 33.76828, "city": "Myrhorod", "images": []}, {"id": 402626, "min_date": "2018-10-16T10:12:00Z", "max_date": "2018-10-16T10:12:00Z", "count_points": 1, "latitude": 50.02736, "longitude": 33.72011, "city": "Myrhorod", "images": []}, {"id": 402627, "min_date": "2018-10-16T10:12:00Z", "max_date": "2018-10-16T10:12:00Z", "count_points": 1, "latitude": 49.48329, "longitude": 38.20133, "city": "Svatove", "images": []}, {"id": 402628, "min_date": "2018-10-16T10:12:00Z", "max_date": "2018-10-17T10:39:00Z", "count_points": 6, "latitude": 49.29023, "longitude": 38.45501, "city": "Rubizhne", "images": []}, {"id": 402629, "min_date": "2018-10-16T10:12:00Z", "max_date": "2018-10-16T10:12:00Z", "count_points": 1, "latitude": 49.78732, "longitude": 33.93515, "city": "Shyshaky", "images": []}, {"id": 402630, "min_date": "2018-10-16T10:12:00Z", "max_date": "2018-10-16T10:12:00Z", "count_points": 1, "latitude": 48.353, "longitude": 38.30197, "city": "Vuhlehirs\u2019k", "images": []}, {"id": 402631, "min_date": "2018-10-16T10:12:00Z", "max_date": "2018-10-16T10:12:00Z", "count_points": 1, "latitude": 48.08475, "longitude": 38.58212, "city": "Torez", "images": []}, {"id": 402632, "min_date": "2018-10-16T10:12:00Z", "max_date": "2018-10-16T09:56:00Z", "count_points": 5, "latitude": 47.99178, "longitude": 38.06439, "city": "Khartsyz\u2019k", "images": []}, {"id": 402633, "min_date": "2018-10-16T10:12:00Z", "max_date": "2018-10-16T10:12:00Z", "count_points": 2, "latitude": 47.97834, "longitude": 29.60867, "city": "Balta", "images": []}, {"id": 402634, "min_date": "2018-10-16T10:12:00Z", "max_date": "2018-10-16T10:12:00Z", "count_points": 1, "latitude": 48.31107, "longitude": 35.12688, "city": "Kaydaki", "images": []}, {"id": 402635, "min_date": "2018-10-16T10:12:00Z", "max_date": "2018-10-18T11:12:00Z", "count_points": 2, "latitude": 48.16696, "longitude": 30.50477, "city": "Pobugskoye", "images": []}, {"id": 402636, "min_date": "2018-10-16T10:12:00Z", "max_date": "2018-10-16T10:12:00Z", "count_points": 1, "latitude": 48.48702, "longitude": 34.30967, "city": "Novomykolayivka", "images": []}, {"id": 402637, "min_date": "2018-10-16T10:12:00Z", "max_date": "2018-10-16T10:12:00Z", "count_points": 2, "latitude": 48.07808, "longitude": 32.92374, "city": "Dolynska", "images": []}, {"id": 402638, "min_date": "2018-10-16T10:12:00Z", "max_date": "2018-10-16T11:34:00Z", "count_points": 3, "latitude": 48.42609, "longitude": 32.27257, "city": "Kropyvnytskyi", "images": []}, {"id": 402639, "min_date": "2018-10-16T10:12:00Z", "max_date": "2018-10-16T10:12:00Z", "count_points": 1, "latitude": 51.87749, "longitude": 25.7472, "city": "Kuznetsovs\u2019k", "images": []}, {"id": 402640, "min_date": "2018-10-16T10:12:00Z", "max_date": "2018-10-16T10:12:00Z", "count_points": 1, "latitude": 48.65245, "longitude": 37.66928, "city": "Druzhkivka", "images": []}, {"id": 402641, "min_date": "2018-10-16T10:12:00Z", "max_date": "2018-10-16T08:12:00Z", "count_points": 2, "latitude": 48.18432, "longitude": 34.64865, "city": "Surs\u2019ko-Mykhaylivka", "images": []}, {"id": 402642, "min_date": "2018-10-16T10:12:00Z", "max_date": "2018-10-20T11:09:00Z", "count_points": 5, "latitude": 48.29533, "longitude": 34.37518, "city": "Krynychky", "images": []}, {"id": 402643, "min_date": "2018-10-16T10:12:00Z", "max_date": "2018-10-16T10:12:00Z", "count_points": 1, "latitude": 48.28303, "longitude": 31.91193, "city": "Rivne", "images": []}, {"id": 402644, "min_date": "2018-10-16T10:12:00Z", "max_date": "2018-10-16T10:12:00Z", "count_points": 1, "latitude": 48.51415, "longitude": 33.47582, "city": "Zhovti Vody", "images": []}, {"id": 402645, "min_date": "2018-10-16T10:12:00Z", "max_date": "2018-10-16T10:12:00Z", "count_points": 1, "latitude": 48.4976, "longitude": 35.64577, "city": "Synel\u2019nykove", "images": []}, {"id": 402646, "min_date": "2018-10-16T10:12:00Z", "max_date": "2018-10-16T10:12:00Z", "count_points": 2, "latitude": 49.2481, "longitude": 34.40767, "city": "Novi Sanzhary", "images": []}, {"id": 402647, "min_date": "2018-10-16T10:12:00Z", "max_date": "2018-10-16T10:12:00Z", "count_points": 1, "latitude": 46.36969, "longitude": 34.37875, "city": "Novotroyits\u2019ke", "images": []}, {"id": 402648, "min_date": "2018-10-16T10:12:00Z", "max_date": "2018-10-16T10:12:00Z", "count_points": 1, "latitude": 50.86681, "longitude": 34.97826, "city": "Verkhnya Syrovatka", "images": []}, {"id": 402649, "min_date": "2018-10-16T10:12:00Z", "max_date": "2018-10-15T09:08:00Z", "count_points": 2, "latitude": 46.19631, "longitude": 32.28885, "city": "Novofedorivka", "images": []}, {"id": 402650, "min_date": "2018-10-16T10:12:00Z", "max_date": "2018-10-16T10:12:00Z", "count_points": 1, "latitude": 48.36327, "longitude": 22.33984, "city": "Batiovo", "images": []}, {"id": 402651, "min_date": "2018-10-16T10:12:00Z", "max_date": "2018-10-16T10:12:00Z", "count_points": 1, "latitude": 47.61848, "longitude": 30.18805, "city": "Lyubashivka", "images": []}, {"id": 402652, "min_date": "2018-10-16T10:12:00Z", "max_date": "2018-10-19T10:27:00Z", "count_points": 38, "latitude": 49.5822, "longitude": 35.03582, "city": "Karlivka", "images": []}, {"id": 402653, "min_date": "2018-10-16T10:12:00Z", "max_date": "2018-10-16T10:12:00Z", "count_points": 2, "latitude": 48.49591, "longitude": 28.42087, "city": "Klembivka", "images": []}, {"id": 402654, "min_date": "2018-10-16T10:12:00Z", "max_date": "2018-10-16T10:12:00Z", "count_points": 1, "latitude": 48.45713, "longitude": 22.20615, "city": "Chop", "images": []}, {"id": 402655, "min_date": "2018-10-16T10:12:00Z", "max_date": "2018-10-18T09:36:00Z", "count_points": 3, "latitude": 48.35237, "longitude": 28.60231, "city": "Klembivka", "images": []}, {"id": 402656, "min_date": "2018-10-16T10:12:00Z", "max_date": "2018-10-16T10:12:00Z", "count_points": 1, "latitude": 47.08044, "longitude": 29.84546, "city": "Velyka Mykhaylivka", "images": []}, {"id": 402657, "min_date": "2018-10-16T10:12:00Z", "max_date": "2018-10-16T11:34:00Z", "count_points": 2, "latitude": 48.58704, "longitude": 26.2903, "city": "Klishkivtsi", "images": []}, {"id": 402658, "min_date": "2018-10-16T10:12:00Z", "max_date": "2018-10-16T10:12:00Z", "count_points": 1, "latitude": 50.98833, "longitude": 34.59275, "city": "Sumy", "images": []}, {"id": 402659, "min_date": "2018-10-16T10:12:00Z", "max_date": "2018-10-16T10:12:00Z", "count_points": 1, "latitude": 50.21349, "longitude": 34.3961, "city": "Zin\u2019kiv", "images": []}, {"id": 402660, "min_date": "2018-10-16T10:12:00Z", "max_date": "2018-10-16T10:12:00Z", "count_points": 1, "latitude": 49.00858, "longitude": 26.76068, "city": "Dunayivtsi", "images": []}, {"id": 402661, "min_date": "2018-10-16T10:12:00Z", "max_date": "2018-10-16T10:12:00Z", "count_points": 1, "latitude": 48.96938, "longitude": 26.80065, "city": "Dunayivtsi", "images": []},