[{"id": 396487, "min_date": "2018-08-20T01:36:00Z", "max_date": "2018-08-20T01:36:00Z", "count_points": 1, "latitude": 48.73652, "longitude": 22.62219, "city": "Perechyn", "images": []}, {"id": 396488, "min_date": "2018-08-20T09:42:00Z", "max_date": "2018-08-20T09:42:00Z", "count_points": 1, "latitude": 48.99191, "longitude": 26.80827, "city": "Dunayivtsi", "images": []}, {"id": 396489, "min_date": "2018-08-20T09:42:00Z", "max_date": "2018-08-20T09:42:00Z", "count_points": 2, "latitude": 48.62764, "longitude": 35.3629, "city": "Melioratyvne", "images": []}, {"id": 396490, "min_date": "2018-08-20T09:42:00Z", "max_date": "2018-08-20T09:57:00Z", "count_points": 5, "latitude": 46.31544, "longitude": 31.93062, "city": "Stanislav", "images": []}, {"id": 396491, "min_date": "2018-08-20T09:42:00Z", "max_date": "2018-08-24T11:17:00Z", "count_points": 19, "latitude": 49.0334, "longitude": 26.02318, "city": "Kopychyntsi", "images": []}, {"id": 396492, "min_date": "2018-08-20T09:42:00Z", "max_date": "2018-08-20T09:57:00Z", "count_points": 6, "latitude": 47.56511, "longitude": 30.34764, "city": "Shyryayeve", "images": []}, {"id": 396493, "min_date": "2018-08-20T09:42:00Z", "max_date": "2018-08-20T09:42:00Z", "count_points": 2, "latitude": 47.57076, "longitude": 37.91813, "city": "Tel\u2019manove", "images": []}, {"id": 396494, "min_date": "2018-08-20T09:42:00Z", "max_date": "2018-08-20T09:42:00Z", "count_points": 4, "latitude": 47.78202, "longitude": 31.41371, "city": "Arbuzynka", "images": []}, {"id": 396495, "min_date": "2018-08-20T09:42:00Z", "max_date": "2018-08-20T09:42:00Z", "count_points": 2, "latitude": 50.31927, "longitude": 24.99597, "city": "Berestechko", "images": []}, {"id": 396496, "min_date": "2018-08-20T09:42:00Z", "max_date": "2018-08-20T09:42:00Z", "count_points": 3, "latitude": 49.4291, "longitude": 37.04519, "city": "Savyntsi", "images": []}, {"id": 396497, "min_date": "2018-08-20T09:42:00Z", "max_date": "2018-08-20T08:18:00Z", "count_points": 2, "latitude": 50.12275, "longitude": 32.17344, "city": "Drabiv", "images": []}, {"id": 396498, "min_date": "2018-08-20T09:42:00Z", "max_date": "2018-08-20T09:42:00Z", "count_points": 1, "latitude": 48.6228, "longitude": 36.75605, "city": "Oleksandrivka", "images": []}, {"id": 396499, "min_date": "2018-08-20T09:42:00Z", "max_date": "2018-08-20T09:42:00Z", "count_points": 2, "latitude": 50.03332, "longitude": 30.04297, "city": "Chervona Motovylivka", "images": []}, {"id": 396500, "min_date": "2018-08-20T09:42:00Z", "max_date": "2018-08-23T08:49:00Z", "count_points": 18, "latitude": 48.10375, "longitude": 39.77878, "city": "Chervonopartyzans\u2019k", "images": []}, {"id": 396501, "min_date": "2018-08-20T09:42:00Z", "max_date": "2018-08-20T09:42:00Z", "count_points": 1, "latitude": 49.50538, "longitude": 31.76564, "city": "Moshny", "images": []}, {"id": 396502, "min_date": "2018-08-20T09:42:00Z", "max_date": "2018-08-20T09:42:00Z", "count_points": 1, "latitude": 49.78696, "longitude": 28.87866, "city": "Kozyatyn", "images": []}, {"id": 396503, "min_date": "2018-08-20T09:42:00Z", "max_date": "2018-08-20T09:42:00Z", "count_points": 1, "latitude": 48.67871, "longitude": 37.6266, "city": "Kramators\u2019k", "images": []}, {"id": 396504, "min_date": "2018-08-20T09:42:00Z", "max_date": "2018-08-20T09:42:00Z", "count_points": 1, "latitude": 49.42584, "longitude": 30.30502, "city": "Stavyshche", "images": []}, {"id": 396505, "min_date": "2018-08-20T09:42:00Z", "max_date": "2018-08-20T09:42:00Z", "count_points": 1, "latitude": 49.42143, "longitude": 33.16116, "city": "Hlobyne", "images": []}, {"id": 396506, "min_date": "2018-08-20T09:42:00Z", "max_date": "2018-08-20T09:42:00Z", "count_points": 2, "latitude": 48.62124, "longitude": 37.47974, "city": "Druzhkivka", "images": []}, {"id": 396507, "min_date": "2018-08-20T09:42:00Z", "max_date": "2018-08-20T08:19:00Z", "count_points": 5, "latitude": 47.98925, "longitude": 39.73073, "city": "Biryukove", "images": []}, {"id": 396508, "min_date": "2018-08-20T09:42:00Z", "max_date": "2018-08-20T09:42:00Z", "count_points": 2, "latitude": 45.13171, "longitude": 34.53479, "city": "Vishennoye", "images": []}, {"id": 396509, "min_date": "2018-08-20T09:42:00Z", "max_date": "2018-08-20T09:42:00Z", "count_points": 4, "latitude": 44.99617, "longitude": 34.23848, "city": "Mazanka", "images": []}, {"id": 396510, "min_date": "2018-08-20T09:42:00Z", "max_date": "2018-08-21T09:02:00Z", "count_points": 6, "latitude": 48.65901, "longitude": 38.34955, "city": "Popasna", "images": []}, {"id": 396511, "min_date": "2018-08-20T09:42:00Z", "max_date": "2018-08-23T00:36:00Z", "count_points": 9, "latitude": 49.65398, "longitude": 38.77232, "city": "Pavlivka", "images": []}, {"id": 396512, "min_date": "2018-08-20T09:42:00Z", "max_date": "2018-08-20T10:03:00Z", "count_points": 9, "latitude": 49.23829, "longitude": 37.73607, "city": "Borova", "images": []}, {"id": 396513, "min_date": "2018-08-20T09:42:00Z", "max_date": "2018-08-20T10:03:00Z", "count_points": 17, "latitude": 48.54123, "longitude": 37.95413, "city": "Artemivs\u2019k", "images": []}, {"id": 396514, "min_date": "2018-08-20T09:42:00Z", "max_date": "2018-08-20T10:02:00Z", "count_points": 7, "latitude": 47.86922, "longitude": 38.68441, "city": "Snizhne", "images": []}, {"id": 396515, "min_date": "2018-08-20T09:42:00Z", "max_date": "2018-08-20T10:04:00Z", "count_points": 4, "latitude": 50.68037, "longitude": 32.42795, "city": "Pryluky", "images": []}, {"id": 396516, "min_date": "2018-08-20T09:42:00Z", "max_date": "2018-08-20T09:42:00Z", "count_points": 1, "latitude": 50.65863, "longitude": 32.46445, "city": "Pryluky", "images": []}, {"id": 396517, "min_date": "2018-08-20T09:42:00Z", "max_date": "2018-08-20T09:42:00Z", "count_points": 1, "latitude": 49.44815, "longitude": 34.97295, "city": "Mashivka", "images": []}, {"id": 396518, "min_date": "2018-08-20T09:42:00Z", "max_date": "2018-08-21T10:46:00Z", "count_points": 15, "latitude": 49.41075, "longitude": 34.4679, "city": "Novi Sanzhary", "images": []}, {"id": 396519, "min_date": "2018-08-20T09:42:00Z", "max_date": "2018-08-20T09:42:00Z", "count_points": 2, "latitude": 50.9684, "longitude": 31.68046, "city": "Nosivka", "images": []}, {"id": 396520, "min_date": "2018-08-20T09:42:00Z", "max_date": "2018-08-23T10:34:00Z", "count_points": 12, "latitude": 50.5752, "longitude": 34.03937, "city": "Hadyach", "images": []}, {"id": 396521, "min_date": "2018-08-20T09:42:00Z", "max_date": "2018-08-20T09:42:00Z", "count_points": 1, "latitude": 49.51039, "longitude": 33.88285, "city": "Reshetylivka", "images": []}, {"id": 396522, "min_date": "2018-08-20T09:42:00Z", "max_date": "2018-08-20T09:42:00Z", "count_points": 1, "latitude": 50.91336, "longitude": 31.56187, "city": "Nosivka", "images": []}, {"id": 396523, "min_date": "2018-08-20T09:42:00Z", "max_date": "2018-08-20T09:57:00Z", "count_points": 7, "latitude": 49.00042, "longitude": 27.35696, "city": "Vinkivtsi", "images": []}, {"id": 396524, "min_date": "2018-08-20T09:42:00Z", "max_date": "2018-08-20T09:42:00Z", "count_points": 1, "latitude": 50.31824, "longitude": 31.30212, "city": "Baryshivka", "images": []}, {"id": 396525, "min_date": "2018-08-20T09:42:00Z", "max_date": "2018-08-20T09:42:00Z", "count_points": 2, "latitude": 48.48009, "longitude": 29.43085, "city": "Viytivka", "images": []}, {"id": 396526, "min_date": "2018-08-20T09:42:00Z", "max_date": "2018-08-23T10:33:00Z", "count_points": 3, "latitude": 47.37594, "longitude": 38.08545, "city": "Tel\u2019manove", "images": []}, {"id": 396527, "min_date": "2018-08-20T09:42:00Z", "max_date": "2018-08-20T11:24:00Z", "count_points": 7, "latitude": 51.77067, "longitude": 33.15314, "city": "Korop", "images": []}, {"id": 396528, "min_date": "2018-08-20T09:42:00Z", "max_date": "2018-08-20T10:03:00Z", "count_points": 2, "latitude": 49.87745, "longitude": 36.01291, "city": "Budy", "images": []}, {"id": 396529, "min_date": "2018-08-20T09:42:00Z", "max_date": "2018-08-25T19:46:00Z", "count_points": 37, "latitude": 47.12182, "longitude": 37.78326, "city": "Sartana", "images": []}, {"id": 396530, "min_date": "2018-08-20T09:42:00Z", "max_date": "2018-08-20T08:18:00Z", "count_points": 3, "latitude": 49.80627, "longitude": 36.77026, "city": "Malynivka", "images": []}, {"id": 396531, "min_date": "2018-08-20T09:42:00Z", "max_date": "2018-08-20T09:42:00Z", "count_points": 2, "latitude": 49.3316, "longitude": 37.16214, "city": "Savyntsi", "images": []}, {"id": 396532, "min_date": "2018-08-20T09:42:00Z", "max_date": "2018-08-20T09:42:00Z", "count_points": 1, "latitude": 49.23497, "longitude": 36.64434, "city": "Petrivs\u2019ke", "images": []}, {"id": 396533, "min_date": "2018-08-20T09:42:00Z", "max_date": "2018-08-20T10:02:00Z", "count_points": 3, "latitude": 47.0944, "longitude": 37.72517, "city": "Sartana", "images": []}, {"id": 396534, "min_date": "2018-08-20T09:42:00Z", "max_date": "2018-08-20T10:02:00Z", "count_points": 12, "latitude": 47.49115, "longitude": 37.70845, "city": "Volnovakha", "images": []}, {"id": 396535, "min_date": "2018-08-20T09:42:00Z", "max_date": "2018-08-20T10:03:00Z", "count_points": 4, "latitude": 48.52016, "longitude": 37.39087, "city": "Druzhkivka", "images": []}, {"id": 396536, "min_date": "2018-08-20T09:42:00Z", "max_date": "2018-08-23T10:33:00Z", "count_points": 12, "latitude": 45.71246, "longitude": 34.66756, "city": "Prostornoye", "images": []}, {"id": 396537, "min_date": "2018-08-20T09:42:00Z", "max_date": "2018-08-20T09:42:00Z", "count_points": 2, "latitude": 48.83397, "longitude": 26.87912, "city": "Dunaivtsi", "images": []}, {"id": 396538, "min_date": "2018-08-20T09:42:00Z", "max_date": "2018-08-20T10:04:00Z", "count_points": 10, "latitude": 51.23002, "longitude": 32.85715, "city": "Bakhmach", "images": []}, {"id": 396539, "min_date": "2018-08-20T09:42:00Z", "max_date": "2018-08-20T10:03:00Z", "count_points": 3, "latitude": 49.03008, "longitude": 37.55694, "city": "Svyatogorsk", "images": []}, {"id": 396540, "min_date": "2018-08-20T09:42:00Z", "max_date": "2018-08-20T09:42:00Z", "count_points": 2, "latitude": 47.57419, "longitude": 37.81473, "city": "Dokuchayevs\u2019k", "images": []}, {"id": 396541, "min_date": "2018-08-20T09:42:00Z", "max_date": "2018-08-20T09:42:00Z", "count_points": 6, "latitude": 47.77351, "longitude": 33.7103, "city": "Apostolove", "images": []}, {"id": 396542, "min_date": "2018-08-20T09:42:00Z", "max_date": "2018-08-20T09:42:00Z", "count_points": 7, "latitude": 47.99644, "longitude": 34.04617, "city": "Sofiyivka", "images": []}, {"id": 396543, "min_date": "2018-08-20T09:42:00Z", "max_date": "2018-08-20T10:02:00Z", "count_points": 2, "latitude": 46.71201, "longitude": 36.33687, "city": "Prymors\u2019k", "images": []}, {"id": 396544, "min_date": "2018-08-20T09:42:00Z", "max_date": "2018-08-20T08:19:00Z", "count_points": 8, "latitude": 46.67372, "longitude": 33.65885, "city": "Lyubymivka", "images": []}, {"id": 396545, "min_date": "2018-08-20T09:42:00Z", "max_date": "2018-08-20T09:42:00Z", "count_points": 1, "latitude": 47.67599, "longitude": 34.05576, "city": "Ordzhonikidze", "images": []}, {"id": 396546, "min_date": "2018-08-20T09:42:00Z", "max_date": "2018-08-20T09:42:00Z", "count_points": 2, "latitude": 47.92984, "longitude": 36.90373, "city": "Velyka Novosilka", "images": []}, {"id": 396547, "min_date": "2018-08-20T09:42:00Z", "max_date": "2018-08-20T09:42:00Z", "count_points": 1, "latitude": 48.08019, "longitude": 37.05847, "city": "Krasnoarmiys\u2019k", "images": []}, {"id": 396548, "min_date": "2018-08-20T09:42:00Z", "max_date": "2018-08-20T09:42:00Z", "count_points": 1, "latitude": 48.52829, "longitude": 37.61133, "city": "Kostyantynivka", "images": []}, {"id": 396549, "min_date": "2018-08-20T09:42:00Z", "max_date": "2018-08-20T08:19:00Z", "count_points": 4, "latitude": 49.76346, "longitude": 33.53344, "city": "Velyka Bahachka", "images": []}, {"id": 396550, "min_date": "2018-08-20T09:42:00Z", "max_date": "2018-08-25T10:21:00Z", "count_points": 2, "latitude": 47.81056, "longitude": 31.16155, "city": "Yuzhnoukrainsk", "images": []}, {"id": 396551, "min_date": "2018-08-20T09:42:00Z", "max_date": "2018-08-23T08:50:00Z", "count_points": 14, "latitude": 46.65591, "longitude": 35.62235, "city": "Pryazovs\u2019ke", "images": []}, {"id": 396552, "min_date": "2018-08-20T09:42:00Z", "max_date": "2018-08-24T09:32:00Z", "count_points": 3, "latitude": 49.29388, "longitude": 26.43503, "city": "Horodok", "images": []}, {"id": 396553, "min_date": "2018-08-20T09:42:00Z", "max_date": "2018-08-21T09:01:00Z", "count_points": 10, "latitude": 50.50966, "longitude": 34.2802, "city": "Lebedyn", "images": []}, {"id": 396554, "min_date": "2018-08-20T09:42:00Z", "max_date": "2018-08-23T10:33:00Z", "count_points": 46, "latitude": 45.76891, "longitude": 34.4608, "city": "Zarechnoye", "images": []}, {"id": 396555, "min_date": "2018-08-20T09:42:00Z", "max_date": "2018-08-20T11:18:00Z", "count_points": 8, "latitude": 46.65342, "longitude": 33.40247, "city": "Chornyanka", "images": []}, {"id": 396556, "min_date": "2018-08-20T09:42:00Z", "max_date": "2018-08-20T09:42:00Z", "count_points": 2, "latitude": 47.84407, "longitude": 31.39797, "city": "Arbuzynka", "images": []}, {"id": 396557, "min_date": "2018-08-20T09:42:00Z", "max_date": "2018-08-20T10:03:00Z", "count_points": 2, "latitude": 47.75911, "longitude": 34.20979, "city": "Chortomlyk", "images": []}, {"id": 396558, "min_date": "2018-08-20T09:42:00Z", "max_date": "2018-08-20T09:42:00Z", "count_points": 2, "latitude": 49.3389, "longitude": 28.44058, "city": "Pavlovka", "images": []}, {"id": 396559, "min_date": "2018-08-20T09:42:00Z", "max_date": "2018-08-20T09:57:00Z", "count_points": 2, "latitude": 48.53019, "longitude": 27.86382, "city": "Mohyliv-Podilskyi", "images": []}, {"id": 396560, "min_date": "2018-08-20T09:42:00Z", "max_date": "2018-08-21T01:18:00Z", "count_points": 5, "latitude": 49.88113, "longitude": 25.98655, "city": "Lanivtsi", "images": []}, {"id": 396561, "min_date": "2018-08-20T09:42:00Z", "max_date": "2018-08-20T08:19:00Z", "count_points": 5, "latitude": 48.66656, "longitude": 27.77761, "city": "Vendychany", "images": []}, {"id": 396562, "min_date": "2018-08-20T11:18:00Z", "max_date": "2018-08-20T11:18:00Z", "count_points": 1, "latitude": 47.26477, "longitude": 34.89254, "city": "Mala Bilozerka", "images": []}, {"id": 396563, "min_date": "2018-08-20T11:18:00Z", "max_date": "2018-08-20T11:18:00Z", "count_points": 1, "latitude": 45.64688, "longitude": 34.777, "city": "Pshenichnoye", "images": []}, {"id": 396564, "min_date": "2018-08-20T11:18:00Z", "max_date": "2018-08-24T00:18:00Z", "count_points": 7, "latitude": 47.76618, "longitude": 30.02566, "city": "Ananyiv Pershyi", "images": []}, {"id": 396565, "min_date": "2018-08-20T11:18:00Z", "max_date": "2018-08-20T11:18:00Z", "count_points": 1, "latitude": 46.1011, "longitude": 30.21882, "city": "Bilhorod-Dnistrovskyi", "images": []}, {"id": 396566, "min_date": "2018-08-20T11:18:00Z", "max_date": "2018-08-20T11:18:00Z", "count_points": 1, "latitude": 45.99834, "longitude": 30.08465, "city": "Kulevcha", "images": []}, {"id": 396567, "min_date": "2018-08-20T11:18:00Z", "max_date": "2018-08-21T10:46:00Z", "count_points": 7, "latitude": 48.75614, "longitude": 36.91953, "city": "Oleksandrivka", "images": []}, {"id": 396568, "min_date": "2018-08-20T11:18:00Z", "max_date": "2018-08-20T11:18:00Z", "count_points": 2, "latitude": 48.03624, "longitude": 39.6167, "city": "Sverdlovs\u2019k", "images": []}, {"id": 396569, "min_date": "2018-08-20T11:18:00Z", "max_date": "2018-08-20T11:18:00Z", "count_points": 3, "latitude": 47.94165, "longitude": 34.92897, "city": "Tomakivka", "images": []}, {"id": 396570, "min_date": "2018-08-20T11:18:00Z", "max_date": "2018-08-20T11:18:00Z", "count_points": 1, "latitude": 46.61118, "longitude": 34.24623, "city": "Novotroyits\u2019ke", "images": []}, {"id": 396571, "min_date": "2018-08-20T11:18:00Z", "max_date": "2018-08-20T11:18:00Z", "count_points": 1, "latitude": 47.26307, "longitude": 34.1926, "city": "Verkhniy Rohachyk", "images": []}, {"id": 396572, "min_date": "2018-08-20T11:18:00Z", "max_date": "2018-08-20T11:18:00Z", "count_points": 2, "latitude": 47.2997, "longitude": 37.90349, "city": "Tel\u2019manove", "images": []}, {"id": 396573, "min_date": "2018-08-20T11:18:00Z", "max_date": "2018-08-20T11:18:00Z", "count_points": 2, "latitude": 47.11143, "longitude": 37.46496, "city": "Staryy Krym", "images": []}, {"id": 396574, "min_date": "2018-08-20T11:18:00Z", "max_date": "2018-08-20T23:36:00Z", "count_points": 10, "latitude": 46.08548, "longitude": 33.86622, "city": "Filatovka", "images": []}, {"id": 396575, "min_date": "2018-08-20T11:18:00Z", "max_date": "2018-08-20T11:24:00Z", "count_points": 7, "latitude": 48.46441, "longitude": 29.91272, "city": "Hayvoron", "images": []}, {"id": 396576, "min_date": "2018-08-20T11:24:00Z", "max_date": "2018-08-20T11:24:00Z", "count_points": 1, "latitude": 49.13323, "longitude": 28.68169, "city": "Voronovytsya", "images": []}, {"id": 396577, "min_date": "2018-08-20T11:24:00Z", "max_date": "2018-08-20T11:24:00Z", "count_points": 1, "latitude": 48.84676, "longitude": 29.63434, "city": "Teplyk", "images": []}, {"id": 396578, "min_date": "2018-08-20T11:24:00Z", "max_date": "2018-08-20T11:24:00Z", "count_points": 1, "latitude": 49.57192, "longitude": 29.66225, "city": "Skvyra", "images": []}, {"id": 396579, "min_date": "2018-08-20T11:24:00Z", "max_date": "2018-08-20T11:24:00Z", "count_points": 1, "latitude": 50.65175, "longitude": 25.31831, "city": "Lutsk", "images": []}, {"id": 396580, "min_date": "2018-08-20T11:24:00Z", "max_date": "2018-08-20T11:24:00Z", "count_points": 2, "latitude": 50.14307, "longitude": 37.19988, "city": "Prykolotne", "images": []}, {"id": 396581, "min_date": "2018-08-20T11:24:00Z", "max_date": "2018-08-20T11:24:00Z", "count_points": 1, "latitude": 49.72418, "longitude": 38.66048, "city": "Pavlivka", "images": []}, {"id": 396582, "min_date": "2018-08-20T11:24:00Z", "max_date": "2018-08-21T11:00:00Z", "count_points": 2, "latitude": 49.02761, "longitude": 33.41625, "city": "Kremenchuk", "images": []}, {"id": 396583, "min_date": "2018-08-20T11:24:00Z", "max_date": "2018-08-26T11:04:00Z", "count_points": 15, "latitude": 48.88991, "longitude": 25.6945, "city": "Yahil\u2019nytsya", "images": []}, {"id": 396584, "min_date": "2018-08-20T11:24:00Z", "max_date": "2018-08-20T11:41:00Z", "count_points": 2, "latitude": 48.56108, "longitude": 26.35129, "city": "Zhvanets", "images": []}, {"id": 396585, "min_date": "2018-08-20T11:24:00Z", "max_date": "2018-08-20T11:24:00Z", "count_points": 1, "latitude": 48.28849, "longitude": 22.6359, "city": "Berehove", "images": []}, {"id": 396586, "min_date": "2018-08-20T11:24:00Z", "max_date": "2018-08-20T11:24:00Z", "count_points": 1, "latitude": 50.62532, "longitude": 31.9808, "city": "Zgurovka", "images": []}, {"id": 396587, "min_date": "2018-08-20T11:24:00Z", "max_date": "2018-08-20T11:24:00Z", "count_points": 1, "latitude": 51.00349, "longitude": 34.51211, "city": "Bilopillya", "images": []}, {"id": 396588, "min_date": "2018-08-20T11:24:00Z", "max_date": "2018-08-20T11:24:00Z", "count_points": 1, "latitude": 51.89535, "longitude": 34.18932, "city": "Chervone", "images": []}, {"id": 396589, "min_date": "2018-08-20T11:24:00Z", "max_date": "2018-08-20T11:24:00Z", "count_points": 2, "latitude": 48.50841, "longitude": 22.85906, "city": "Chynadiyovo", "images": []}, {"id": 396590, "min_date": "2018-08-20T11:24:00Z", "max_date": "2018-08-24T09:32:00Z", "count_points": 7, "latitude": 49.83576, "longitude": 26.33161, "city": "Teofipol", "images": []}, {"id": 396591, "min_date": "2018-08-20T11:24:00Z", "max_date": "2018-08-20T09:57:00Z", "count_points": 3, "latitude": 50.00853, "longitude": 26.32412, "city": "Lyakhovtsy", "images": []}, {"id": 396592, "min_date": "2018-08-20T11:24:00Z", "max_date": "2018-08-20T11:24:00Z", "count_points": 1, "latitude": 48.4562, "longitude": 27.90187, "city": "Mohyliv-Podilskyi", "images": []}, {"id": 396593, "min_date": "2018-08-20T11:24:00Z", "max_date": "2018-08-20T11:24:00Z", "count_points": 2, "latitude": 49.24188, "longitude": 34.14147, "city": "Kobelyaky", "images": []}, {"id": 396594, "min_date": "2018-08-20T11:24:00Z", "max_date": "2018-08-20T11:24:00Z", "count_points": 1, "latitude": 51.19266, "longitude": 34.14464, "city": "Vorozhba", "images": []}, {"id": 396595, "min_date": "2018-08-20T11:24:00Z", "max_date": "2018-08-20T11:24:00Z", "count_points": 2, "latitude": 49.27994, "longitude": 26.77963, "city": "Yarmolyntsi", "images": []}, {"id": 396596, "min_date": "2018-08-20T11:24:00Z", "max_date": "2018-08-20T11:24:00Z", "count_points": 1, "latitude": 49.74746, "longitude": 26.26562, "city": "Teofipol", "images": []}, {"id": 396597, "min_date": "2018-08-20T11:24:00Z", "max_date": "2018-08-20T11:24:00Z", "count_points": 1, "latitude": 49.72264, "longitude": 25.96901, "city": "Lanivtsi", "images": []}, {"id": 396598, "min_date": "2018-08-20T11:24:00Z", "max_date": "2018-08-20T11:24:00Z", "count_points": 1, "latitude": 49.20991, "longitude": 26.7724, "city": "Yarmolyntsi", "images": []}, {"id": 396599, "min_date": "2018-08-20T11:24:00Z", "max_date": "2018-08-20T11:24:00Z", "count_points": 1, "latitude": 49.68248, "longitude": 23.12686, "city": "Pnikut", "images": []}, {"id": 396600, "min_date": "2018-08-20T11:24:00Z", "max_date": "2018-08-20T11:24:00Z", "count_points": 1, "latitude": 49.89466, "longitude": 26.5674, "city": "Teofipol", "images": []}, {"id": 396601, "min_date": "2018-08-20T23:36:00Z", "max_date": "2018-08-21T10:46:00Z", "count_points": 19, "latitude": 49.47746, "longitude": 33.66294, "city": "Velyka Bahachka", "images": []}, {"id": 396602, "min_date": "2018-08-20T23:36:00Z", "max_date": "2018-08-20T23:36:00Z", "count_points": 1, "latitude": 47.44859, "longitude": 30.09044, "city": "Shyryayeve", "images": []}, {"id": 396603, "min_date": "2018-08-20T23:36:00Z", "max_date": "2018-08-24T10:06:00Z", "count_points": 3, "latitude": 48.42821, "longitude": 34.56639, "city": "Kamianske", "images": []}, {"id": 396604, "min_date": "2018-08-20T23:36:00Z", "max_date": "2018-08-24T07:54:00Z", "count_points": 9, "latitude": 47.81157, "longitude": 33.18697, "city": "Shyroke", "images": []}, {"id": 396605, "min_date": "2018-08-20T23:36:00Z", "max_date": "2018-08-20T23:36:00Z", "count_points": 2, "latitude": 47.87487, "longitude": 39.60173, "city": "Biryukove", "images": []}, {"id": 396606, "min_date": "2018-08-20T23:36:00Z", "max_date": "2018-08-21T09:02:00Z", "count_points": 5, "latitude": 48.57813, "longitude": 30.91021, "city": "Tyshkivka", "images": []}, {"id": 396607, "min_date": "2018-08-20T23:36:00Z", "max_date": "2018-08-20T23:36:00Z", "count_points": 1, "latitude": 49.35813, "longitude": 37.59403, "city": "Borova", "images": []}, {"id": 396608, "min_date": "2018-08-20T23:36:00Z", "max_date": "2018-08-20T23:36:00Z", "count_points": 2, "latitude": 49.53216, "longitude": 37.06868, "city": "Savyntsi", "images": []}, {"id": 396609, "min_date": "2018-08-20T23:36:00Z", "max_date": "2018-08-20T19:28:00Z", "count_points": 2, "latitude": 46.72788, "longitude": 31.59719, "city": "Ochakiv", "images": []}, {"id": 396610, "min_date": "2018-08-20T23:36:00Z", "max_date": "2018-08-20T23:36:00Z", "count_points": 1, "latitude": 46.26025, "longitude": 33.10475, "city": "Brylivka", "images": []}, {"id": 396611, "min_date": "2018-08-20T23:36:00Z", "max_date": "2018-08-20T23:36:00Z", "count_points": 1, "latitude": 47.37784, "longitude": 31.2936, "city": "Veselynove", "images": []}, {"id": 396612, "min_date": "2018-08-20T23:36:00Z", "max_date": "2018-08-20T23:36:00Z", "count_points": 1, "latitude": 48.22549, "longitude": 38.69761, "city": "Krasnyy Kut", "images": []}, {"id": 396613, "min_date": "2018-08-20T23:36:00Z", "max_date": "2018-08-21T11:00:00Z", "count_points": 2, "latitude": 48.81756, "longitude": 38.45228, "city": "Lysychans\u2019k", "images": []}, {"id": 396614, "min_date": "2018-08-20T23:36:00Z", "max_date": "2018-08-21T09:24:00Z", "count_points": 2, "latitude": 47.87608, "longitude": 37.92323, "city": "Novyy Svit", "images": []}, {"id": 396615, "min_date": "2018-08-20T23:36:00Z", "max_date": "2018-08-20T23:36:00Z", "count_points": 3, "latitude": 46.66747, "longitude": 36.00165, "city": "Novovasylivka", "images": []}, {"id": 396616, "min_date": "2018-08-20T23:36:00Z", "max_date": "2018-08-20T23:36:00Z", "count_points": 1, "latitude": 47.45463, "longitude": 35.56082, "city": "Kirove", "images": []}, {"id": 396617, "min_date": "2018-08-20T23:36:00Z", "max_date": "2018-08-20T19:28:00Z", "count_points": 3, "latitude": 47.19558, "longitude": 33.98805, "city": "Velyka Lepetykha", "images": []}, {"id": 396618, "min_date": "2018-08-20T23:36:00Z", "max_date": "2018-08-20T23:36:00Z", "count_points": 1, "latitude": 46.41767, "longitude": 34.56915, "city": "Partyzany", "images": []}, {"id": 396619, "min_date": "2018-08-20T23:36:00Z", "max_date": "2018-08-20T23:36:00Z", "count_points": 1, "latitude": 46.43924, "longitude": 34.32134, "city": "Novotroyits\u2019ke", "images": []}, {"id": 396620, "min_date": "2018-08-20T23:36:00Z", "max_date": "2018-08-26T23:24:00Z", "count_points": 6, "latitude": 49.37758, "longitude": 37.7789, "city": "Borova", "images": []}, {"id": 396621, "min_date": "2018-08-20T23:36:00Z", "max_date": "2018-08-21T09:24:00Z", "count_points": 2, "latitude": 47.11257, "longitude": 37.21965, "city": "Manhush", "images": []}, {"id": 396622, "min_date": "2018-08-21T09:24:00Z", "max_date": "2018-08-21T10:45:00Z", "count_points": 5, "latitude": 47.10918, "longitude": 36.79104, "city": "Osypenko", "images": []}, {"id": 396623, "min_date": "2018-08-21T09:24:00Z", "max_date": "2018-08-23T10:33:00Z", "count_points": 12, "latitude": 47.11075, "longitude": 36.71656, "city": "Komysh-Zorya", "images": []}, {"id": 396624, "min_date": "2018-08-21T09:24:00Z", "max_date": "2018-08-21T09:24:00Z", "count_points": 1, "latitude": 48.24985, "longitude": 33.15581, "city": "Petrove", "images": []}, {"id": 396625, "min_date": "2018-08-21T09:24:00Z", "max_date": "2018-08-21T09:24:00Z", "count_points": 1, "latitude": 47.482, "longitude": 33.28064, "city": "Velyka Oleksandrivka", "images": []}, {"id": 396626, "min_date": "2018-08-21T09:24:00Z", "max_date": "2018-08-21T09:02:00Z", "count_points": 6, "latitude": 49.59355, "longitude": 28.30527, "city": "Ulaniv", "images": []}, {"id": 396627, "min_date": "2018-08-21T09:24:00Z", "max_date": "2018-08-21T09:24:00Z", "count_points": 1, "latitude": 49.81676, "longitude": 28.43746, "city": "Berdychiv", "images": []}, {"id": 396628, "min_date": "2018-08-21T09:24:00Z", "max_date": "2018-08-21T10:45:00Z", "count_points": 12, "latitude": 47.34888, "longitude": 35.29004, "city": "Vasylivka", "images": []}, {"id": 396629, "min_date": "2018-08-21T09:24:00Z", "max_date": "2018-08-21T10:46:00Z", "count_points": 12, "latitude": 48.37152, "longitude": 29.21367, "city": "Obodivka", "images": []}, {"id": 396630, "min_date": "2018-08-21T09:24:00Z", "max_date": "2018-08-21T09:01:00Z", "count_points": 2, "latitude": 50.03577, "longitude": 37.14391, "city": "Prykolotne", "images": []}, {"id": 396631, "min_date": "2018-08-21T09:24:00Z", "max_date": "2018-08-21T09:24:00Z", "count_points": 2, "latitude": 48.1839, "longitude": 37.51244, "city": "Selydove", "images": []}, {"id": 396632, "min_date": "2018-08-21T09:24:00Z", "max_date": "2018-08-21T10:46:00Z", "count_points": 14, "latitude": 49.65559, "longitude": 38.33447, "city": "Nyzhnya Duvanka", "images": []}, {"id": 396633, "min_date": "2018-08-21T09:24:00Z", "max_date": "2018-08-21T09:24:00Z", "count_points": 3, "latitude": 50.90596, "longitude": 33.83822, "city": "Nedryhayliv", "images": []}, {"id": 396634, "min_date": "2018-08-21T09:24:00Z", "max_date": "2018-08-21T09:24:00Z", "count_points": 3, "latitude": 49.15509, "longitude": 37.95688, "city": "Krasnyy Lyman", "images": []}, {"id": 396635, "min_date": "2018-08-21T09:24:00Z", "max_date": "2018-08-21T09:24:00Z", "count_points": 2, "latitude": 50.90204, "longitude": 34.16089, "city": "Terny", "images": []}, {"id": 396636, "min_date": "2018-08-21T09:24:00Z", "max_date": "2018-08-26T09:30:00Z", "count_points": 4, "latitude": 48.71637, "longitude": 34.39379, "city": "Verkhn\u2019odniprovs\u2019k", "images": []}, {"id": 396637, "min_date": "2018-08-21T09:24:00Z", "max_date": "2018-08-20T10:03:00Z", "count_points": 4, "latitude": 48.40604, "longitude": 39.78652, "city": "Uralo-Kavkaz", "images": []}, {"id": 396638, "min_date": "2018-08-21T09:24:00Z", "max_date": "2018-08-21T09:24:00Z", "count_points": 2, "latitude": 47.96187, "longitude": 39.79008, "city": "Biryukove", "images": []}, {"id": 396639, "min_date": "2018-08-21T09:24:00Z", "max_date": "2018-08-21T09:02:00Z", "count_points": 8, "latitude": 46.7998, "longitude": 34.30181, "city": "Nyzhni Sirohozy", "images": []}, {"id": 396640, "min_date": "2018-08-21T09:24:00Z", "max_date": "2018-08-21T10:45:00Z", "count_points": 5, "latitude": 47.6486, "longitude": 35.04476, "city": "Kushuhum", "images": []}, {"id": 396641, "min_date": "2018-08-21T09:24:00Z", "max_date": "2018-08-21T09:24:00Z", "count_points": 1, "latitude": 47.83373, "longitude": 34.90381, "city": "Tomakivka", "images": []}, {"id": 396642, "min_date": "2018-08-21T09:24:00Z", "max_date": "2018-08-21T10:45:00Z", "count_points": 9, "latitude": 46.2038, "longitude": 34.73195, "city": "Heniches\u2019k", "images": []}, {"id": 396643, "min_date": "2018-08-21T09:24:00Z", "max_date": "2018-08-22T11:28:00Z", "count_points": 3, "latitude": 47.74986, "longitude": 34.40737, "city": "Nikopol", "images": []}, {"id": 396644, "min_date": "2018-08-21T09:24:00Z", "max_date": "2018-08-21T10:45:00Z", "count_points": 3, "latitude": 47.67855, "longitude": 34.60646, "city": "Marhanets\u2019", "images": []}, {"id": 396645, "min_date": "2018-08-21T09:24:00Z", "max_date": "2018-08-21T09:02:00Z", "count_points": 3, "latitude": 47.94584, "longitude": 34.43663, "city": "Novopokrovka", "images": []}, {"id": 396646, "min_date": "2018-08-21T09:24:00Z", "max_date": "2018-08-21T09:02:00Z", "count_points": 3, "latitude": 48.47756, "longitude": 34.12599, "city": "Vyshneve", "images": []}, {"id": 396647, "min_date": "2018-08-21T09:24:00Z", "max_date": "2018-08-21T09:24:00Z", "count_points": 1, "latitude": 47.11914, "longitude": 30.40217, "city": "Ivanivka", "images": []}, {"id": 396648, "min_date": "2018-08-21T09:24:00Z", "max_date": "2018-08-21T09:24:00Z", "count_points": 1, "latitude": 48.77766, "longitude": 37.31167, "city": "Krasnotorka", "images": []}, {"id": 396649, "min_date": "2018-08-21T09:24:00Z", "max_date": "2018-08-21T09:24:00Z", "count_points": 1, "latitude": 49.58084, "longitude": 28.54127, "city": "Kalynivka", "images": []}, {"id": 396650, "min_date": "2018-08-21T09:24:00Z", "max_date": "2018-08-23T10:24:00Z", "count_points": 2, "latitude": 48.87504, "longitude": 36.42633, "city": "Lozova", "images": []}, {"id": 396651, "min_date": "2018-08-21T09:24:00Z", "max_date": "2018-08-21T11:00:00Z", "count_points": 2, "latitude": 48.2074, "longitude": 37.64646, "city": "Avdiyivka", "images": []}, {"id": 396652, "min_date": "2018-08-21T09:24:00Z", "max_date": "2018-08-21T09:02:00Z", "count_points": 3, "latitude": 49.67929, "longitude": 28.60599, "city": "Berdychiv", "images": []}, {"id": 396653, "min_date": "2018-08-21T09:24:00Z", "max_date": "2018-08-21T09:01:00Z", "count_points": 3, "latitude": 50.17335, "longitude": 33.16409, "city": "Sencha", "images": []}, {"id": 396654, "min_date": "2018-08-21T09:24:00Z", "max_date": "2018-08-21T11:00:00Z", "count_points": 2, "latitude": 49.53695, "longitude": 29.47841, "city": "Topory", "images": []}, {"id": 396655, "min_date": "2018-08-21T09:24:00Z", "max_date": "2018-08-21T09:02:00Z", "count_points": 2, "latitude": 49.11679, "longitude": 30.56864, "city": "Buky", "images": []}, {"id": 396656, "min_date": "2018-08-21T09:24:00Z", "max_date": "2018-08-21T09:24:00Z", "count_points": 1, "latitude": 48.97747, "longitude": 32.24814, "city": "Oleksandrivka", "images": []}, {"id": 396657, "min_date": "2018-08-21T09:24:00Z", "max_date": "2018-08-21T10:46:00Z", "count_points": 8, "latitude": 49.00334, "longitude": 37.11605, "city": "Barvinkove", "images": []}, {"id": 396658, "min_date": "2018-08-21T09:24:00Z", "max_date": "2018-08-26T09:30:00Z", "count_points": 3, "latitude": 48.12954, "longitude": 37.31472, "city": "Selydove", "images": []}, {"id": 396659, "min_date": "2018-08-21T09:24:00Z", "max_date": "2018-08-21T09:24:00Z", "count_points": 1, "latitude": 48.32211, "longitude": 36.27433, "city": "Petropavlivka", "images": []}, {"id": 396660, "min_date": "2018-08-21T09:24:00Z", "max_date": "2018-08-26T11:04:00Z", "count_points": 14, "latitude": 47.92095, "longitude": 37.7209, "city": "Donetsk", "images": []}, {"id": 396661, "min_date": "2018-08-21T09:24:00Z", "max_date": "2018-08-21T10:46:00Z", "count_points": 12, "latitude": 49.08768, "longitude": 38.51266, "city": "Syevyerodonets\u2019k", "images": []}, {"id": 396662, "min_date": "2018-08-21T09:24:00Z", "max_date": "2018-08-22T09:51:00Z", "count_points": 12, "latitude": 49.38013, "longitude": 38.69155, "city": "Bilokurakyne", "images": []}, {"id": 396663, "min_date": "2018-08-21T09:24:00Z", "max_date": "2018-08-21T11:00:00Z", "count_points": 2, "latitude": 49.15532, "longitude": 38.24006, "city": "Kreminna", "images": []}, {"id": 396664, "min_date": "2018-08-21T09:24:00Z", "max_date": "2018-08-24T11:16:00Z", "count_points": 13, "latitude": 48.42202, "longitude": 38.54984, "city": "Bayrachky", "images": []}, {"id": 396665, "min_date": "2018-08-21T09:24:00Z", "max_date": "2018-08-22T09:00:00Z", "count_points": 5, "latitude": 47.59265, "longitude": 37.17831, "city": "Rozivka", "images": []}, {"id": 396666, "min_date": "2018-08-21T09:24:00Z", "max_date": "2018-08-21T10:46:00Z", "count_points": 7, "latitude": 48.51111, "longitude": 29.0473, "city": "Tsybulevka", "images": []}, {"id": 396667, "min_date": "2018-08-21T09:24:00Z", "max_date": "2018-08-21T09:24:00Z", "count_points": 1, "latitude": 46.78115, "longitude": 35.78643, "city": "Novovasylivka", "images": []}, {"id": 396668, "min_date": "2018-08-21T09:24:00Z", "max_date": "2018-08-21T09:24:00Z", "count_points": 1, "latitude": 51.17202, "longitude": 32.25323, "city": "Kruty", "images": []}, {"id": 396669, "min_date": "2018-08-21T09:24:00Z", "max_date": "2018-08-21T09:24:00Z", "count_points": 2, "latitude": 47.96733, "longitude": 37.4913, "city": "Mareyka", "images": []}, {"id": 396670, "min_date": "2018-08-21T09:24:00Z", "max_date": "2018-08-21T09:24:00Z", "count_points": 2, "latitude": 51.1738, "longitude": 31.45098, "city": "Olyshivka", "images": []}, {"id": 396671, "min_date": "2018-08-21T09:24:00Z", "max_date": "2018-08-21T10:45:00Z", "count_points": 14, "latitude": 47.06111, "longitude": 37.42474, "city": "Melekyne", "images": []}, {"id": 396672, "min_date": "2018-08-21T09:24:00Z", "max_date": "2018-08-21T09:24:00Z", "count_points": 1, "latitude": 47.99214, "longitude": 38.83467, "city": "Zalesnoye", "images": []}, {"id": 396673, "min_date": "2018-08-21T11:00:00Z", "max_date": "2018-08-21T11:00:00Z", "count_points": 3, "latitude": 47.77956, "longitude": 38.60853, "city": "Amvrosiyivka", "images": []}, {"id": 396674, "min_date": "2018-08-21T11:00:00Z", "max_date": "2018-08-21T10:45:00Z", "count_points": 4, "latitude": 46.32012, "longitude": 29.14821, "city": "Borodino", "images": []}, {"id": 396675, "min_date": "2018-08-21T11:00:00Z", "max_date": "2018-08-21T10:45:00Z", "count_points": 6, "latitude": 46.20187, "longitude": 32.44454, "city": "Novofedorivka", "images": []}, {"id": 396676, "min_date": "2018-08-21T11:00:00Z", "max_date": "2018-08-21T11:00:00Z", "count_points": 1, "latitude": 47.43945, "longitude": 30.96834, "city": "Domanivka", "images": []}, {"id": 396677, "min_date": "2018-08-21T11:00:00Z", "max_date": "2018-08-21T11:00:00Z", "count_points": 1, "latitude": 48.45869, "longitude": 28.38875, "city": "Klembivka", "images": []}, {"id": 396678, "min_date": "2018-08-21T11:00:00Z", "max_date": "2018-08-21T11:00:00Z", "count_points": 1, "latitude": 47.1222, "longitude": 30.49078, "city": "Ivanivka", "images": []}, {"id": 396679, "min_date": "2018-08-21T11:00:00Z", "max_date": "2018-08-21T11:00:00Z", "count_points": 1, "latitude": 48.39144, "longitude": 28.62836, "city": "Vapnyarka", "images": []}, {"id": 396680, "min_date": "2018-08-21T11:00:00Z", "max_date": "2018-08-21T11:00:00Z", "count_points": 1, "latitude": 47.21141, "longitude": 30.80496, "city": "Berezivka", "images": []}, {"id": 396681, "min_date": "2018-08-21T11:00:00Z", "max_date": "2018-08-21T10:46:00Z", "count_points": 2, "latitude": 48.89778, "longitude": 25.30233, "city": "Zolotyy Potik", "images": []}, {"id": 396682, "min_date": "2018-08-21T11:00:00Z", "max_date": "2018-08-21T10:46:00Z", "count_points": 2, "latitude": 48.55115, "longitude": 35.36491, "city": "Melioratyvne", "images": []}, {"id": 396683, "min_date": "2018-08-21T11:00:00Z", "max_date": "2018-08-21T11:00:00Z", "count_points": 1, "latitude": 47.39269, "longitude": 30.63573, "city": "Mykolayivka", "images": []}, {"id": 396684, "min_date": "2018-08-21T11:00:00Z", "max_date": "2018-08-21T11:00:00Z", "count_points": 1, "latitude": 49.32995, "longitude": 34.01821, "city": "Lutovynivka", "images": []}, {"id": 396685, "min_date": "2018-08-21T11:00:00Z", "max_date": "2018-08-21T11:00:00Z", "count_points": 1, "latitude": 47.2743, "longitude": 35.25104, "city": "Mykhaylivka", "images": []}, {"id": 396686, "min_date": "2018-08-21T11:00:00Z", "max_date": "2018-08-21T11:00:00Z", "count_points": 1, "latitude": 48.88376, "longitude": 26.98741, "city": "Dunaivtsi", "images": []}, {"id": 396687, "min_date": "2018-08-21T11:00:00Z", "max_date": "2018-08-21T11:00:00Z", "count_points": 2, "latitude": 50.35543, "longitude": 23.70284, "city": "Uhniv", "images": []}, {"id": 396688, "min_date": "2018-08-21T11:00:00Z", "max_date": "2018-08-21T11:00:00Z", "count_points": 2, "latitude": 46.07369, "longitude": 29.71814, "city": "Plakhtiyivka", "images": []}, {"id": 396689, "min_date": "2018-08-21T11:00:00Z", "max_date": "2018-08-21T11:00:00Z", "count_points": 1, "latitude": 44.76504, "longitude": 33.74452, "city": "Dolinnoye", "images": []}, {"id": 396690, "min_date": "2018-08-21T11:00:00Z", "max_date": "2018-08-21T11:00:00Z", "count_points": 1, "latitude": 47.78844, "longitude": 30.32811, "city": "Lyubashivka", "images": []}, {"id": 396691, "min_date": "2018-08-21T11:00:00Z", "max_date": "2018-08-24T09:32:00Z", "count_points": 6, "latitude": 48.86627, "longitude": 28.26657, "city": "Sharhorod", "images": []}, {"id": 396692, "min_date": "2018-08-21T11:00:00Z", "max_date": "2018-08-21T11:00:00Z", "count_points": 1, "latitude": 48.98533, "longitude": 28.3368, "city": "Sutysky", "images": []}, {"id": 396693, "min_date": "2018-08-21T11:00:00Z", "max_date": "2018-08-21T11:00:00Z", "count_points": 1, "latitude": 49.86685, "longitude": 26.65068, "city": "Antoniny", "images": []}, {"id": 396694, "min_date": "2018-08-21T11:00:00Z", "max_date": "2018-08-21T11:00:00Z", "count_points": 2, "latitude": 45.63018, "longitude": 34.89629, "city": "Pshenichnoye", "images": []}, {"id": 396695, "min_date": "2018-08-21T11:00:00Z", "max_date": "2018-08-21T11:00:00Z", "count_points": 2, "latitude": 49.62603, "longitude": 34.62954, "city": "Poltava", "images": []}, {"id": 396696, "min_date": "2018-08-21T11:00:00Z", "max_date": "2018-08-21T11:00:00Z", "count_points": 1, "latitude": 49.86678, "longitude": 38.29048, "city": "Troyits\u2019ke", "images": []}, {"id": 396697, "min_date": "2018-08-21T11:00:00Z", "max_date": "2018-08-21T11:00:00Z", "count_points": 1, "latitude": 50.66018, "longitude": 28.96083, "city": "Chopovychi", "images": []}, {"id": 396698, "min_date": "2018-08-21T11:00:00Z", "max_date": "2018-08-21T11:00:00Z", "count_points": 1, "latitude": 47.74112, "longitude": 38.69485, "city": "Amvrosiyivka", "images": []}, {"id": 396699, "min_date": "2018-08-21T11:00:00Z", "max_date": "2018-08-21T11:00:00Z", "count_points": 1, "latitude": 48.02481, "longitude": 39.57901, "city": "Sverdlovs\u2019k", "images": []}, {"id": 396700, "min_date": "2018-08-21T11:00:00Z", "max_date": "2018-08-21T11:00:00Z", "count_points": 1, "latitude": 49.07572, "longitude": 32.11724, "city": "Kamianka", "images": []}, {"id": 396701, "min_date": "2018-08-21T11:00:00Z", "max_date": "2018-08-21T11:00:00Z", "count_points": 1, "latitude": 48.7959, "longitude": 28.70012, "city": "Tulchyn", "images": []}, {"id": 396702, "min_date": "2018-08-21T11:00:00Z", "max_date": "2018-08-21T11:00:00Z", "count_points": 2, "latitude": 49.134, "longitude": 36.58265, "city": "Krasnopavlivka", "images": []}, {"id": 396703, "min_date": "2018-08-21T11:00:00Z", "max_date": "2018-08-21T11:00:00Z", "count_points": 1, "latitude": 48.5363, "longitude": 29.42866, "city": "Viytivka", "images": []}, {"id": 396704, "min_date": "2018-08-21T11:00:00Z", "max_date": "2018-08-21T11:00:00Z", "count_points": 1, "latitude": 49.23962, "longitude": 28.56372, "city": "Vinnytsia", "images": []}, {"id": 396705, "min_date": "2018-08-21T11:00:00Z", "max_date": "2018-08-21T11:00:00Z", "count_points": 1, "latitude": 48.95254, "longitude": 36.94574, "city": "Barvinkove", "images": []}, {"id": 396706, "min_date": "2018-08-21T11:00:00Z", "max_date": "2018-08-21T11:00:00Z", "count_points": 2, "latitude": 48.67872, "longitude": 30.85649, "city": "Novoarkhanhel\u2019s\u2019k", "images": []}, {"id": 396707, "min_date": "2018-08-21T11:00:00Z", "max_date": "2018-08-22T00:54:00Z", "count_points": 3, "latitude": 48.74058, "longitude": 30.17425, "city": "Uman\u2019", "images": []}, {"id": 396708, "min_date": "2018-08-21T11:00:00Z", "max_date": "2018-08-21T10:46:00Z", "count_points": 9, "latitude": 48.6057, "longitude": 28.78408, "city": "Vapnyarka", "images": []}, {"id": 396709, "min_date": "2018-08-21T11:00:00Z", "max_date": "2018-08-21T11:00:00Z", "count_points": 1, "latitude": 49.67275, "longitude": 26.40736, "city": "Bazaliya", "images": []}, {"id": 396710, "min_date": "2018-08-21T11:00:00Z", "max_date": "2018-08-21T11:00:00Z", "count_points": 2, "latitude": 48.04044, "longitude": 33.55524, "city": "Kryvyi Rih", "images": []}, {"id": 396711, "min_date": "2018-08-21T11:00:00Z", "max_date": "2018-08-21T11:00:00Z", "count_points": 1, "latitude": 50.14871, "longitude": 26.30504, "city": "Lyakhovtsy", "images": []}, {"id": 396712, "min_date": "2018-08-21T11:00:00Z", "max_date": "2018-08-21T11:00:00Z", "count_points": 1, "latitude": 48.55583, "longitude": 25.58862, "city": "Stetseva", "images": []}, {"id": 396713, "min_date": "2018-08-21T11:00:00Z", "max_date": "2018-08-21T11:00:00Z", "count_points": 1, "latitude": 48.18406, "longitude": 33.78004, "city": "Sofiyivka", "images": []}, {"id": 396714, "min_date": "2018-08-21T11:00:00Z", "max_date": "2018-08-21T11:00:00Z", "count_points": 1, "latitude": 47.6356, "longitude": 33.82614, "city": "Apostolove", "images": []}, {"id": 396715, "min_date": "2018-08-21T11:00:00Z", "max_date": "2018-08-26T11:06:00Z", "count_points": 3, "latitude": 49.29967, "longitude": 25.94739, "city": "Hrymayliv", "images": []}, {"id": 396716, "min_date": "2018-08-21T11:00:00Z", "max_date": "2018-08-21T11:00:00Z", "count_points": 1, "latitude": 49.83167, "longitude": 25.76786, "city": "Zbarazh", "images": []}, {"id": 396717, "min_date": "2018-08-21T11:00:00Z", "max_date": "2018-08-21T11:00:00Z", "count_points": 1, "latitude": 49.65095, "longitude": 25.76168, "city": "Zbarazh", "images": []}, {"id": 396718, "min_date": "2018-08-21T11:00:00Z", "max_date": "2018-08-21T11:00:00Z", "count_points": 1, "latitude": 49.51712, "longitude": 25.56506, "city": "Petrikov", "images": []}, {"id": 396719, "min_date": "2018-08-21T11:00:00Z", "max_date": "2018-08-21T11:00:00Z", "count_points": 2, "latitude": 48.14477, "longitude": 23.15867, "city": "Korolevo", "images": []}, {"id": 396720, "min_date": "2018-08-21T11:00:00Z", "max_date": "2018-08-26T09:20:00Z", "count_points": 2, "latitude": 49.25849, "longitude": 25.80582, "city": "Terebovlya", "images": []}, {"id": 396721, "min_date": "2018-08-21T11:00:00Z", "max_date": "2018-08-21T11:00:00Z", "count_points": 1, "latitude": 49.65992, "longitude": 37.66651, "city": "Kivsharivka", "images": []}, {"id": 396722, "min_date": "2018-08-21T11:00:00Z", "max_date": "2018-08-21T11:00:00Z", "count_points": 1, "latitude": 48.09824, "longitude": 22.93135, "city": "Bobovo", "images": []}, {"id": 396723, "min_date": "2018-08-21T11:00:00Z", "max_date": "2018-08-21T11:00:00Z", "count_points": 1, "latitude": 49.25635, "longitude": 25.7193, "city": "Terebovlya", "images": []}, {"id": 396724, "min_date": "2018-08-21T11:00:00Z", "max_date": "2018-08-21T11:00:00Z", "count_points": 1, "latitude": 47.08159, "longitude": 37.32386, "city": "Manhush", "images": []}, {"id": 396725, "min_date": "2018-08-21T11:00:00Z", "max_date": "2018-08-21T11:00:00Z", "count_points": 2, "latitude": 48.09135, "longitude": 32.56199, "city": "Molodizhne", "images": []}, {"id": 396726, "min_date": "2018-08-21T11:00:00Z", "max_date": "2018-08-21T10:46:00Z", "count_points": 5, "latitude": 47.84477, "longitude": 30.12252, "city": "Lyubashivka", "images": []}, {"id": 396727, "min_date": "2018-08-21T11:00:00Z", "max_date": "2018-08-21T10:45:00Z", "count_points": 3, "latitude": 46.87636, "longitude": 37.00274, "city": "Urzuf", "images": []}, {"id": 396728, "min_date": "2018-08-21T11:00:00Z", "max_date": "2018-08-21T11:00:00Z", "count_points": 1, "latitude": 49.21693, "longitude": 35.25432, "city": "Zachepylivka", "images": []}, {"id": 396729, "min_date": "2018-08-21T11:00:00Z", "max_date": "2018-08-21T11:00:00Z", "count_points": 1, "latitude": 48.08444, "longitude": 36.32899, "city": "Pokrovs\u2019ke", "images": []}, {"id": 396730, "min_date": "2018-08-21T11:00:00Z", "max_date": "2018-08-21T10:46:00Z", "count_points": 3, "latitude": 48.51468, "longitude": 26.64819, "city": "Khotyn", "images": []}, {"id": 396731, "min_date": "2018-08-21T11:00:00Z", "max_date": "2018-08-21T23:18:00Z", "count_points": 2, "latitude": 48.63056, "longitude": 37.76045, "city": "Chasiv Yar", "images": []}, {"id": 396732, "min_date": "2018-08-21T11:00:00Z", "max_date": "2018-08-23T10:33:00Z", "count_points": 9, "latitude": 48.69458, "longitude": 38.60441, "city": "Kirovs\u2019k", "images": []}, {"id": 396733, "min_date": "2018-08-21T11:00:00Z", "max_date": "2018-08-21T10:46:00Z", "count_points": 6, "latitude": 49.20382, "longitude": 38.62157, "city": "Syevyerodonets\u2019k", "images": []}, {"id": 396734, "min_date": "2018-08-21T11:00:00Z", "max_date": "2018-08-21T11:00:00Z", "count_points": 1, "latitude": 48.50217, "longitude": 38.2695, "city": "Luhans\u2019ke", "images": []}, {"id": 396735, "min_date": "2018-08-21T11:00:00Z", "max_date": "2018-08-21T11:00:00Z", "count_points": 1, "latitude": 48.59641, "longitude": 38.28272, "city": "Popasna", "images": []}, {"id": 396736, "min_date": "2018-08-21T11:00:00Z", "max_date": "2018-08-21T10:46:00Z", "count_points": 9, "latitude": 48.88026, "longitude": 38.13102, "city": "Sivers\u2019k", "images": []}, {"id": 396737, "min_date": "2018-08-21T11:00:00Z", "max_date": "2018-08-25T00:00:00Z", "count_points": 3, "latitude": 48.70666, "longitude": 38.34581, "city": "Popasna", "images": []}, {"id": 396738, "min_date": "2018-08-21T23:18:00Z", "max_date": "2018-08-21T23:18:00Z", "count_points": 1, "latitude": 48.59391, "longitude": 38.60641, "city": "Stakhanov", "images": []}, {"id": 396739, "min_date": "2018-08-21T23:18:00Z", "max_date": "2018-08-22T00:54:00Z", "count_points": 4, "latitude": 48.24824, "longitude": 38.88265, "city": "Krasnyy Kut", "images": []}, {"id": 396740, "min_date": "2018-08-21T23:18:00Z", "max_date": "2018-08-21T23:18:00Z", "count_points": 1, "latitude": 47.35471, "longitude": 37.853, "city": "Tel\u2019manove", "images": []}, {"id": 396741, "min_date": "2018-08-21T23:18:00Z", "max_date": "2018-08-22T11:29:00Z", "count_points": 3, "latitude": 48.91879, "longitude": 26.26887, "city": "Skala-Podil\u2019s\u2019ka", "images": []}, {"id": 396742, "min_date": "2018-08-21T23:18:00Z", "max_date": "2018-08-21T23:18:00Z", "count_points": 1, "latitude": 46.65507, "longitude": 32.39936, "city": "Bilozerka", "images": []}, {"id": 396743, "min_date": "2018-08-21T23:18:00Z", "max_date": "2018-08-21T23:18:00Z", "count_points": 2, "latitude": 47.00859, "longitude": 37.29949, "city": "Manhush", "images": []}, {"id": 396744, "min_date": "2018-08-21T23:18:00Z", "max_date": "2018-08-22T09:45:00Z", "count_points": 7, "latitude": 46.44425, "longitude": 29.09709, "city": "Serpneve", "images": []}, {"id": 396745, "min_date": "2018-08-21T23:18:00Z", "max_date": "2018-08-21T20:11:00Z", "count_points": 4, "latitude": 45.8378, "longitude": 30.07375, "city": "Kulevcha", "images": []}, {"id": 396746, "min_date": "2018-08-21T23:18:00Z", "max_date": "2018-08-24T11:17:00Z", "count_points": 30, "latitude": 51.51319, "longitude": 27.0623, "city": "Rokytne", "images": []}, {"id": 396747, "min_date": "2018-08-21T23:18:00Z", "max_date": "2018-08-21T23:18:00Z", "count_points": 1, "latitude": 49.42855, "longitude": 38.24934, "city": "Svatove", "images": []}, {"id": 396748, "min_date": "2018-08-21T23:18:00Z", "max_date": "2018-08-21T23:18:00Z", "count_points": 1, "latitude": 47.68094, "longitude": 36.85325, "city": "Velyka Novosilka", "images": []}, {"id": 396749, "min_date": "2018-08-21T23:18:00Z", "max_date": "2018-08-21T23:18:00Z", "count_points": 2, "latitude": 49.81181, "longitude": 28.50672, "city": "Berdychiv", "images": []}, {"id": 396750, "min_date": "2018-08-21T23:18:00Z", "max_date": "2018-08-21T23:18:00Z", "count_points": 1, "latitude": 50.33128, "longitude": 30.08423, "city": "Borova", "images": []}, {"id": 396751, "min_date": "2018-08-21T23:18:00Z", "max_date": "2018-08-21T23:18:00Z", "count_points": 1, "latitude": 47.17783, "longitude": 34.37787, "city": "Verkhniy Rohachyk", "images": []}, {"id": 396752, "min_date": "2018-08-21T23:18:00Z", "max_date": "2018-08-21T23:18:00Z", "count_points": 1, "latitude": 47.62577, "longitude": 37.49699, "city": "Volnovakha", "images": []}, {"id": 396753, "min_date": "2018-08-21T23:18:00Z", "max_date": "2018-08-21T23:18:00Z", "count_points": 2, "latitude": 45.35375, "longitude": 34.12017, "city": "Poltavka", "images": []}, {"id": 396754, "min_date": "2018-08-21T23:18:00Z", "max_date": "2018-08-21T23:18:00Z", "count_points": 2, "latitude": 48.0046, "longitude": 33.62104, "city": "Kryvyi Rih", "images": []}, {"id": 396755, "min_date": "2018-08-21T23:18:00Z", "max_date": "2018-08-21T23:18:00Z", "count_points": 1, "latitude": 46.80369, "longitude": 36.42504, "city": "Prymors\u2019k", "images": []}, {"id": 396756, "min_date": "2018-08-22T00:54:00Z", "max_date": "2018-08-22T00:54:00Z", "count_points": 1, "latitude": 50.35039, "longitude": 27.245, "city": "Shepetivka", "images": []}, {"id": 396757, "min_date": "2018-08-22T00:54:00Z", "max_date": "2018-08-26T23:24:00Z", "count_points": 6, "latitude": 49.33999, "longitude": 35.38529, "city": "Krasnohrad", "images": []}, {"id": 396758, "min_date": "2018-08-22T00:54:00Z", "max_date": "2018-08-22T00:54:00Z", "count_points": 1, "latitude": 49.24705, "longitude": 36.05417, "city": "Sakhnovshchyna", "images": []}, {"id": 396759, "min_date": "2018-08-22T00:54:00Z", "max_date": "2018-08-22T00:54:00Z", "count_points": 2, "latitude": 49.43635, "longitude": 34.42211, "city": "Novi Sanzhary", "images": []}, {"id": 396760, "min_date": "2018-08-22T00:54:00Z", "max_date": "2018-08-22T00:54:00Z", "count_points": 1, "latitude": 46.2833, "longitude": 33.53538, "city": "Chaplynka", "images": []}, {"id": 396761, "min_date": "2018-08-22T09:00:00Z", "max_date": "2018-08-23T00:36:00Z", "count_points": 9, "latitude": 47.901, "longitude": 38.7749, "city": "Snizhne", "images": []}, {"id": 396762, "min_date": "2018-08-22T09:00:00Z", "max_date": "2018-08-22T09:00:00Z", "count_points": 1, "latitude": 48.36225, "longitude": 39.05109, "city": "Uspenka", "images": []}, {"id": 396763, "min_date": "2018-08-22T09:00:00Z", "max_date": "2018-08-22T10:42:00Z", "count_points": 3, "latitude": 47.26644, "longitude": 35.67438, "city": "Tokmak", "images": []}, {"id": 396764, "min_date": "2018-08-22T09:00:00Z", "max_date": "2018-08-22T09:00:00Z", "count_points": 3, "latitude": 47.2306, "longitude": 34.7048, "city": "Velyka Bilozerka", "images": []}, {"id": 396765, "min_date": "2018-08-22T09:06:00Z", "max_date": "2018-08-22T09:06:00Z", "count_points": 1, "latitude": 50.31473, "longitude": 35.99339, "city": "Zolochiv", "images": []}, {"id": 396766, "min_date": "2018-08-22T09:06:00Z", "max_date": "2018-08-22T08:06:00Z", "count_points": 2, "latitude": 49.90201, "longitude": 37.23062, "city": "Shevchenkove", "images": []}, {"id": 396767, "min_date": "2018-08-22T09:06:00Z", "max_date": "2018-08-24T10:06:00Z", "count_points": 4, "latitude": 49.89131, "longitude": 37.02787, "city": "Pechenihy", "images": []}, {"id": 396768, "min_date": "2018-08-22T09:06:00Z", "max_date": "2018-08-22T08:07:00Z", "count_points": 3, "latitude": 48.43485, "longitude": 33.539, "city": "Zhovti Vody", "images": []}, {"id": 396769, "min_date": "2018-08-22T09:06:00Z", "max_date": "2018-08-22T09:51:00Z", "count_points": 8, "latitude": 47.99566, "longitude": 33.51792, "city": "Kryvyi Rih", "images": []}, {"id": 396770, "min_date": "2018-08-22T10:42:00Z", "max_date": "2018-08-22T10:42:00Z", "count_points": 1, "latitude": 48.10802, "longitude": 33.43865, "city": "Lozuvatka", "images": []}, {"id": 396771, "min_date": "2018-08-22T10:42:00Z", "max_date": "2018-08-22T10:42:00Z", "count_points": 2, "latitude": 46.48093, "longitude": 33.61746, "city": "Chaplynka", "images": []}, {"id": 396772, "min_date": "2018-08-22T10:42:00Z", "max_date": "2018-08-22T10:42:00Z", "count_points": 1, "latitude": 49.40721, "longitude": 26.29705, "city": "Volochysk", "images": []}, {"id": 396773, "min_date": "2018-08-22T10:42:00Z", "max_date": "2018-08-22T10:42:00Z", "count_points": 1, "latitude": 47.99197, "longitude": 33.80983, "city": "Sofiyivka", "images": []}, {"id": 396774, "min_date": "2018-08-22T10:42:00Z", "max_date": "2018-08-22T10:42:00Z", "count_points": 1, "latitude": 46.25296, "longitude": 33.48381, "city": "Chaplynka", "images": []}, {"id": 396775, "min_date": "2018-08-22T10:42:00Z", "max_date": "2018-08-24T09:33:00Z", "count_points": 16, "latitude": 47.09044, "longitude": 34.51842, "city": "Velyka Bilozerka", "images": []}, {"id": 396776, "min_date": "2018-08-22T10:42:00Z", "max_date": "2018-08-22T10:42:00Z", "count_points": 1, "latitude": 47.7706, "longitude": 34.45687, "city": "Chervonohryhorivka", "images": []}, {"id": 396777, "min_date": "2018-08-22T10:42:00Z", "max_date": "2018-08-22T10:42:00Z", "count_points": 2, "latitude": 45.81281, "longitude": 34.29848, "city": "Luganskoye", "images": []}, {"id": 396778, "min_date": "2018-08-22T10:42:00Z", "max_date": "2018-08-22T10:42:00Z", "count_points": 1, "latitude": 50.37469, "longitude": 29.42308, "city": "Stavyshche", "images": []}, {"id": 396779, "min_date": "2018-08-22T10:42:00Z", "max_date": "2018-08-22T10:42:00Z", "count_points": 3, "latitude": 49.60662, "longitude": 25.74192, "city": "Zbarazh", "images": []}, {"id": 396780, "min_date": "2018-08-22T10:42:00Z", "max_date": "2018-08-22T10:42:00Z", "count_points": 1, "latitude": 50.78834, "longitude": 27.14305, "city": "Koloniya Zastav\u2019ye", "images": []}, {"id": 396781, "min_date": "2018-08-22T10:42:00Z", "max_date": "2018-08-22T11:29:00Z", "count_points": 13, "latitude": 48.50498, "longitude": 22.53652, "city": "Serednye", "images": []}, {"id": 396782, "min_date": "2018-08-22T10:42:00Z", "max_date": "2018-08-22T10:42:00Z", "count_points": 2, "latitude": 47.62852, "longitude": 29.2498, "city": "Okny", "images": []}, {"id": 396783, "min_date": "2018-08-22T10:42:00Z", "max_date": "2018-08-22T11:29:00Z", "count_points": 6, "latitude": 49.53969, "longitude": 26.43184, "city": "Bazaliya", "images": []}, {"id": 396784, "min_date": "2018-08-22T10:42:00Z", "max_date": "2018-08-22T10:42:00Z", "count_points": 2, "latitude": 48.43245, "longitude": 22.38981, "city": "Batiovo", "images": []}, {"id": 396785, "min_date": "2018-08-22T10:42:00Z", "max_date": "2018-08-22T10:42:00Z", "count_points": 1, "latitude": 46.7358, "longitude": 32.07004, "city": "Parutyne", "images": []}, {"id": 396786, "min_date": "2018-08-22T10:42:00Z", "max_date": "2018-08-22T10:42:00Z", "count_points": 1, "latitude": 48.50638, "longitude": 22.64339, "city": "Rakoshyno", "images": []}, {"id": 396787, "min_date": "2018-08-22T10:42:00Z", "max_date": "2018-08-22T10:42:00Z", "count_points": 5, "latitude": 49.61621, "longitude": 28.24565, "city": "Ulaniv", "images": []}, {"id": 396788, "min_date": "2018-08-22T10:42:00Z", "max_date": "2018-08-22T09:44:00Z", "count_points": 8, "latitude": 50.05817, "longitude": 28.07452, "city": "Chudniv", "images": []}, {"id": 396789, "min_date": "2018-08-22T10:42:00Z", "max_date": "2018-08-22T10:42:00Z", "count_points": 1, "latitude": 49.15978, "longitude": 27.48866, "city": "Derazhnya", "images": []}, {"id": 396790, "min_date": "2018-08-22T10:42:00Z", "max_date": "2018-08-22T10:42:00Z", "count_points": 1, "latitude": 47.86425, "longitude": 34.49333, "city": "Novopokrovka", "images": []}, {"id": 396791, "min_date": "2018-08-22T10:42:00Z", "max_date": "2018-08-22T10:42:00Z", "count_points": 2, "latitude": 48.14459, "longitude": 32.80602, "city": "Dolynska", "images": []}, {"id": 396792, "min_date": "2018-08-22T10:42:00Z", "max_date": "2018-08-22T10:42:00Z", "count_points": 1, "latitude": 50.58723, "longitude": 24.60757, "city": "Lokachi", "images": []}, {"id": 396793, "min_date": "2018-08-22T10:42:00Z", "max_date": "2018-08-22T10:42:00Z", "count_points": 1, "latitude": 48.71007, "longitude": 35.00153, "city": "Spas\u2019ke", "images": []}, {"id": 396794, "min_date": "2018-08-22T10:42:00Z", "max_date": "2018-08-22T10:42:00Z", "count_points": 1, "latitude": 49.39695, "longitude": 35.52564, "city": "Verbivka", "images": []}, {"id": 396795, "min_date": "2018-08-22T10:42:00Z", "max_date": "2018-08-26T23:24:00Z", "count_points": 4, "latitude": 49.95633, "longitude": 34.85959, "city": "Kotel\u2019va", "images": []}, {"id": 396796, "min_date": "2018-08-22T10:42:00Z", "max_date": "2018-08-22T10:42:00Z", "count_points": 1, "latitude": 48.46301, "longitude": 29.34754, "city": "Obodivka", "images": []}, {"id": 396797, "min_date": "2018-08-22T10:42:00Z", "max_date": "2018-08-22T10:42:00Z", "count_points": 1, "latitude": 48.32355, "longitude": 30.32203, "city": "Blahovishchens\u2019ke", "images": []}, {"id": 396798, "min_date": "2018-08-22T10:42:00Z", "max_date": "2018-08-22T10:42:00Z", "count_points": 2, "latitude": 48.55216, "longitude": 34.13612, "city": "Verkhn\u2019odniprovs\u2019k", "images": []}, {"id": 396799, "min_date": "2018-08-22T10:42:00Z", "max_date": "2018-08-22T10:42:00Z", "count_points": 1, "latitude": 50.04095, "longitude": 34.03934, "city": "Velyki Sorochyntsi", "images": []}, {"id": 396800, "min_date": "2018-08-22T10:42:00Z", "max_date": "2018-08-23T10:24:00Z", "count_points": 2, "latitude": 50.39444, "longitude": 31.86708, "city": "Zgurovka", "images": []}, {"id": 396801, "min_date": "2018-08-22T10:42:00Z", "max_date": "2018-08-22T10:42:00Z", "count_points": 1, "latitude": 49.6299, "longitude": 34.31162, "city": "Poltava", "images": []}, {"id": 396802, "min_date": "2018-08-22T10:42:00Z", "max_date": "2018-08-22T10:42:00Z", "count_points": 1, "latitude": 50.44286, "longitude": 24.20902, "city": "Chervonohrad", "images": []}, {"id": 396803, "min_date": "2018-08-22T10:42:00Z", "max_date": "2018-08-22T10:42:00Z", "count_points": 2, "latitude": 50.46957, "longitude": 24.54561, "city": "Radekhiv", "images": []}, {"id": 396804, "min_date": "2018-08-22T10:42:00Z", "max_date": "2018-08-22T10:42:00Z", "count_points": 1, "latitude": 47.4536, "longitude": 35.49532, "city": "Vasylivka", "images": []}, {"id": 396805, "min_date": "2018-08-22T10:42:00Z", "max_date": "2018-08-22T10:42:00Z", "count_points": 1, "latitude": 48.54541, "longitude": 36.8189, "city": "Novodonets\u2019ke", "images": []}, {"id": 396806, "min_date": "2018-08-22T10:42:00Z", "max_date": "2018-08-22T10:42:00Z", "count_points": 1, "latitude": 48.52942, "longitude": 36.77625, "city": "Oleksandrivka", "images": []}, {"id": 396807, "min_date": "2018-08-22T10:42:00Z", "max_date": "2018-08-22T10:42:00Z", "count_points": 1, "latitude": 48.98908, "longitude": 32.82501, "city": "Chyhyryn", "images": []}, {"id": 396808, "min_date": "2018-08-22T10:42:00Z", "max_date": "2018-08-22T10:42:00Z", "count_points": 3, "latitude": 49.28573, "longitude": 29.13039, "city": "Lypovets", "images": []}, {"id": 396809, "min_date": "2018-08-22T10:42:00Z", "max_date": "2018-08-22T10:42:00Z", "count_points": 1, "latitude": 49.31191, "longitude": 32.1359, "city": "Chervona Sloboda", "images": []}, {"id": 396810, "min_date": "2018-08-22T10:42:00Z", "max_date": "2018-08-22T10:42:00Z", "count_points": 1, "latitude": 50.35465, "longitude": 29.61088, "city": "Stavyshche", "images": []}, {"id": 396811, "min_date": "2018-08-22T10:42:00Z", "max_date": "2018-08-22T10:42:00Z", "count_points": 2, "latitude": 48.84266, "longitude": 29.16682, "city": "Ladyzhyn", "images": []}, {"id": 396812, "min_date": "2018-08-22T10:42:00Z", "max_date": "2018-08-23T10:24:00Z", "count_points": 2, "latitude": 48.93493, "longitude": 32.46757, "city": "Yelyzavethradka", "images": []}, {"id": 396813, "min_date": "2018-08-22T10:42:00Z", "max_date": "2018-08-22T10:42:00Z", "count_points": 1, "latitude": 48.99818, "longitude": 28.80292, "city": "Nemyriv", "images": []}, {"id": 396814, "min_date": "2018-08-22T10:42:00Z", "max_date": "2018-08-22T10:42:00Z", "count_points": 1, "latitude": 49.53973, "longitude": 29.59013, "city": "Tetiiv", "images": []}, {"id": 396815, "min_date": "2018-08-22T10:42:00Z", "max_date": "2018-08-22T10:42:00Z", "count_points": 1, "latitude": 49.12373, "longitude": 36.67429, "city": "Petrivs\u2019ke", "images": []}, {"id": 396816, "min_date": "2018-08-22T10:42:00Z", "max_date": "2018-08-22T10:42:00Z", "count_points": 1, "latitude": 48.83965, "longitude": 28.75082, "city": "Nemyriv", "images": []}, {"id": 396817, "min_date": "2018-08-22T10:42:00Z", "max_date": "2018-08-22T10:42:00Z", "count_points": 1, "latitude": 48.8921, "longitude": 35.86167, "city": "Yur\u201dyivka", "images": []}, {"id": 396818, "min_date": "2018-08-22T10:42:00Z", "max_date": "2018-08-22T10:42:00Z", "count_points": 1, "latitude": 48.71755, "longitude": 36.72055, "city": "Oleksandrivka", "images": []}, {"id": 396819, "min_date": "2018-08-22T10:42:00Z", "max_date": "2018-08-22T10:42:00Z", "count_points": 1, "latitude": 48.71288, "longitude": 31.24899, "city": "Lypnyazhka", "images": []}, {"id": 396820, "min_date": "2018-08-22T10:42:00Z", "max_date": "2018-08-22T10:42:00Z", "count_points": 1, "latitude": 50.5794, "longitude": 30.04444, "city": "Klavdiyevo-Tarasove", "images": []}, {"id": 396821, "min_date": "2018-08-22T10:42:00Z", "max_date": "2018-08-22T10:42:00Z", "count_points": 1, "latitude": 49.58491, "longitude": 30.05045, "city": "Volodarka", "images": []}, {"id": 396822, "min_date": "2018-08-22T10:42:00Z", "max_date": "2018-08-22T10:42:00Z", "count_points": 1, "latitude": 49.27333, "longitude": 35.90426, "city": "Chapayeve", "images": []}, {"id": 396823, "min_date": "2018-08-22T10:42:00Z", "max_date": "2018-08-22T10:42:00Z", "count_points": 1, "latitude": 49.22281, "longitude": 29.09172, "city": "Lypovets", "images": []}, {"id": 396824, "min_date": "2018-08-22T10:42:00Z", "max_date": "2018-08-25T19:47:00Z", "count_points": 11, "latitude": 48.83897, "longitude": 32.36298, "city": "Yelyzavethradka", "images": []}, {"id": 396825, "min_date": "2018-08-22T10:42:00Z", "max_date": "2018-08-22T10:42:00Z", "count_points": 1, "latitude": 48.8712, "longitude": 32.31837, "city": "Yelyzavethradka", "images": []}, {"id": 396826, "min_date": "2018-08-22T10:42:00Z", "max_date": "2018-08-22T10:42:00Z", "count_points": 1, "latitude": 48.63113, "longitude": 35.77913, "city": "Pavlohrad", "images": []}, {"id": 396827, "min_date": "2018-08-22T10:42:00Z", "max_date": "2018-08-25T09:48:00Z", "count_points": 7, "latitude": 47.56426, "longitude": 37.74976, "city": "Dokuchayevs\u2019k", "images": []}, {"id": 396828, "min_date": "2018-08-22T10:42:00Z", "max_date": "2018-08-22T10:42:00Z", "count_points": 1, "latitude": 51.91441, "longitude": 33.41351, "city": "Shostka", "images": []}, {"id": 396829, "min_date": "2018-08-22T10:42:00Z", "max_date": "2018-08-22T10:42:00Z", "count_points": 1, "latitude": 48.74649, "longitude": 37.50672, "city": "Kramators\u2019k", "images": []}, {"id": 396830, "min_date": "2018-08-22T10:42:00Z", "max_date": "2018-08-22T10:42:00Z", "count_points": 1, "latitude": 46.42966, "longitude": 30.60053, "city": "Tayirove", "images": []}, {"id": 396831, "min_date": "2018-08-22T10:42:00Z", "max_date": "2018-08-22T10:42:00Z", "count_points": 1, "latitude": 46.63167, "longitude": 33.01988, "city": "Kozachi Laheri", "images": []}, {"id": 396832, "min_date": "2018-08-22T10:42:00Z", "max_date": "2018-08-22T10:42:00Z", "count_points": 1, "latitude": 47.31002, "longitude": 33.08263, "city": "Velyka Oleksandrivka", "images": []}, {"id": 396833, "min_date": "2018-08-22T10:42:00Z", "max_date": "2018-08-22T10:42:00Z", "count_points": 2, "latitude": 48.08088, "longitude": 36.90058, "city": "Mezhova", "images": []}, {"id": 396834, "min_date": "2018-08-22T10:42:00Z", "max_date": "2018-08-22T10:42:00Z", "count_points": 2, "latitude": 51.49794, "longitude": 30.63146, "city": "Slavutych", "images": []}, {"id": 396835, "min_date": "2018-08-22T10:42:00Z", "max_date": "2018-08-22T10:42:00Z", "count_points": 2, "latitude": 48.36116, "longitude": 36.50173, "city": "Petropavlivka", "images": []}, {"id": 396836, "min_date": "2018-08-22T10:42:00Z", "max_date": "2018-08-22T10:42:00Z", "count_points": 1, "latitude": 49.07485, "longitude": 27.79748, "city": "Bar", "images": []}, {"id": 396837, "min_date": "2018-08-22T10:42:00Z", "max_date": "2018-08-22T10:42:00Z", "count_points": 1, "latitude": 50.90517, "longitude": 32.5365, "city": "Ichnya", "images": []}, {"id": 396838, "min_date": "2018-08-22T10:42:00Z", "max_date": "2018-08-23T10:34:00Z", "count_points": 5, "latitude": 49.24026, "longitude": 27.97385, "city": "Lityn", "images": []}, {"id": 396839, "min_date": "2018-08-22T10:42:00Z", "max_date": "2018-08-22T10:42:00Z", "count_points": 2, "latitude": 51.13058, "longitude": 32.96446, "city": "Bakhmach", "images": []}, {"id": 396840, "min_date": "2018-08-22T10:42:00Z", "max_date": "2018-08-22T10:42:00Z", "count_points": 2, "latitude": 47.54382, "longitude": 37.47832, "city": "Volnovakha", "images": []}, {"id": 396841, "min_date": "2018-08-22T10:42:00Z", "max_date": "2018-08-24T09:32:00Z", "count_points": 2, "latitude": 51.08805, "longitude": 33.73644, "city": "Buryn\u2019", "images": []}, {"id": 396842, "min_date": "2018-08-22T10:42:00Z", "max_date": "2018-08-22T10:42:00Z", "count_points": 1, "latitude": 49.56514, "longitude": 34.46204, "city": "Poltava", "images": []}, {"id": 396843, "min_date": "2018-08-22T10:42:00Z", "max_date": "2018-08-22T10:42:00Z", "count_points": 1, "latitude": 51.16965, "longitude": 32.84922, "city": "Bakhmach", "images": []}, {"id": 396844, "min_date": "2018-08-22T10:42:00Z", "max_date": "2018-08-22T10:42:00Z", "count_points": 1, "latitude": 51.22533, "longitude": 34.29799, "city": "Bilopillya", "images": []}, {"id": 396845, "min_date": "2018-08-22T10:42:00Z", "max_date": "2018-08-24T10:06:00Z", "count_points": 5, "latitude": 51.23668, "longitude": 31.49409, "city": "Olyshivka", "images": []}, {"id": 396846, "min_date": "2018-08-22T10:42:00Z", "max_date": "2018-08-22T10:42:00Z", "count_points": 1, "latitude": 47.60469, "longitude": 33.07249, "city": "Shyroke", "images": []}, {"id": 396847, "min_date": "2018-08-22T10:42:00Z", "max_date": "2018-08-23T10:24:00Z", "count_points": 2, "latitude": 46.61897, "longitude": 33.07887, "city": "Kozachi Laheri", "images": []}, {"id": 396848, "min_date": "2018-08-22T10:42:00Z", "max_date": "2018-08-22T10:42:00Z", "count_points": 1, "latitude": 45.39199, "longitude": 36.33203, "city": "Bagerovo", "images": []}, {"id": 396849, "min_date": "2018-08-22T10:42:00Z", "max_date": "2018-08-22T10:42:00Z", "count_points": 1, "latitude": 45.46672, "longitude": 29.53744, "city": "Vylkove", "images": []}, {"id": 396850, "min_date": "2018-08-22T10:42:00Z", "max_date": "2018-08-22T10:42:00Z", "count_points": 1, "latitude": 48.16697, "longitude": 31.06412, "city": "Lysa Hora", "images": []}, {"id": 396851, "min_date": "2018-08-22T12:24:00Z", "max_date": "2018-08-22T11:29:00Z", "count_points": 7, "latitude": 48.37233, "longitude": 22.51668, "city": "Strabychovo", "images": []}, {"id": 396852, "min_date": "2018-08-22T22:54:00Z", "max_date": "2018-08-25T23:42:00Z", "count_points": 2, "latitude": 50.22431, "longitude": 33.33595, "city": "Sencha", "images": []}, {"id": 396853, "min_date": "2018-08-22T22:54:00Z", "max_date": "2018-08-23T10:33:00Z", "count_points": 9, "latitude": 48.72256, "longitude": 38.9187, "city": "Tr\u2019okhizbenka", "images": []}, {"id": 396854, "min_date": "2018-08-22T22:54:00Z", "max_date": "2018-08-25T10:21:00Z", "count_points": 16, "latitude": 48.92994, "longitude": 38.46565, "city": "Lysychans\u2019k", "images": []}, {"id": 396855, "min_date": "2018-08-22T22:54:00Z", "max_date": "2018-08-22T22:54:00Z", "count_points": 1, "latitude": 50.29984, "longitude": 33.8463, "city": "Hadyach", "images": []}, {"id": 396856, "min_date": "2018-08-22T22:54:00Z", "max_date": "2018-08-22T23:23:00Z", "count_points": 6, "latitude": 49.97739, "longitude": 36.08817, "city": "Solonytsivka", "images": []}, {"id": 396857, "min_date": "2018-08-22T22:54:00Z", "max_date": "2018-08-23T00:36:00Z", "count_points": 2, "latitude": 49.986, "longitude": 35.22858, "city": "Krasnokuts\u2019k", "images": []}, {"id": 396858, "min_date": "2018-08-22T23:00:00Z", "max_date": "2018-08-24T09:38:00Z", "count_points": 8, "latitude": 47.19699, "longitude": 35.92367, "city": "Tokmak", "images": []}, {"id": 396859, "min_date": "2018-08-22T23:00:00Z", "max_date": "2018-08-23T00:36:00Z", "count_points": 4, "latitude": 44.87673, "longitude": 33.67576, "city": "Tabachnoye", "images": []}, {"id": 396860, "min_date": "2018-08-22T23:00:00Z", "max_date": "2018-08-22T19:16:00Z", "count_points": 2, "latitude": 47.25486, "longitude": 37.27033, "city": "Volodars\u2019ke", "images": []}, {"id": 396861, "min_date": "2018-08-22T23:00:00Z", "max_date": "2018-08-23T00:36:00Z", "count_points": 3, "latitude": 46.83022, "longitude": 33.63528, "city": "Lyubymivka", "images": []}, {"id": 396862, "min_date": "2018-08-22T23:00:00Z", "max_date": "2018-08-23T10:33:00Z", "count_points": 22, "latitude": 47.63982, "longitude": 34.8052, "city": "Vil\u2019ne", "images": []}, {"id": 396863, "min_date": "2018-08-22T23:00:00Z", "max_date": "2018-08-22T23:00:00Z", "count_points": 1, "latitude": 48.1204, "longitude": 31.03662, "city": "Lysa Hora", "images": []}, {"id": 396864, "min_date": "2018-08-22T23:00:00Z", "max_date": "2018-08-22T23:00:00Z", "count_points": 2, "latitude": 46.74453, "longitude": 35.61236, "city": "Pryazovs\u2019ke", "images": []}, {"id": 396865, "min_date": "2018-08-22T23:00:00Z", "max_date": "2018-08-23T10:33:00Z", "count_points": 30, "latitude": 46.81422, "longitude": 36.85735, "city": "Berdyansk", "images": []}, {"id": 396866, "min_date": "2018-08-22T23:00:00Z", "max_date": "2018-08-22T23:00:00Z", "count_points": 1, "latitude": 45.30065, "longitude": 36.05519, "city": "Novonikolayevka", "images": []}, {"id": 396867, "min_date": "2018-08-22T23:00:00Z", "max_date": "2018-08-22T23:00:00Z", "count_points": 1, "latitude": 47.07416, "longitude": 35.76965, "city": "Rozivka", "images": []}, {"id": 396868, "min_date": "2018-08-22T23:00:00Z", "max_date": "2018-08-22T23:00:00Z", "count_points": 1, "latitude": 47.9725, "longitude": 34.97042, "city": "Solone", "images": []}, {"id": 396869, "min_date": "2018-08-22T23:00:00Z", "max_date": "2018-08-23T00:36:00Z", "count_points": 2, "latitude": 48.06579, "longitude": 34.82957, "city": "Solone", "images": []}, {"id": 396870, "min_date": "2018-08-22T23:00:00Z", "max_date": "2018-08-22T23:00:00Z", "count_points": 1, "latitude": 46.28325, "longitude": 34.39362, "city": "Novotroyits\u2019ke", "images": []}, {"id": 396871, "min_date": "2018-08-22T23:00:00Z", "max_date": "2018-08-23T10:24:00Z", "count_points": 2, "latitude": 47.41501, "longitude": 38.0538, "city": "Tel\u2019manove", "images": []}, {"id": 396872, "min_date": "2018-08-22T23:00:00Z", "max_date": "2018-08-22T23:00:00Z", "count_points": 1, "latitude": 47.14012, "longitude": 38.12176, "city": "Novoazovsk", "images": []}, {"id": 396873, "min_date": "2018-08-22T23:00:00Z", "max_date": "2018-08-22T23:00:00Z", "count_points": 1, "latitude": 47.82653, "longitude": 31.635, "city": "Brats\u2019ke", "images": []}, {"id": 396874, "min_date": "2018-08-22T23:00:00Z", "max_date": "2018-08-22T23:00:00Z", "count_points": 1, "latitude": 48.01609, "longitude": 37.30292, "city": "Kurakhovo", "images": []}, {"id": 396875, "min_date": "2018-08-23T00:36:00Z", "max_date": "2018-08-23T00:36:00Z", "count_points": 2, "latitude": 50.30119, "longitude": 30.86205, "city": "Voronkov", "images": []}, {"id": 396876, "min_date": "2018-08-23T00:36:00Z", "max_date": "2018-08-23T22:36:00Z", "count_points": 3, "latitude": 50.80634, "longitude": 30.89574, "city": "Semypolky", "images": []}, {"id": 396877, "min_date": "2018-08-23T00:36:00Z", "max_date": "2018-08-23T00:36:00Z", "count_points": 1, "latitude": 46.36536, "longitude": 33.41643, "city": "Chaplynka", "images": []}, {"id": 396878, "min_date": "2018-08-23T00:36:00Z", "max_date": "2018-08-23T00:36:00Z", "count_points": 1, "latitude": 46.04672, "longitude": 33.64321, "city": "Suvorovo", "images": []}, {"id": 396879, "min_date": "2018-08-23T00:36:00Z", "max_date": "2018-08-23T00:36:00Z", "count_points": 1, "latitude": 48.36153, "longitude": 37.87901, "city": "Dzerzhyns\u2019k", "images": []}, {"id": 396880, "min_date": "2018-08-23T00:36:00Z", "max_date": "2018-08-23T00:36:00Z", "count_points": 1, "latitude": 48.72541, "longitude": 27.74238, "city": "Vendychany", "images": []}, {"id": 396881, "min_date": "2018-08-23T00:36:00Z", "max_date": "2018-08-23T00:36:00Z", "count_points": 1, "latitude": 49.30186, "longitude": 28.48582, "city": "Vinnytsia", "images": []}, {"id": 396882, "min_date": "2018-08-23T08:42:00Z", "max_date": "2018-08-23T10:33:00Z", "count_points": 5, "latitude": 48.0316, "longitude": 38.95329, "city": "Miusyns\u2019k", "images": []}, {"id": 396883, "min_date": "2018-08-23T08:42:00Z", "max_date": "2018-08-23T10:33:00Z", "count_points": 9, "latitude": 48.5496, "longitude": 38.23903, "city": "Luhans\u2019ke", "images": []}, {"id": 396884, "min_date": "2018-08-23T08:42:00Z", "max_date": "2018-08-23T08:49:00Z", "count_points": 3, "latitude": 48.68897, "longitude": 38.75618, "city": "Frunze", "images": []}, {"id": 396885, "min_date": "2018-08-23T08:42:00Z", "max_date": "2018-08-23T10:33:00Z", "count_points": 4, "latitude": 48.55077, "longitude": 37.80802, "city": "Chasiv Yar", "images": []}, {"id": 396886, "min_date": "2018-08-23T08:42:00Z", "max_date": "2018-08-23T10:33:00Z", "count_points": 22, "latitude": 48.7247, "longitude": 38.71423, "city": "Frunze", "images": []}, {"id": 396887, "min_date": "2018-08-23T08:42:00Z", "max_date": "2018-08-23T08:49:00Z", "count_points": 6, "latitude": 49.17198, "longitude": 36.42507, "city": "Krasnopavlivka", "images": []}, {"id": 396888, "min_date": "2018-08-23T08:42:00Z", "max_date": "2018-08-23T08:49:00Z", "count_points": 7, "latitude": 47.85164, "longitude": 39.6971, "city": "Biryukove", "images": []}, {"id": 396889, "min_date": "2018-08-23T10:24:00Z", "max_date": "2018-08-24T11:48:00Z", "count_points": 3, "latitude": 49.26187, "longitude": 26.12243, "city": "Hrymayliv", "images": []}, {"id": 396890, "min_date": "2018-08-23T10:24:00Z", "max_date": "2018-08-23T10:24:00Z", "count_points": 1, "latitude": 49.27506, "longitude": 25.53912, "city": "Mikulintsy", "images": []}, {"id": 396891, "min_date": "2018-08-23T10:24:00Z", "max_date": "2018-08-23T10:34:00Z", "count_points": 6, "latitude": 49.51307, "longitude": 23.62738, "city": "Komarno", "images": []}, {"id": 396892, "min_date": "2018-08-23T10:24:00Z", "max_date": "2018-08-23T10:24:00Z", "count_points": 1, "latitude": 49.12767, "longitude": 33.26877, "city": "Svitlovods\u2019k", "images": []}, {"id": 396893, "min_date": "2018-08-23T10:24:00Z", "max_date": "2018-08-25T08:37:00Z", "count_points": 4, "latitude": 49.35752, "longitude": 39.26791, "city": "Novopskov", "images": []}, {"id": 396894, "min_date": "2018-08-23T10:24:00Z", "max_date": "2018-08-23T10:24:00Z", "count_points": 1, "latitude": 49.03086, "longitude": 39.24231, "city": "Novoaydar", "images": []}, {"id": 396895, "min_date": "2018-08-23T10:24:00Z", "max_date": "2018-08-23T10:24:00Z", "count_points": 1, "latitude": 48.97514, "longitude": 33.52988, "city": "Kamennyye Potoki", "images": []}, {"id": 396896, "min_date": "2018-08-23T10:24:00Z", "max_date": "2018-08-23T10:24:00Z", "count_points": 1, "latitude": 48.60199, "longitude": 33.91316, "city": "Lykhivka", "images": []}, {"id": 396897, "min_date": "2018-08-23T10:24:00Z", "max_date": "2018-08-23T10:24:00Z", "count_points": 3, "latitude": 50.75056, "longitude": 31.83436, "city": "Talalayivka", "images": []}, {"id": 396898, "min_date": "2018-08-23T10:24:00Z", "max_date": "2018-08-23T10:34:00Z", "count_points": 3, "latitude": 50.67726, "longitude": 31.51289, "city": "Bobrovytsya", "images": []}, {"id": 396899, "min_date": "2018-08-23T10:24:00Z", "max_date": "2018-08-23T10:24:00Z", "count_points": 1, "latitude": 48.53987, "longitude": 34.54121, "city": "Kamianske", "images": []}, {"id": 396900, "min_date": "2018-08-23T10:24:00Z", "max_date": "2018-08-23T10:34:00Z", "count_points": 4, "latitude": 49.10788, "longitude": 26.11853, "city": "Husiatyn", "images": []}, {"id": 396901, "min_date": "2018-08-23T10:24:00Z", "max_date": "2018-08-26T09:20:00Z", "count_points": 16, "latitude": 48.96826, "longitude": 26.12626, "city": "Husiatyn", "images": []}, {"id": 396902, "min_date": "2018-08-23T10:24:00Z", "max_date": "2018-08-23T10:24:00Z", "count_points": 1, "latitude": 48.92157, "longitude": 25.63332, "city": "Nyrkiv", "images": []}, {"id": 396903, "min_date": "2018-08-23T10:24:00Z", "max_date": "2018-08-23T12:06:00Z", "count_points": 4, "latitude": 50.06761, "longitude": 27.25637, "city": "Shepetivka", "images": []}, {"id": 396904, "min_date": "2018-08-23T10:24:00Z", "max_date": "2018-08-23T10:24:00Z", "count_points": 1, "latitude": 49.12631, "longitude": 25.40931, "city": "Buchach", "images": []}, {"id": 396905, "min_date": "2018-08-23T10:24:00Z", "max_date": "2018-08-23T10:33:00Z", "count_points": 8, "latitude": 46.14037, "longitude": 32.46537, "city": "Lazurne", "images": []}, {"id": 396906, "min_date": "2018-08-23T10:24:00Z", "max_date": "2018-08-23T10:24:00Z", "count_points": 1, "latitude": 51.00235, "longitude": 28.41035, "city": "Luhyny", "images": []}, {"id": 396907, "min_date": "2018-08-23T10:24:00Z", "max_date": "2018-08-23T08:50:00Z", "count_points": 2, "latitude": 46.50914, "longitude": 30.09298, "city": "Bilyayivka", "images": []}, {"id": 396908, "min_date": "2018-08-23T10:24:00Z", "max_date": "2018-08-23T10:33:00Z", "count_points": 5, "latitude": 48.30881, "longitude": 33.37268, "city": "Petrove", "images": []}, {"id": 396909, "min_date": "2018-08-23T10:24:00Z", "max_date": "2018-08-23T10:24:00Z", "count_points": 1, "latitude": 47.91568, "longitude": 33.36389, "city": "Kryvyi Rih", "images": []}, {"id": 396910, "min_date": "2018-08-23T10:24:00Z", "max_date": "2018-08-23T10:24:00Z", "count_points": 1, "latitude": 47.18293, "longitude": 34.19413, "city": "Verkhniy Rohachyk", "images": []}, {"id": 396911, "min_date": "2018-08-23T10:24:00Z", "max_date": "2018-08-23T10:24:00Z", "count_points": 1, "latitude": 47.84989, "longitude": 32.00636, "city": "Yelanets\u2019", "images": []}, {"id": 396912, "min_date": "2018-08-23T10:24:00Z", "max_date": "2018-08-24T11:48:00Z", "count_points": 3, "latitude": 47.27759, "longitude": 34.29254, "city": "Verkhniy Rohachyk", "images": []}, {"id": 396913, "min_date": "2018-08-23T10:24:00Z", "max_date": "2018-08-23T10:33:00Z", "count_points": 5, "latitude": 48.24066, "longitude": 37.23226, "city": "Myrnohrad", "images": []}, {"id": 396914, "min_date": "2018-08-23T10:24:00Z", "max_date": "2018-08-23T10:24:00Z", "count_points": 1, "latitude": 48.42228, "longitude": 37.78759, "city": "Shcherbynivka", "images": []}, {"id": 396915, "min_date": "2018-08-23T10:24:00Z", "max_date": "2018-08-23T10:24:00Z", "count_points": 2, "latitude": 47.85598, "longitude": 37.06271, "city": "Velyka Novosilka", "images": []}, {"id": 396916, "min_date": "2018-08-23T10:24:00Z", "max_date": "2018-08-23T10:24:00Z", "count_points": 1, "latitude": 47.62667, "longitude": 37.03362, "city": "Rozivka", "images": []}, {"id": 396917, "min_date": "2018-08-23T10:24:00Z", "max_date": "2018-08-23T08:50:00Z", "count_points": 3, "latitude": 47.07943, "longitude": 35.59297, "city": "Terpinnya", "images": []}, {"id": 396918, "min_date": "2018-08-23T10:24:00Z", "max_date": "2018-08-23T10:34:00Z", "count_points": 10, "latitude": 50.76725, "longitude": 32.14033, "city": "Lisovi Sorochyntsi", "images": []}, {"id": 396919, "min_date": "2018-08-23T10:24:00Z", "max_date": "2018-08-23T10:34:00Z", "count_points": 4, "latitude": 50.21955, "longitude": 31.27837, "city": "Baryshivka", "images": []}, {"id": 396920, "min_date": "2018-08-23T10:24:00Z", "max_date": "2018-08-23T10:24:00Z", "count_points": 1, "latitude": 50.6343, "longitude": 34.17278, "city": "Lebedyn", "images": []}, {"id": 396921, "min_date": "2018-08-23T10:24:00Z", "max_date": "2018-08-24T11:48:00Z", "count_points": 2, "latitude": 47.83578, "longitude": 29.77097, "city": "Balta", "images": []}, {"id": 396922, "min_date": "2018-08-23T10:24:00Z", "max_date": "2018-08-23T10:24:00Z", "count_points": 1, "latitude": 47.60422, "longitude": 36.99637, "city": "Rozivka", "images": []}, {"id": 396923, "min_date": "2018-08-23T10:24:00Z", "max_date": "2018-08-23T10:24:00Z", "count_points": 1, "latitude": 50.04664, "longitude": 27.11964, "city": "Shepetivka", "images": []}, {"id": 396924, "min_date": "2018-08-23T10:24:00Z", "max_date": "2018-08-23T10:24:00Z", "count_points": 1, "latitude": 49.85372, "longitude": 26.4796, "city": "Teofipol", "images": []}, {"id": 396925, "min_date": "2018-08-23T10:24:00Z", "max_date": "2018-08-25T23:42:00Z", "count_points": 6, "latitude": 49.76749, "longitude": 26.85134, "city": "Antoniny", "images": []}, {"id": 396926, "min_date": "2018-08-23T10:24:00Z", "max_date": "2018-08-23T10:24:00Z", "count_points": 1, "latitude": 50.543, "longitude": 25.52442, "city": "Mlyniv", "images": []}, {"id": 396927, "min_date": "2018-08-23T10:24:00Z", "max_date": "2018-08-23T10:24:00Z", "count_points": 1, "latitude": 50.38392, "longitude": 26.69912, "city": "Netishyn", "images": []}, {"id": 396928, "min_date": "2018-08-23T10:24:00Z", "max_date": "2018-08-23T10:24:00Z", "count_points": 1, "latitude": 49.62873, "longitude": 38.21602, "city": "Nyzhnya Duvanka", "images": []}, {"id": 396929, "min_date": "2018-08-23T10:24:00Z", "max_date": "2018-08-23T10:34:00Z", "count_points": 12, "latitude": 49.06819, "longitude": 28.82499, "city": "Nemyriv", "images": []}, {"id": 396930, "min_date": "2018-08-23T10:24:00Z", "max_date": "2018-08-23T10:24:00Z", "count_points": 2, "latitude": 50.26076, "longitude": 31.61362, "city": "Yahotyn", "images": []}, {"id": 396931, "min_date": "2018-08-23T10:24:00Z", "max_date": "2018-08-23T10:24:00Z", "count_points": 2, "latitude": 46.12351, "longitude": 29.88804, "city": "Kulevcha", "images": []}, {"id": 396932, "min_date": "2018-08-23T10:24:00Z", "max_date": "2018-08-23T10:24:00Z", "count_points": 1, "latitude": 50.02697, "longitude": 23.95219, "city": "Zhovkva", "images": []}, {"id": 396933, "min_date": "2018-08-23T10:24:00Z", "max_date": "2018-08-23T10:24:00Z", "count_points": 1, "latitude": 46.33036, "longitude": 30.08404, "city": "Starokozache", "images": []}, {"id": 396934, "min_date": "2018-08-23T10:24:00Z", "max_date": "2018-08-23T10:24:00Z", "count_points": 1, "latitude": 46.14478, "longitude": 32.90479, "city": "Skadovs\u2019k", "images": []}, {"id": 396935, "min_date": "2018-08-23T10:24:00Z", "max_date": "2018-08-23T10:24:00Z", "count_points": 1, "latitude": 46.44857, "longitude": 35.31373, "city": "Kyrylivka", "images": []}, {"id": 396936, "min_date": "2018-08-23T10:24:00Z", "max_date": "2018-08-23T10:33:00Z", "count_points": 2, "latitude": 47.44184, "longitude": 35.26208, "city": "Vasylivka", "images": []}, {"id": 396937, "min_date": "2018-08-23T10:24:00Z", "max_date": "2018-08-24T10:06:00Z", "count_points": 3, "latitude": 47.40182, "longitude": 35.25561, "city": "Vasylivka", "images": []}, {"id": 396938, "min_date": "2018-08-23T10:24:00Z", "max_date": "2018-08-23T10:24:00Z", "count_points": 1, "latitude": 50.78061, "longitude": 24.29421, "city": "Volodymyr-Volynskyi", "images": []}, {"id": 396939, "min_date": "2018-08-23T10:24:00Z", "max_date": "2018-08-24T11:48:00Z", "count_points": 3, "latitude": 50.41136, "longitude": 24.14421, "city": "Chervonohrad", "images": []}, {"id": 396940, "min_date": "2018-08-23T10:24:00Z", "max_date": "2018-08-23T10:24:00Z", "count_points": 1, "latitude": 47.68686, "longitude": 29.72237, "city": "Podil\u2019s\u2019k", "images": []}, {"id": 396941, "min_date": "2018-08-23T10:24:00Z", "max_date": "2018-08-23T10:24:00Z", "count_points": 5, "latitude": 48.81524, "longitude": 25.74789, "city": "Tovste", "images": []}, {"id": 396942, "min_date": "2018-08-23T10:24:00Z", "max_date": "2018-08-23T08:50:00Z", "count_points": 4, "latitude": 47.69483, "longitude": 33.59931, "city": "Apostolove", "images": []}, {"id": 396943, "min_date": "2018-08-23T10:24:00Z", "max_date": "2018-08-23T10:24:00Z", "count_points": 1, "latitude": 47.14481, "longitude": 33.57684, "city": "Dudchany", "images": []}, {"id": 396944, "min_date": "2018-08-23T10:24:00Z", "max_date": "2018-08-23T10:24:00Z", "count_points": 1, "latitude": 49.58063, "longitude": 28.16053, "city": "Ulaniv", "images": []}, {"id": 396945, "min_date": "2018-08-23T10:24:00Z", "max_date": "2018-08-23T10:24:00Z", "count_points": 1, "latitude": 46.17436, "longitude": 34.0577, "city": "Krasnoarmeyskoye", "images": []}, {"id": 396946, "min_date": "2018-08-23T10:24:00Z", "max_date": "2018-08-25T10:22:00Z", "count_points": 4, "latitude": 49.19939, "longitude": 26.3023, "city": "Zakupne", "images": []}, {"id": 396947, "min_date": "2018-08-23T10:24:00Z", "max_date": "2018-08-23T10:24:00Z", "count_points": 1, "latitude": 46.58393, "longitude": 33.78138, "city": "Askaniya-Nova", "images": []}, {"id": 396948, "min_date": "2018-08-23T10:24:00Z", "max_date": "2018-08-23T10:24:00Z", "count_points": 1, "latitude": 48.34318, "longitude": 33.54641, "city": "Zhovti Vody", "images": []}, {"id": 396949, "min_date": "2018-08-23T10:24:00Z", "max_date": "2018-08-23T10:24:00Z", "count_points": 1, "latitude": 48.75211, "longitude": 25.51112, "city": "Horodenka", "images": []}, {"id": 396950, "min_date": "2018-08-23T10:24:00Z", "max_date": "2018-08-23T10:33:00Z", "count_points": 3, "latitude": 47.25067, "longitude": 33.85168, "city": "Dudchany", "images": []}, {"id": 396951, "min_date": "2018-08-23T10:24:00Z", "max_date": "2018-08-23T10:24:00Z", "count_points": 1, "latitude": 45.64923, "longitude": 29.50198, "city": "Shevchenkove", "images": []}, {"id": 396952, "min_date": "2018-08-23T10:24:00Z", "max_date": "2018-08-23T10:32:00Z", "count_points": 5, "latitude": 45.17226, "longitude": 33.82224, "city": "Krymskoye", "images": []}, {"id": 396953, "min_date": "2018-08-23T10:24:00Z", "max_date": "2018-08-23T10:33:00Z", "count_points": 2, "latitude": 48.08013, "longitude": 31.23169, "city": "Lysa Hora", "images": []}, {"id": 396954, "min_date": "2018-08-23T10:24:00Z", "max_date": "2018-08-23T10:33:00Z", "count_points": 2, "latitude": 47.72742, "longitude": 33.2967, "city": "Shyroke", "images": []}, {"id": 396955, "min_date": "2018-08-23T10:24:00Z", "max_date": "2018-08-23T10:24:00Z", "count_points": 1, "latitude": 45.02397, "longitude": 33.84515, "city": "Novosyolovka", "images": []}, {"id": 396956, "min_date": "2018-08-23T10:24:00Z", "max_date": "2018-08-23T10:24:00Z", "count_points": 1, "latitude": 46.61609, "longitude": 31.07555, "city": "Yuzhne", "images": []}, {"id": 396957, "min_date": "2018-08-23T10:24:00Z", "max_date": "2018-08-23T10:24:00Z", "count_points": 1, "latitude": 46.66221, "longitude": 31.21736, "city": "Kobleve", "images": []}, {"id": 396958, "min_date": "2018-08-23T10:24:00Z", "max_date": "2018-08-23T10:34:00Z", "count_points": 2, "latitude": 50.1878, "longitude": 36.40281, "city": "Kulynychi", "images": []}, {"id": 396959, "min_date": "2018-08-23T10:24:00Z", "max_date": "2018-08-23T10:24:00Z", "count_points": 3, "latitude": 48.64315, "longitude": 36.527, "city": "Petropavlivka", "images": []}, {"id": 396960, "min_date": "2018-08-23T10:24:00Z", "max_date": "2018-08-23T10:24:00Z", "count_points": 1, "latitude": 49.65458, "longitude": 36.40723, "city": "Zmiyiv", "images": []}, {"id": 396961, "min_date": "2018-08-23T10:24:00Z", "max_date": "2018-08-23T08:49:00Z", "count_points": 2, "latitude": 52.11247, "longitude": 33.3626, "city": "Novhorod-Sivers\u2019kyy", "images": []}, {"id": 396962, "min_date": "2018-08-23T10:24:00Z", "max_date": "2018-08-23T10:33:00Z", "count_points": 2, "latitude": 47.62776, "longitude": 38.30509, "city": "Kuteynykove", "images": []}, {"id": 396963, "min_date": "2018-08-23T10:24:00Z", "max_date": "2018-08-23T10:24:00Z", "count_points": 1, "latitude": 48.53037, "longitude": 32.85244, "city": "Nova Praha", "images": []}, {"id": 396964, "min_date": "2018-08-23T10:24:00Z", "max_date": "2018-08-23T10:24:00Z", "count_points": 1, "latitude": 48.51887, "longitude": 33.15707, "city": "Novyy Starodub", "images": []}, {"id": 396965, "min_date": "2018-08-23T10:24:00Z", "max_date": "2018-08-23T10:24:00Z", "count_points": 2, "latitude": 49.85089, "longitude": 36.55725, "city": "Novopokrovka", "images": []}, {"id": 396966, "min_date": "2018-08-23T10:24:00Z", "max_date": "2018-08-23T10:33:00Z", "count_points": 7, "latitude": 48.22087, "longitude": 37.52389, "city": "Avdiyivka", "images": []}, {"id": 396967, "min_date": "2018-08-23T10:24:00Z", "max_date": "2018-08-23T10:33:00Z", "count_points": 2, "latitude": 49.56192, "longitude": 37.25596, "city": "Shevchenkove", "images": []}, {"id": 396968, "min_date": "2018-08-23T10:24:00Z", "max_date": "2018-08-23T10:33:00Z", "count_points": 2, "latitude": 48.58205, "longitude": 32.2265, "city": "Kropyvnytskyi", "images": []}, {"id": 396969, "min_date": "2018-08-23T10:24:00Z", "max_date": "2018-08-23T10:24:00Z", "count_points": 1, "latitude": 48.85579, "longitude": 29.19869, "city": "Ladyzhyn", "images": []}, {"id": 396970, "min_date": "2018-08-23T10:24:00Z", "max_date": "2018-08-23T10:34:00Z", "count_points": 11, "latitude": 49.56495, "longitude": 29.31444, "city": "Topory", "images": []}, {"id": 396971, "min_date": "2018-08-23T10:24:00Z", "max_date": "2018-08-23T10:24:00Z", "count_points": 1, "latitude": 48.84764, "longitude": 31.28691, "city": "Shpola", "images": []}, {"id": 396972, "min_date": "2018-08-23T10:24:00Z", "max_date": "2018-08-23T10:24:00Z", "count_points": 1, "latitude": 49.5377, "longitude": 32.37049, "city": "Chornobay", "images": []}, {"id": 396973, "min_date": "2018-08-23T10:24:00Z", "max_date": "2018-08-23T10:24:00Z", "count_points": 1, "latitude": 49.2234, "longitude": 36.55907, "city": "Krasnopavlivka", "images": []}, {"id": 396974, "min_date": "2018-08-23T10:24:00Z", "max_date": "2018-08-23T10:33:00Z", "count_points": 2, "latitude": 48.06247, "longitude": 39.61325, "city": "Sverdlovs\u2019k", "images": []}, {"id": 396975, "min_date": "2018-08-23T10:24:00Z", "max_date": "2018-08-23T10:24:00Z", "count_points": 1, "latitude": 47.82194, "longitude": 37.63742, "city": "Dokuchayevs\u2019k", "images": []}, {"id": 396976, "min_date": "2018-08-23T10:24:00Z", "max_date": "2018-08-25T10:21:00Z", "count_points": 10, "latitude": 48.77042, "longitude": 36.99783, "city": "Oleksandrivka", "images": []}, {"id": 396977, "min_date": "2018-08-23T10:24:00Z", "max_date": "2018-08-23T10:24:00Z", "count_points": 1, "latitude": 48.97572, "longitude": 36.66802, "city": "Blyznyuky", "images": []}, {"id": 396978, "min_date": "2018-08-23T10:24:00Z", "max_date": "2018-08-23T10:33:00Z", "count_points": 3, "latitude": 48.86973, "longitude": 32.14676, "city": "Oleksandrivka", "images": []}, {"id": 396979, "min_date": "2018-08-23T10:24:00Z", "max_date": "2018-08-23T10:34:00Z", "count_points": 3, "latitude": 48.59541, "longitude": 30.23946, "city": "Uman\u2019", "images": []}, {"id": 396980, "min_date": "2018-08-23T10:24:00Z", "max_date": "2018-08-23T10:24:00Z", "count_points": 1, "latitude": 48.38479, "longitude": 38.60019, "city": "Bayrachky", "images": []}, {"id": 396981, "min_date": "2018-08-23T10:24:00Z", "max_date": "2018-08-23T10:24:00Z", "count_points": 1, "latitude": 48.68895, "longitude": 37.9383, "city": "Artemivs\u2019k", "images": []}, {"id": 396982, "min_date": "2018-08-23T10:24:00Z", "max_date": "2018-08-23T10:24:00Z", "count_points": 2, "latitude": 48.39419, "longitude": 38.24594, "city": "Svetlodarsk", "images": []}, {"id": 396983, "min_date": "2018-08-23T10:24:00Z", "max_date": "2018-08-23T10:33:00Z", "count_points": 4, "latitude": 48.6664, "longitude": 38.67836, "city": "Kirovs\u2019k", "images": []}, {"id": 396984, "min_date": "2018-08-23T10:24:00Z", "max_date": "2018-08-23T10:24:00Z", "count_points": 2, "latitude": 49.00772, "longitude": 37.79459, "city": "Krasnyy Lyman", "images": []}, {"id": 396985, "min_date": "2018-08-23T10:24:00Z", "max_date": "2018-08-23T08:49:00Z", "count_points": 2, "latitude": 49.25606, "longitude": 34.24272, "city": "Novi Sanzhary", "images": []}, {"id": 396986, "min_date": "2018-08-23T10:24:00Z", "max_date": "2018-08-23T10:24:00Z", "count_points": 4, "latitude": 51.18082, "longitude": 32.92736, "city": "Bakhmach", "images": []}, {"id": 396987, "min_date": "2018-08-23T10:24:00Z", "max_date": "2018-08-23T10:24:00Z", "count_points": 1, "latitude": 51.63953, "longitude": 32.19462, "city": "Mena", "images": []}, {"id": 396988, "min_date": "2018-08-23T10:24:00Z", "max_date": "2018-08-23T10:34:00Z", "count_points": 2, "latitude": 51.17671, "longitude": 32.33131, "city": "Borzna", "images": []}, {"id": 396989, "min_date": "2018-08-23T10:24:00Z", "max_date": "2018-08-23T10:24:00Z", "count_points": 2, "latitude": 49.67753, "longitude": 37.55032, "city": "Kupjansk", "images": []}, {"id": 396990, "min_date": "2018-08-23T10:24:00Z", "max_date": "2018-08-23T10:24:00Z", "count_points": 1, "latitude": 51.58688, "longitude": 31.66857, "city": "Berezna", "images": []}, {"id": 396991, "min_date": "2018-08-23T10:24:00Z", "max_date": "2018-08-23T10:24:00Z", "count_points": 1, "latitude": 48.49509, "longitude": 32.2363, "city": "Kropyvnytskyi", "images": []}, {"id": 396992, "min_date": "2018-08-23T10:24:00Z", "max_date": "2018-08-23T10:24:00Z", "count_points": 1, "latitude": 51.38607, "longitude": 24.72564, "city": "Kovel", "images": []}, {"id": 396993, "min_date": "2018-08-23T10:24:00Z", "max_date": "2018-08-23T10:33:00Z", "count_points": 2, "latitude": 46.44768, "longitude": 34.76095, "city": "Partyzany", "images": []}, {"id": 396994, "min_date": "2018-08-23T10:24:00Z", "max_date": "2018-08-23T10:24:00Z", "count_points": 1, "latitude": 48.41557, "longitude": 30.36874, "city": "Holovanivs\u2019k", "images": []}, {"id": 396995, "min_date": "2018-08-23T10:24:00Z", "max_date": "2018-08-23T10:33:00Z", "count_points": 2, "latitude": 48.58568, "longitude": 35.62824, "city": "Melioratyvne", "images": []}, {"id": 396996, "min_date": "2018-08-23T10:24:00Z", "max_date": "2018-08-23T10:24:00Z", "count_points": 1, "latitude": 48.21419, "longitude": 34.5117, "city": "Krynychky", "images": []}, {"id": 396997, "min_date": "2018-08-23T10:24:00Z", "max_date": "2018-08-23T10:24:00Z", "count_points": 1, "latitude": 49.45056, "longitude": 24.30798, "city": "Khodoriv", "images": []}, {"id": 396998, "min_date": "2018-08-23T10:24:00Z", "max_date": "2018-08-23T10:24:00Z", "count_points": 3, "latitude": 46.82845, "longitude": 30.12776, "city": "Rozdil\u2019na", "images": []}, {"id": 396999, "min_date": "2018-08-23T10:24:00Z", "max_date": "2018-08-23T10:24:00Z", "count_points": 1, "latitude": 45.32744, "longitude": 34.3167, "city": "Rovnoye", "images": []}, {"id": 397000, "min_date": "2018-08-23T10:24:00Z", "max_date": "2018-08-22T09:45:00Z", "count_points": 7, "latitude": 46.35104, "longitude": 29.92206, "city": "Starokozache", "images": []}, {"id": 397001, "min_date": "2018-08-23T10:24:00Z", "max_date": "2018-08-23T10:33:00Z", "count_points": 2, "latitude": 46.77646, "longitude": 30.72712, "city": "Kremidivka", "images": []}, {"id": 397002, "min_date": "2018-08-23T10:24:00Z", "max_date": "2018-08-23T10:24:00Z", "count_points": 1, "latitude": 47.59868, "longitude": 31.35416, "city": "Voznesensk", "images": []}, {"id": 397003, "min_date": "2018-08-23T10:24:00Z", "max_date": "2018-08-23T10:24:00Z", "count_points": 1, "latitude": 50.93108, "longitude": 35.08786, "city": "Verkhnya Syrovatka", "images": []}, {"id": 397004, "min_date": "2018-08-23T12:06:00Z", "max_date": "2018-08-23T12:06:00Z", "count_points": 1, "latitude": 48.49109, "longitude": 22.82208, "city": "Chynadiyovo", "images": []}, {"id": 397005, "min_date": "2018-08-23T12:06:00Z", "max_date": "2018-08-25T11:30:00Z", "count_points": 5, "latitude": 49.02274, "longitude": 26.13969, "city": "Husiatyn", "images": []}, {"id": 397006, "min_date": "2018-08-23T12:06:00Z", "max_date": "2018-08-23T12:06:00Z", "count_points": 1, "latitude": 48.38316, "longitude": 22.5952, "city": "Strabychovo", "images": []}, {"id": 397007, "min_date": "2018-08-23T12:06:00Z", "max_date": "2018-08-23T12:06:00Z", "count_points": 1, "latitude": 49.1473, "longitude": 26.36722, "city": "Zakupne", "images": []}, {"id": 397008, "min_date": "2018-08-23T12:06:00Z", "max_date": "2018-08-23T12:06:00Z", "count_points": 1, "latitude": 49.09951, "longitude": 26.18582, "city": "Husiatyn", "images": []}, {"id": 397009, "min_date": "2018-08-23T12:06:00Z", "max_date": "2018-08-23T12:06:00Z", "count_points": 1, "latitude": 49.28407, "longitude": 25.72618, "city": "Terebovlya", "images": []}, {"id": 397010, "min_date": "2018-08-23T12:06:00Z", "max_date": "2018-08-23T12:06:00Z", "count_points": 1, "latitude": 49.22506, "longitude": 25.28954, "city": "Pidhaytsi", "images": []}, {"id": 397011, "min_date": "2018-08-23T12:06:00Z", "max_date": "2018-08-23T12:06:00Z", "count_points": 2, "latitude": 49.69202, "longitude": 29.91272, "city": "Volodarka", "images": []}, {"id": 397012, "min_date": "2018-08-23T12:06:00Z", "max_date": "2018-08-23T12:06:00Z", "count_points": 1, "latitude": 50.6352, "longitude": 24.58353, "city": "Lokachi", "images": []}, {"id": 397013, "min_date": "2018-08-23T22:36:00Z", "max_date": "2018-08-24T00:18:00Z", "count_points": 2, "latitude": 47.72754, "longitude": 30.00833, "city": "Ananyiv Pershyi", "images": []}, {"id": 397014, "min_date": "2018-08-23T22:36:00Z", "max_date": "2018-08-24T00:18:00Z", "count_points": 2, "latitude": 48.10156, "longitude": 39.05467, "city": "Kripens\u2019kyy", "images": []}, {"id": 397015, "min_date": "2018-08-23T22:36:00Z", "max_date": "2018-08-23T22:36:00Z", "count_points": 1, "latitude": 48.18752, "longitude": 37.18765, "city": "Krasnoarmiys\u2019k", "images": []}, {"id": 397016, "min_date": "2018-08-23T22:36:00Z", "max_date": "2018-08-23T22:36:00Z", "count_points": 1, "latitude": 46.97709, "longitude": 36.50489, "city": "Prymors\u2019k", "images": []}, {"id": 397017, "min_date": "2018-08-23T22:36:00Z", "max_date": "2018-08-23T22:36:00Z", "count_points": 1, "latitude": 46.86534, "longitude": 35.38637, "city": "Melitopol", "images": []},