[{"id": 404917, "min_date": "2018-11-06T00:30:00Z", "max_date": "2018-11-06T00:30:00Z", "count_points": 1, "latitude": 49.35448, "longitude": 32.16349, "city": "Chervona Sloboda", "images": []}, {"id": 404918, "min_date": "2018-11-06T00:30:00Z", "max_date": "2018-11-06T00:30:00Z", "count_points": 1, "latitude": 48.70474, "longitude": 22.4611, "city": "Perechyn", "images": []}, {"id": 404919, "min_date": "2018-11-06T00:30:00Z", "max_date": "2018-11-07T00:12:00Z", "count_points": 3, "latitude": 48.73564, "longitude": 22.81608, "city": "Poroshkovo", "images": []}, {"id": 404920, "min_date": "2018-11-06T10:18:00Z", "max_date": "2018-11-06T10:15:00Z", "count_points": 5, "latitude": 50.81517, "longitude": 32.46509, "city": "Ichnya", "images": []}, {"id": 404921, "min_date": "2018-11-06T10:18:00Z", "max_date": "2018-11-06T10:18:00Z", "count_points": 2, "latitude": 46.51096, "longitude": 33.12274, "city": "Brylivka", "images": []}, {"id": 404922, "min_date": "2018-11-06T10:18:00Z", "max_date": "2018-11-06T10:18:00Z", "count_points": 1, "latitude": 46.90216, "longitude": 30.57016, "city": "Ivanivka", "images": []}, {"id": 404923, "min_date": "2018-11-06T10:18:00Z", "max_date": "2018-11-06T10:18:00Z", "count_points": 1, "latitude": 48.25442, "longitude": 32.30982, "city": "Kompaniyivka", "images": []}, {"id": 404924, "min_date": "2018-11-06T10:18:00Z", "max_date": "2018-11-06T10:18:00Z", "count_points": 1, "latitude": 47.28381, "longitude": 34.27248, "city": "Verkhniy Rohachyk", "images": []}, {"id": 404925, "min_date": "2018-11-06T10:18:00Z", "max_date": "2018-11-06T10:18:00Z", "count_points": 2, "latitude": 45.14695, "longitude": 35.41228, "city": "Vladislavovka", "images": []}, {"id": 404926, "min_date": "2018-11-06T10:18:00Z", "max_date": "2018-11-06T10:18:00Z", "count_points": 2, "latitude": 50.96481, "longitude": 31.74432, "city": "Nizhyn", "images": []}, {"id": 404927, "min_date": "2018-11-06T10:18:00Z", "max_date": "2018-11-06T10:18:00Z", "count_points": 2, "latitude": 46.51913, "longitude": 32.60524, "city": "Hola Prystan\u2019", "images": []}, {"id": 404928, "min_date": "2018-11-06T10:18:00Z", "max_date": "2018-11-06T10:18:00Z", "count_points": 1, "latitude": 46.16703, "longitude": 33.29919, "city": "Kalanchak", "images": []}, {"id": 404929, "min_date": "2018-11-06T10:18:00Z", "max_date": "2018-11-06T10:18:00Z", "count_points": 3, "latitude": 46.16889, "longitude": 33.04273, "city": "Skadovs\u2019k", "images": []}, {"id": 404930, "min_date": "2018-11-06T10:18:00Z", "max_date": "2018-11-06T10:18:00Z", "count_points": 1, "latitude": 48.36201, "longitude": 30.08376, "city": "Blahovishchens\u2019ke", "images": []}, {"id": 404931, "min_date": "2018-11-06T10:18:00Z", "max_date": "2018-11-06T10:18:00Z", "count_points": 1, "latitude": 47.28496, "longitude": 30.70427, "city": "Berezivka", "images": []}, {"id": 404932, "min_date": "2018-11-06T10:18:00Z", "max_date": "2018-11-06T10:18:00Z", "count_points": 1, "latitude": 50.74321, "longitude": 29.99154, "city": "Borodianka", "images": []}, {"id": 404933, "min_date": "2018-11-06T10:18:00Z", "max_date": "2018-11-06T10:18:00Z", "count_points": 1, "latitude": 50.67256, "longitude": 30.11786, "city": "Vorzel\u2019", "images": []}, {"id": 404934, "min_date": "2018-11-06T10:18:00Z", "max_date": "2018-11-06T10:18:00Z", "count_points": 1, "latitude": 51.79463, "longitude": 31.80031, "city": "Shchors", "images": []}, {"id": 404935, "min_date": "2018-11-06T10:18:00Z", "max_date": "2018-11-06T10:18:00Z", "count_points": 1, "latitude": 47.73267, "longitude": 37.33637, "city": "Blahodatne", "images": []}, {"id": 404936, "min_date": "2018-11-06T10:18:00Z", "max_date": "2018-11-06T10:14:00Z", "count_points": 5, "latitude": 49.34917, "longitude": 35.99552, "city": "Chapayeve", "images": []}, {"id": 404937, "min_date": "2018-11-06T10:18:00Z", "max_date": "2018-11-06T10:18:00Z", "count_points": 1, "latitude": 51.81875, "longitude": 32.98384, "city": "Korop", "images": []}, {"id": 404938, "min_date": "2018-11-06T10:18:00Z", "max_date": "2018-11-06T10:18:00Z", "count_points": 2, "latitude": 50.71812, "longitude": 31.65551, "city": "Kobyzhcha", "images": []}, {"id": 404939, "min_date": "2018-11-06T10:18:00Z", "max_date": "2018-11-06T10:14:00Z", "count_points": 4, "latitude": 49.3807, "longitude": 34.04233, "city": "Reshetylivka", "images": []}, {"id": 404940, "min_date": "2018-11-06T10:18:00Z", "max_date": "2018-11-07T10:57:00Z", "count_points": 8, "latitude": 50.13421, "longitude": 34.30804, "city": "Zin\u2019kiv", "images": []}, {"id": 404941, "min_date": "2018-11-06T10:18:00Z", "max_date": "2018-11-07T09:14:00Z", "count_points": 4, "latitude": 46.82323, "longitude": 34.137, "city": "Nyzhni Sirohozy", "images": []}, {"id": 404942, "min_date": "2018-11-06T10:18:00Z", "max_date": "2018-11-06T12:00:00Z", "count_points": 3, "latitude": 51.1546, "longitude": 31.19097, "city": "Olyshivka", "images": []}, {"id": 404943, "min_date": "2018-11-06T10:18:00Z", "max_date": "2018-11-06T10:18:00Z", "count_points": 1, "latitude": 51.65923, "longitude": 31.4063, "city": "Sedniv", "images": []}, {"id": 404944, "min_date": "2018-11-06T10:18:00Z", "max_date": "2018-11-06T10:18:00Z", "count_points": 1, "latitude": 51.68348, "longitude": 31.69814, "city": "Sedniv", "images": []}, {"id": 404945, "min_date": "2018-11-06T10:18:00Z", "max_date": "2018-11-06T10:18:00Z", "count_points": 1, "latitude": 47.38054, "longitude": 38.22081, "city": "Tel\u2019manove", "images": []}, {"id": 404946, "min_date": "2018-11-06T10:18:00Z", "max_date": "2018-11-06T10:18:00Z", "count_points": 1, "latitude": 51.11249, "longitude": 31.7284, "city": "Nizhyn", "images": []}, {"id": 404947, "min_date": "2018-11-06T10:18:00Z", "max_date": "2018-11-06T10:18:00Z", "count_points": 1, "latitude": 51.22384, "longitude": 34.19641, "city": "Vorozhba", "images": []}, {"id": 404948, "min_date": "2018-11-06T10:18:00Z", "max_date": "2018-11-06T10:18:00Z", "count_points": 1, "latitude": 49.43547, "longitude": 34.03436, "city": "Reshetylivka", "images": []}, {"id": 404949, "min_date": "2018-11-06T10:18:00Z", "max_date": "2018-11-06T10:18:00Z", "count_points": 1, "latitude": 50.33942, "longitude": 32.05117, "city": "Chernyakhivka", "images": []}, {"id": 404950, "min_date": "2018-11-06T10:18:00Z", "max_date": "2018-11-06T10:18:00Z", "count_points": 1, "latitude": 50.37403, "longitude": 32.36111, "city": "Pyryatyn", "images": []}, {"id": 404951, "min_date": "2018-11-06T10:18:00Z", "max_date": "2018-11-06T10:15:00Z", "count_points": 3, "latitude": 49.92381, "longitude": 32.98737, "city": "Lubny", "images": []}, {"id": 404952, "min_date": "2018-11-06T10:18:00Z", "max_date": "2018-11-06T10:18:00Z", "count_points": 1, "latitude": 49.62877, "longitude": 33.23989, "city": "Semenivka", "images": []}, {"id": 404953, "min_date": "2018-11-06T10:18:00Z", "max_date": "2018-11-06T10:18:00Z", "count_points": 1, "latitude": 50.04711, "longitude": 32.24811, "city": "Drabiv", "images": []}, {"id": 404954, "min_date": "2018-11-06T10:18:00Z", "max_date": "2018-11-06T10:18:00Z", "count_points": 1, "latitude": 49.17849, "longitude": 36.06598, "city": "Sakhnovshchyna", "images": []}, {"id": 404955, "min_date": "2018-11-06T10:18:00Z", "max_date": "2018-11-06T10:18:00Z", "count_points": 1, "latitude": 49.64911, "longitude": 31.99119, "city": "Zolotonosha", "images": []}, {"id": 404956, "min_date": "2018-11-06T10:18:00Z", "max_date": "2018-11-06T10:18:00Z", "count_points": 1, "latitude": 49.44012, "longitude": 33.15875, "city": "Hlobyne", "images": []}, {"id": 404957, "min_date": "2018-11-06T10:18:00Z", "max_date": "2018-11-06T10:18:00Z", "count_points": 1, "latitude": 50.04745, "longitude": 31.10483, "city": "Rzhyshchiv", "images": []}, {"id": 404958, "min_date": "2018-11-06T10:18:00Z", "max_date": "2018-11-06T10:14:00Z", "count_points": 2, "latitude": 48.76181, "longitude": 31.0515, "city": "Katerynopil", "images": []}, {"id": 404959, "min_date": "2018-11-06T12:00:00Z", "max_date": "2018-11-06T12:00:00Z", "count_points": 1, "latitude": 48.58979, "longitude": 30.32719, "city": "Babanka", "images": []}, {"id": 404960, "min_date": "2018-11-07T00:12:00Z", "max_date": "2018-11-07T00:12:00Z", "count_points": 1, "latitude": 50.35467, "longitude": 30.53887, "city": "Khotiv", "images": []}, {"id": 404961, "min_date": "2018-11-07T00:12:00Z", "max_date": "2018-11-06T19:40:00Z", "count_points": 2, "latitude": 46.6291, "longitude": 30.99741, "city": "Yuzhne", "images": []}, {"id": 404962, "min_date": "2018-11-07T00:12:00Z", "max_date": "2018-11-07T00:12:00Z", "count_points": 2, "latitude": 46.98585, "longitude": 32.08091, "city": "Mykolayiv", "images": []}, {"id": 404963, "min_date": "2018-11-07T10:00:00Z", "max_date": "2018-11-07T09:13:00Z", "count_points": 2, "latitude": 50.58086, "longitude": 28.01208, "city": "Dovbysh", "images": []}, {"id": 404964, "min_date": "2018-11-07T10:00:00Z", "max_date": "2018-11-07T10:00:00Z", "count_points": 1, "latitude": 49.20461, "longitude": 33.56693, "city": "Kremenchuk", "images": []}, {"id": 404965, "min_date": "2018-11-07T10:00:00Z", "max_date": "2018-11-07T10:00:00Z", "count_points": 2, "latitude": 48.01674, "longitude": 35.39323, "city": "Vil\u2019nyans\u2019k", "images": []}, {"id": 404966, "min_date": "2018-11-07T10:00:00Z", "max_date": "2018-11-07T10:58:00Z", "count_points": 5, "latitude": 51.57598, "longitude": 27.13901, "city": "Rokytne", "images": []}, {"id": 404967, "min_date": "2018-11-07T10:00:00Z", "max_date": "2018-11-07T10:00:00Z", "count_points": 1, "latitude": 47.51141, "longitude": 38.09974, "city": "Tel\u2019manove", "images": []}, {"id": 404968, "min_date": "2018-11-07T10:00:00Z", "max_date": "2018-11-07T09:14:00Z", "count_points": 3, "latitude": 46.07103, "longitude": 33.46057, "city": "Suvorovo", "images": []}, {"id": 404969, "min_date": "2018-11-07T10:00:00Z", "max_date": "2018-11-07T10:00:00Z", "count_points": 1, "latitude": 48.91084, "longitude": 25.97864, "city": "Borshchiv", "images": []}, {"id": 404970, "min_date": "2018-11-07T10:00:00Z", "max_date": "2018-11-07T10:00:00Z", "count_points": 2, "latitude": 47.06738, "longitude": 30.78317, "city": "Berezivka", "images": []}, {"id": 404971, "min_date": "2018-11-07T10:00:00Z", "max_date": "2018-11-07T10:57:00Z", "count_points": 2, "latitude": 47.96906, "longitude": 32.41148, "city": "Ustynivka", "images": []}, {"id": 404972, "min_date": "2018-11-07T10:00:00Z", "max_date": "2018-11-09T10:44:00Z", "count_points": 11, "latitude": 46.21272, "longitude": 33.27833, "city": "Kalanchak", "images": []}, {"id": 404973, "min_date": "2018-11-07T10:00:00Z", "max_date": "2018-11-07T10:00:00Z", "count_points": 1, "latitude": 49.52981, "longitude": 37.11328, "city": "Savyntsi", "images": []}, {"id": 404974, "min_date": "2018-11-07T10:00:00Z", "max_date": "2018-11-07T10:00:00Z", "count_points": 1, "latitude": 48.80117, "longitude": 30.49182, "city": "Babanka", "images": []}, {"id": 404975, "min_date": "2018-11-07T10:00:00Z", "max_date": "2018-11-07T10:58:00Z", "count_points": 11, "latitude": 51.80353, "longitude": 26.14614, "city": "Zarichne", "images": [{"image_url": "404975.jpg", "timestamp": "2018-11-07T10:58:00Z"}]}, {"id": 404976, "min_date": "2018-11-07T10:00:00Z", "max_date": "2018-11-07T10:00:00Z", "count_points": 1, "latitude": 48.78569, "longitude": 36.32593, "city": "Lozova", "images": []}, {"id": 404977, "min_date": "2018-11-07T10:00:00Z", "max_date": "2018-11-07T10:58:00Z", "count_points": 3, "latitude": 51.72531, "longitude": 30.98161, "city": "Ripky", "images": []}, {"id": 404978, "min_date": "2018-11-07T10:00:00Z", "max_date": "2018-11-09T11:06:00Z", "count_points": 8, "latitude": 51.47901, "longitude": 28.88672, "city": "Pershotravneve", "images": [{"image_url": "404978.jpg", "timestamp": "2018-11-09T11:06:00Z"}]}, {"id": 404979, "min_date": "2018-11-07T10:00:00Z", "max_date": "2018-11-07T10:00:00Z", "count_points": 1, "latitude": 50.50701, "longitude": 29.64022, "city": "Kodra", "images": []}, {"id": 404980, "min_date": "2018-11-07T10:00:00Z", "max_date": "2018-11-07T09:13:00Z", "count_points": 2, "latitude": 51.08681, "longitude": 29.92212, "city": "Ivankiv", "images": []}, {"id": 404981, "min_date": "2018-11-07T10:00:00Z", "max_date": "2018-11-09T11:06:00Z", "count_points": 3, "latitude": 51.37299, "longitude": 28.74721, "city": "Ovruch", "images": []}, {"id": 404982, "min_date": "2018-11-07T10:00:00Z", "max_date": "2018-11-07T10:00:00Z", "count_points": 1, "latitude": 51.38685, "longitude": 29.15642, "city": "Narodychi", "images": []}, {"id": 404983, "min_date": "2018-11-07T10:00:00Z", "max_date": "2018-11-07T10:00:00Z", "count_points": 2, "latitude": 48.75579, "longitude": 26.49622, "city": "Smotrych", "images": []}, {"id": 404984, "min_date": "2018-11-07T10:00:00Z", "max_date": "2018-11-07T10:00:00Z", "count_points": 1, "latitude": 50.99519, "longitude": 27.31086, "city": "Horodnytsya", "images": []}, {"id": 404985, "min_date": "2018-11-07T10:00:00Z", "max_date": "2018-11-07T10:00:00Z", "count_points": 1, "latitude": 50.25875, "longitude": 34.27296, "city": "Zin\u2019kiv", "images": []}, {"id": 404986, "min_date": "2018-11-07T10:00:00Z", "max_date": "2018-11-07T10:00:00Z", "count_points": 1, "latitude": 47.52961, "longitude": 37.79489, "city": "Dokuchayevs\u2019k", "images": []}, {"id": 404987, "min_date": "2018-11-07T10:00:00Z", "max_date": "2018-11-07T10:00:00Z", "count_points": 1, "latitude": 51.55527, "longitude": 27.20231, "city": "Rokytne", "images": []}, {"id": 404988, "min_date": "2018-11-07T10:00:00Z", "max_date": "2018-11-07T10:00:00Z", "count_points": 1, "latitude": 51.05215, "longitude": 26.38781, "city": "Kostopil\u2019", "images": []}, {"id": 404989, "min_date": "2018-11-07T10:00:00Z", "max_date": "2018-11-07T10:00:00Z", "count_points": 1, "latitude": 51.6812, "longitude": 26.66136, "city": "Dubrovytsya", "images": []}, {"id": 404990, "min_date": "2018-11-07T10:00:00Z", "max_date": "2018-11-07T09:13:00Z", "count_points": 2, "latitude": 50.93076, "longitude": 32.36778, "city": "Ichnya", "images": []}, {"id": 404991, "min_date": "2018-11-07T10:00:00Z", "max_date": "2018-11-07T10:00:00Z", "count_points": 1, "latitude": 48.68287, "longitude": 35.01319, "city": "Spas\u2019ke", "images": []}, {"id": 404992, "min_date": "2018-11-07T10:00:00Z", "max_date": "2018-11-07T09:12:00Z", "count_points": 3, "latitude": 52.23916, "longitude": 33.65345, "city": "Yampil\u2019", "images": []}, {"id": 404993, "min_date": "2018-11-07T10:00:00Z", "max_date": "2018-11-07T10:00:00Z", "count_points": 1, "latitude": 50.17565, "longitude": 34.04954, "city": "Velyki Sorochyntsi", "images": []}, {"id": 404994, "min_date": "2018-11-07T10:00:00Z", "max_date": "2018-11-07T10:00:00Z", "count_points": 1, "latitude": 48.03827, "longitude": 39.21474, "city": "Millerovo", "images": []}, {"id": 404995, "min_date": "2018-11-07T10:00:00Z", "max_date": "2018-11-07T10:00:00Z", "count_points": 1, "latitude": 48.76691, "longitude": 39.39291, "city": "Stanytsya Luhans\u2019ka", "images": []}, {"id": 404996, "min_date": "2018-11-07T11:42:00Z", "max_date": "2018-11-07T11:42:00Z", "count_points": 1, "latitude": 48.67765, "longitude": 35.41709, "city": "Melioratyvne", "images": []}, {"id": 404997, "min_date": "2018-11-07T11:42:00Z", "max_date": "2018-11-07T11:42:00Z", "count_points": 1, "latitude": 50.8106, "longitude": 33.861, "city": "Nedryhayliv", "images": []}, {"id": 404998, "min_date": "2018-11-07T11:42:00Z", "max_date": "2018-11-07T11:42:00Z", "count_points": 1, "latitude": 48.4068, "longitude": 26.93577, "city": "Kel\u2019mentsi", "images": []}, {"id": 404999, "min_date": "2018-11-07T11:42:00Z", "max_date": "2018-11-07T10:57:00Z", "count_points": 3, "latitude": 48.94985, "longitude": 26.68493, "city": "Makiv", "images": []}, {"id": 405000, "min_date": "2018-11-07T11:42:00Z", "max_date": "2018-11-07T11:42:00Z", "count_points": 1, "latitude": 48.8499, "longitude": 26.07612, "city": "Borshchiv", "images": []}, {"id": 405001, "min_date": "2018-11-07T11:42:00Z", "max_date": "2018-11-07T11:42:00Z", "count_points": 3, "latitude": 48.04286, "longitude": 28.99409, "city": "Zagnitkiv", "images": []}, {"id": 405002, "min_date": "2018-11-07T11:42:00Z", "max_date": "2018-11-07T11:42:00Z", "count_points": 1, "latitude": 48.99737, "longitude": 26.12378, "city": "Husiatyn", "images": []}, {"id": 405003, "min_date": "2018-11-07T11:42:00Z", "max_date": "2018-11-10T11:27:00Z", "count_points": 3, "latitude": 46.19655, "longitude": 33.08953, "city": "Skadovs\u2019k", "images": []}, {"id": 405004, "min_date": "2018-11-07T11:42:00Z", "max_date": "2018-11-07T11:42:00Z", "count_points": 1, "latitude": 48.4179, "longitude": 28.27451, "city": "Klembivka", "images": []}, {"id": 405005, "min_date": "2018-11-07T11:42:00Z", "max_date": "2018-11-07T11:42:00Z", "count_points": 1, "latitude": 50.60025, "longitude": 34.18045, "city": "Hadyach", "images": []}, {"id": 405006, "min_date": "2018-11-07T11:42:00Z", "max_date": "2018-11-07T11:42:00Z", "count_points": 1, "latitude": 49.10673, "longitude": 25.57842, "city": "Druzhba", "images": []}, {"id": 405007, "min_date": "2018-11-07T11:42:00Z", "max_date": "2018-11-07T10:58:00Z", "count_points": 11, "latitude": 51.00058, "longitude": 34.19899, "city": "Vorozhba", "images": []}, {"id": 405008, "min_date": "2018-11-07T11:42:00Z", "max_date": "2018-11-09T11:00:00Z", "count_points": 5, "latitude": 49.87589, "longitude": 26.50681, "city": "Teofipol", "images": []}, {"id": 405009, "min_date": "2018-11-07T11:42:00Z", "max_date": "2018-11-07T11:42:00Z", "count_points": 2, "latitude": 50.50763, "longitude": 25.74892, "city": "Dubno", "images": []}, {"id": 405010, "min_date": "2018-11-07T11:42:00Z", "max_date": "2018-11-07T11:42:00Z", "count_points": 1, "latitude": 48.579, "longitude": 27.88486, "city": "Vendychany", "images": []}, {"id": 405011, "min_date": "2018-11-07T11:42:00Z", "max_date": "2018-11-09T11:00:00Z", "count_points": 3, "latitude": 49.47617, "longitude": 28.43577, "city": "Pavlovka", "images": []}, {"id": 405012, "min_date": "2018-11-07T11:42:00Z", "max_date": "2018-11-07T11:42:00Z", "count_points": 3, "latitude": 48.37302, "longitude": 28.00222, "city": "Chernivtsi", "images": []}, {"id": 405013, "min_date": "2018-11-07T11:42:00Z", "max_date": "2018-11-07T11:42:00Z", "count_points": 1, "latitude": 48.48139, "longitude": 28.04928, "city": "Chernivtsi", "images": []}, {"id": 405014, "min_date": "2018-11-07T11:42:00Z", "max_date": "2018-11-07T10:57:00Z", "count_points": 3, "latitude": 48.00327, "longitude": 35.58319, "city": "Vil\u2019nyans\u2019k", "images": []}, {"id": 405015, "min_date": "2018-11-07T11:42:00Z", "max_date": "2018-11-07T11:42:00Z", "count_points": 1, "latitude": 51.31961, "longitude": 29.16639, "city": "Narodychi", "images": []}, {"id": 405016, "min_date": "2018-11-07T11:42:00Z", "max_date": "2018-11-07T11:42:00Z", "count_points": 1, "latitude": 48.19795, "longitude": 29.71576, "city": "Peschana", "images": []}, {"id": 405017, "min_date": "2018-11-07T11:42:00Z", "max_date": "2018-11-10T11:27:00Z", "count_points": 10, "latitude": 46.21938, "longitude": 32.19722, "city": "Bekhtery", "images": []}, {"id": 405018, "min_date": "2018-11-07T11:42:00Z", "max_date": "2018-11-07T11:42:00Z", "count_points": 2, "latitude": 48.33219, "longitude": 31.08992, "city": "Dobrovelychkivka", "images": []}, {"id": 405019, "min_date": "2018-11-07T11:42:00Z", "max_date": "2018-11-07T11:42:00Z", "count_points": 1, "latitude": 48.01103, "longitude": 29.21633, "city": "Kodyma", "images": []}, {"id": 405020, "min_date": "2018-11-07T11:42:00Z", "max_date": "2018-11-07T10:57:00Z", "count_points": 2, "latitude": 47.50432, "longitude": 30.10247, "city": "Shyryayeve", "images": []}, {"id": 405021, "min_date": "2018-11-07T11:42:00Z", "max_date": "2018-11-07T11:42:00Z", "count_points": 2, "latitude": 48.55538, "longitude": 31.66312, "city": "Mala Vyska", "images": []}, {"id": 405022, "min_date": "2018-11-07T11:42:00Z", "max_date": "2018-11-07T11:42:00Z", "count_points": 1, "latitude": 49.4114, "longitude": 30.6881, "city": "Lysyanka", "images": []}, {"id": 405023, "min_date": "2018-11-07T11:42:00Z", "max_date": "2018-11-07T11:42:00Z", "count_points": 1, "latitude": 48.55754, "longitude": 30.002, "city": "Hayvoron", "images": []}, {"id": 405024, "min_date": "2018-11-07T11:42:00Z", "max_date": "2018-11-10T10:42:00Z", "count_points": 2, "latitude": 48.75848, "longitude": 29.66766, "city": "Teplyk", "images": []}, {"id": 405025, "min_date": "2018-11-07T11:42:00Z", "max_date": "2018-11-07T11:42:00Z", "count_points": 1, "latitude": 48.73439, "longitude": 29.87699, "city": "Khrystynivka", "images": []}, {"id": 405026, "min_date": "2018-11-07T11:42:00Z", "max_date": "2018-11-07T11:42:00Z", "count_points": 2, "latitude": 50.5039, "longitude": 33.0213, "city": "Sribne", "images": []}, {"id": 405027, "min_date": "2018-11-07T11:42:00Z", "max_date": "2018-11-07T10:57:00Z", "count_points": 4, "latitude": 48.03799, "longitude": 29.72124, "city": "Peschana", "images": []}, {"id": 405028, "min_date": "2018-11-07T11:42:00Z", "max_date": "2018-11-07T11:42:00Z", "count_points": 1, "latitude": 48.35248, "longitude": 25.55958, "city": "Vashkivtsi", "images": []}, {"id": 405029, "min_date": "2018-11-07T11:42:00Z", "max_date": "2018-11-07T10:57:00Z", "count_points": 5, "latitude": 48.4368, "longitude": 29.83973, "city": "Hayvoron", "images": []}, {"id": 405030, "min_date": "2018-11-07T11:42:00Z", "max_date": "2018-11-07T11:42:00Z", "count_points": 1, "latitude": 50.32993, "longitude": 31.95475, "city": "Chernyakhivka", "images": []}, {"id": 405031, "min_date": "2018-11-07T11:42:00Z", "max_date": "2018-11-07T10:57:00Z", "count_points": 8, "latitude": 50.05388, "longitude": 33.41918, "city": "Romodan", "images": []}, {"id": 405032, "min_date": "2018-11-07T11:42:00Z", "max_date": "2018-11-07T11:42:00Z", "count_points": 1, "latitude": 50.64252, "longitude": 24.57962, "city": "Lokachi", "images": []}, {"id": 405033, "min_date": "2018-11-07T23:54:00Z", "max_date": "2018-11-07T23:54:00Z", "count_points": 1, "latitude": 48.74545, "longitude": 30.16318, "city": "Uman\u2019", "images": []}, {"id": 405034, "min_date": "2018-11-07T23:54:00Z", "max_date": "2018-11-11T00:36:00Z", "count_points": 3, "latitude": 48.39426, "longitude": 23.54734, "city": "Berezovo", "images": []}, {"id": 405035, "min_date": "2018-11-07T23:54:00Z", "max_date": "2018-11-07T23:54:00Z", "count_points": 1, "latitude": 49.55495, "longitude": 36.62791, "city": "Komsomol\u2019s\u2019ke", "images": []}, {"id": 405036, "min_date": "2018-11-07T23:54:00Z", "max_date": "2018-11-07T23:54:00Z", "count_points": 1, "latitude": 48.3279, "longitude": 37.88189, "city": "Dzerzhyns\u2019k", "images": []}, {"id": 405037, "min_date": "2018-11-08T09:42:00Z", "max_date": "2018-11-08T10:02:00Z", "count_points": 5, "latitude": 47.45064, "longitude": 34.55157, "city": "Dniprovka", "images": []}, {"id": 405038, "min_date": "2018-11-08T09:42:00Z", "max_date": "2018-11-08T09:42:00Z", "count_points": 1, "latitude": 46.78264, "longitude": 34.38187, "city": "Nyzhni Sirohozy", "images": []}, {"id": 405039, "min_date": "2018-11-08T09:42:00Z", "max_date": "2018-11-08T09:42:00Z", "count_points": 1, "latitude": 46.99143, "longitude": 34.59868, "city": "Nyzhni Sirohozy", "images": []}, {"id": 405040, "min_date": "2018-11-08T09:42:00Z", "max_date": "2018-11-08T11:24:00Z", "count_points": 3, "latitude": 47.65086, "longitude": 29.72492, "city": "Podil\u2019s\u2019k", "images": []}, {"id": 405041, "min_date": "2018-11-08T09:42:00Z", "max_date": "2018-11-08T09:42:00Z", "count_points": 1, "latitude": 46.35759, "longitude": 32.17427, "city": "Bekhtery", "images": []}, {"id": 405042, "min_date": "2018-11-08T09:42:00Z", "max_date": "2018-11-08T09:42:00Z", "count_points": 1, "latitude": 47.63705, "longitude": 32.17297, "city": "Yelanets\u2019", "images": []}, {"id": 405043, "min_date": "2018-11-08T09:42:00Z", "max_date": "2018-11-08T11:18:00Z", "count_points": 2, "latitude": 47.07702, "longitude": 36.88806, "city": "Osypenko", "images": []}, {"id": 405044, "min_date": "2018-11-08T09:42:00Z", "max_date": "2018-11-08T09:42:00Z", "count_points": 1, "latitude": 48.27745, "longitude": 39.32412, "city": "Lutuhyne", "images": []}, {"id": 405045, "min_date": "2018-11-08T09:42:00Z", "max_date": "2018-11-08T09:42:00Z", "count_points": 1, "latitude": 48.99663, "longitude": 31.53552, "city": "Lebedyn", "images": []}, {"id": 405046, "min_date": "2018-11-08T09:42:00Z", "max_date": "2018-11-08T09:42:00Z", "count_points": 1, "latitude": 46.77367, "longitude": 33.45781, "city": "Malokakhovka", "images": []}, {"id": 405047, "min_date": "2018-11-08T09:42:00Z", "max_date": "2018-11-08T09:42:00Z", "count_points": 1, "latitude": 46.33385, "longitude": 33.46587, "city": "Chaplynka", "images": []}, {"id": 405048, "min_date": "2018-11-08T09:42:00Z", "max_date": "2018-11-08T09:42:00Z", "count_points": 2, "latitude": 47.84719, "longitude": 33.54589, "city": "Kryvyi Rih", "images": []}, {"id": 405049, "min_date": "2018-11-08T09:42:00Z", "max_date": "2018-11-08T10:02:00Z", "count_points": 2, "latitude": 48.19497, "longitude": 36.91549, "city": "Mezhova", "images": []}, {"id": 405050, "min_date": "2018-11-08T09:42:00Z", "max_date": "2018-11-08T09:42:00Z", "count_points": 1, "latitude": 46.83317, "longitude": 36.80087, "city": "Berdyansk", "images": []}, {"id": 405051, "min_date": "2018-11-08T09:42:00Z", "max_date": "2018-11-08T08:18:00Z", "count_points": 2, "latitude": 49.63579, "longitude": 36.73917, "city": "Malynivka", "images": []}, {"id": 405052, "min_date": "2018-11-08T09:42:00Z", "max_date": "2018-11-08T09:42:00Z", "count_points": 1, "latitude": 50.37438, "longitude": 34.09913, "city": "Hadyach", "images": []}, {"id": 405053, "min_date": "2018-11-08T09:42:00Z", "max_date": "2018-11-08T09:42:00Z", "count_points": 1, "latitude": 50.92561, "longitude": 32.40942, "city": "Ichnya", "images": []}, {"id": 405054, "min_date": "2018-11-08T09:42:00Z", "max_date": "2018-11-08T11:24:00Z", "count_points": 2, "latitude": 50.11646, "longitude": 34.06976, "city": "Velyki Sorochyntsi", "images": []}, {"id": 405055, "min_date": "2018-11-08T11:18:00Z", "max_date": "2018-11-08T11:18:00Z", "count_points": 1, "latitude": 46.13696, "longitude": 32.81422, "city": "Krasne", "images": []}, {"id": 405056, "min_date": "2018-11-08T11:18:00Z", "max_date": "2018-11-09T10:44:00Z", "count_points": 3, "latitude": 46.27592, "longitude": 29.27764, "city": "Borodino", "images": []}, {"id": 405057, "min_date": "2018-11-08T11:18:00Z", "max_date": "2018-11-08T11:18:00Z", "count_points": 2, "latitude": 46.38363, "longitude": 34.25428, "city": "Novotroyits\u2019ke", "images": []}, {"id": 405058, "min_date": "2018-11-08T11:18:00Z", "max_date": "2018-11-08T11:18:00Z", "count_points": 1, "latitude": 45.84268, "longitude": 28.86904, "city": "Horodnye", "images": []}, {"id": 405059, "min_date": "2018-11-08T11:18:00Z", "max_date": "2018-11-08T11:18:00Z", "count_points": 1, "latitude": 47.23549, "longitude": 30.54768, "city": "Ivanivka", "images": []}, {"id": 405060, "min_date": "2018-11-08T11:24:00Z", "max_date": "2018-11-08T11:24:00Z", "count_points": 1, "latitude": 47.86979, "longitude": 34.40564, "city": "Novopokrovka", "images": []}, {"id": 405061, "min_date": "2018-11-08T11:24:00Z", "max_date": "2018-11-08T11:24:00Z", "count_points": 1, "latitude": 48.23894, "longitude": 29.23702, "city": "Torkanivka", "images": []}, {"id": 405062, "min_date": "2018-11-08T11:24:00Z", "max_date": "2018-11-08T11:24:00Z", "count_points": 1, "latitude": 49.48882, "longitude": 27.27428, "city": "Medzhybizh", "images": []}, {"id": 405063, "min_date": "2018-11-08T11:24:00Z", "max_date": "2018-11-08T11:24:00Z", "count_points": 1, "latitude": 51.55235, "longitude": 27.02623, "city": "Rokytne", "images": []}, {"id": 405064, "min_date": "2018-11-08T11:24:00Z", "max_date": "2018-11-09T11:00:00Z", "count_points": 2, "latitude": 48.05842, "longitude": 29.19621, "city": "Kodyma", "images": []}, {"id": 405065, "min_date": "2018-11-08T11:24:00Z", "max_date": "2018-11-08T11:24:00Z", "count_points": 1, "latitude": 48.4639, "longitude": 23.6112, "city": "Synevyr", "images": []}, {"id": 405066, "min_date": "2018-11-08T11:24:00Z", "max_date": "2018-11-08T11:24:00Z", "count_points": 1, "latitude": 49.65435, "longitude": 34.46246, "city": "Poltava", "images": []}, {"id": 405067, "min_date": "2018-11-08T11:24:00Z", "max_date": "2018-11-08T11:24:00Z", "count_points": 2, "latitude": 50.05366, "longitude": 32.84921, "city": "Lubny", "images": []}, {"id": 405068, "min_date": "2018-11-08T11:24:00Z", "max_date": "2018-11-08T11:24:00Z", "count_points": 1, "latitude": 49.33598, "longitude": 29.88827, "city": "Volodarka", "images": []}, {"id": 405069, "min_date": "2018-11-08T11:24:00Z", "max_date": "2018-11-08T11:24:00Z", "count_points": 3, "latitude": 49.76829, "longitude": 29.47237, "city": "Topory", "images": []}, {"id": 405070, "min_date": "2018-11-08T11:24:00Z", "max_date": "2018-11-08T11:24:00Z", "count_points": 2, "latitude": 49.41369, "longitude": 30.56344, "city": "Kalynove", "images": []}, {"id": 405071, "min_date": "2018-11-08T11:24:00Z", "max_date": "2018-11-08T11:40:00Z", "count_points": 5, "latitude": 48.94419, "longitude": 29.87323, "city": "Nove-Misto", "images": [{"image_url": "405071.jpg", "timestamp": "2018-11-08T11:40:00Z"}]}, {"id": 405072, "min_date": "2018-11-08T11:24:00Z", "max_date": "2018-11-08T11:40:00Z", "count_points": 7, "latitude": 49.39823, "longitude": 30.34949, "city": "Kalynove", "images": []}, {"id": 405073, "min_date": "2018-11-08T11:24:00Z", "max_date": "2018-11-08T11:24:00Z", "count_points": 3, "latitude": 48.66292, "longitude": 30.57085, "city": "Babanka", "images": []}, {"id": 405074, "min_date": "2018-11-08T11:24:00Z", "max_date": "2018-11-08T11:24:00Z", "count_points": 1, "latitude": 48.91451, "longitude": 30.1767, "city": "Verkhnyachka", "images": []}, {"id": 405075, "min_date": "2018-11-08T11:24:00Z", "max_date": "2018-11-08T11:24:00Z", "count_points": 3, "latitude": 49.66767, "longitude": 35.3361, "city": "Kolomak", "images": []}, {"id": 405076, "min_date": "2018-11-08T11:24:00Z", "max_date": "2018-11-08T11:24:00Z", "count_points": 2, "latitude": 49.55406, "longitude": 33.87171, "city": "Reshetylivka", "images": []}, {"id": 405077, "min_date": "2018-11-08T11:24:00Z", "max_date": "2018-11-08T11:24:00Z", "count_points": 1, "latitude": 49.91528, "longitude": 34.40789, "city": "Dykan\u2019ka", "images": []}, {"id": 405078, "min_date": "2018-11-08T11:24:00Z", "max_date": "2018-11-08T11:24:00Z", "count_points": 1, "latitude": 48.24665, "longitude": 28.23762, "city": "Yampil\u2019", "images": []}, {"id": 405079, "min_date": "2018-11-08T11:24:00Z", "max_date": "2018-11-08T11:41:00Z", "count_points": 3, "latitude": 49.92228, "longitude": 27.79343, "city": "Liubar", "images": []}, {"id": 405080, "min_date": "2018-11-08T11:24:00Z", "max_date": "2018-11-08T11:24:00Z", "count_points": 2, "latitude": 48.3004, "longitude": 28.28072, "city": "Yampil\u2019", "images": []}, {"id": 405081, "min_date": "2018-11-08T11:24:00Z", "max_date": "2018-11-08T11:24:00Z", "count_points": 1, "latitude": 50.2639, "longitude": 29.54887, "city": "Brusyliv", "images": []}, {"id": 405082, "min_date": "2018-11-08T11:24:00Z", "max_date": "2018-11-09T10:45:00Z", "count_points": 6, "latitude": 50.03564, "longitude": 30.38484, "city": "Vasylkiv", "images": []}, {"id": 405083, "min_date": "2018-11-08T11:24:00Z", "max_date": "2018-11-08T11:24:00Z", "count_points": 1, "latitude": 50.04112, "longitude": 31.06101, "city": "Rzhyshchiv", "images": []}, {"id": 405084, "min_date": "2018-11-08T11:24:00Z", "max_date": "2018-11-08T11:24:00Z", "count_points": 1, "latitude": 51.16633, "longitude": 28.70865, "city": "Ovruch", "images": []}, {"id": 405085, "min_date": "2018-11-08T11:24:00Z", "max_date": "2018-11-08T11:24:00Z", "count_points": 1, "latitude": 49.82335, "longitude": 33.54937, "city": "Myrhorod", "images": []}, {"id": 405086, "min_date": "2018-11-08T11:24:00Z", "max_date": "2018-11-08T11:24:00Z", "count_points": 1, "latitude": 48.12707, "longitude": 38.16458, "city": "Nyzhnya Krynka", "images": []}, {"id": 405087, "min_date": "2018-11-08T23:36:00Z", "max_date": "2018-11-08T23:36:00Z", "count_points": 1, "latitude": 46.73646, "longitude": 31.88484, "city": "Parutyne", "images": []}, {"id": 405088, "min_date": "2018-11-08T23:36:00Z", "max_date": "2018-11-08T23:36:00Z", "count_points": 1, "latitude": 47.02081, "longitude": 35.39862, "city": "Terpinnya", "images": []}, {"id": 405089, "min_date": "2018-11-09T09:24:00Z", "max_date": "2018-11-09T09:24:00Z", "count_points": 1, "latitude": 48.42822, "longitude": 34.89438, "city": "Dnipro", "images": []}, {"id": 405090, "min_date": "2018-11-09T09:24:00Z", "max_date": "2018-11-09T10:44:00Z", "count_points": 3, "latitude": 47.33134, "longitude": 37.6713, "city": "Sartana", "images": []}, {"id": 405091, "min_date": "2018-11-09T09:24:00Z", "max_date": "2018-11-09T10:44:00Z", "count_points": 7, "latitude": 46.82227, "longitude": 33.9862, "city": "Kayiry", "images": []}, {"id": 405092, "min_date": "2018-11-09T09:24:00Z", "max_date": "2018-11-09T09:24:00Z", "count_points": 1, "latitude": 51.42613, "longitude": 29.15138, "city": "Narodychi", "images": []}, {"id": 405093, "min_date": "2018-11-09T09:24:00Z", "max_date": "2018-11-09T09:24:00Z", "count_points": 1, "latitude": 48.388, "longitude": 35.63098, "city": "Synel\u2019nykove", "images": []}, {"id": 405094, "min_date": "2018-11-09T11:00:00Z", "max_date": "2018-11-09T11:00:00Z", "count_points": 1, "latitude": 50.07477, "longitude": 28.64815, "city": "Ozerne", "images": []}, {"id": 405095, "min_date": "2018-11-09T11:00:00Z", "max_date": "2018-11-09T11:00:00Z", "count_points": 1, "latitude": 47.46162, "longitude": 31.72355, "city": "Nova Odesa", "images": []}, {"id": 405096, "min_date": "2018-11-09T11:00:00Z", "max_date": "2018-11-09T10:44:00Z", "count_points": 3, "latitude": 46.33243, "longitude": 30.35197, "city": "Mayaky", "images": []}, {"id": 405097, "min_date": "2018-11-09T11:00:00Z", "max_date": "2018-11-09T11:00:00Z", "count_points": 1, "latitude": 47.55235, "longitude": 29.69187, "city": "Zakharivka", "images": []}, {"id": 405098, "min_date": "2018-11-09T11:00:00Z", "max_date": "2018-11-09T11:00:00Z", "count_points": 1, "latitude": 48.24583, "longitude": 30.91417, "city": "Vil\u2019shanka", "images": []}, {"id": 405099, "min_date": "2018-11-09T11:00:00Z", "max_date": "2018-11-09T11:00:00Z", "count_points": 2, "latitude": 45.46575, "longitude": 29.50495, "city": "Vylkove", "images": []}, {"id": 405100, "min_date": "2018-11-09T11:00:00Z", "max_date": "2018-11-09T11:00:00Z", "count_points": 1, "latitude": 47.81648, "longitude": 29.99128, "city": "Ananyiv Pershyi", "images": []}, {"id": 405101, "min_date": "2018-11-09T11:00:00Z", "max_date": "2018-11-09T11:00:00Z", "count_points": 2, "latitude": 48.12955, "longitude": 33.07578, "city": "Lozuvatka", "images": []}, {"id": 405102, "min_date": "2018-11-09T11:00:00Z", "max_date": "2018-11-09T11:00:00Z", "count_points": 1, "latitude": 46.65466, "longitude": 31.24028, "city": "Kobleve", "images": []}, {"id": 405103, "min_date": "2018-11-09T11:00:00Z", "max_date": "2018-11-09T10:44:00Z", "count_points": 3, "latitude": 45.3992, "longitude": 28.54725, "city": "Ozerne", "images": []}, {"id": 405104, "min_date": "2018-11-09T11:00:00Z", "max_date": "2018-11-09T11:00:00Z", "count_points": 1, "latitude": 48.33886, "longitude": 28.0667, "city": "Chernivtsi", "images": []}, {"id": 405105, "min_date": "2018-11-09T11:00:00Z", "max_date": "2018-11-09T11:00:00Z", "count_points": 1, "latitude": 48.19908, "longitude": 25.45605, "city": "Myhove", "images": []}, {"id": 405106, "min_date": "2018-11-09T11:00:00Z", "max_date": "2018-11-09T11:00:00Z", "count_points": 1, "latitude": 50.27667, "longitude": 26.67104, "city": "Netishyn", "images": []}, {"id": 405107, "min_date": "2018-11-09T11:00:00Z", "max_date": "2018-11-09T11:00:00Z", "count_points": 1, "latitude": 49.1118, "longitude": 27.08934, "city": "Vinkivtsi", "images": []}, {"id": 405108, "min_date": "2018-11-09T11:00:00Z", "max_date": "2018-11-09T11:00:00Z", "count_points": 2, "latitude": 45.87083, "longitude": 28.89642, "city": "Horodnye", "images": []}, {"id": 405109, "min_date": "2018-11-09T11:00:00Z", "max_date": "2018-11-09T11:00:00Z", "count_points": 2, "latitude": 45.43206, "longitude": 28.85769, "city": "Izmayil", "images": []}, {"id": 405110, "min_date": "2018-11-09T11:00:00Z", "max_date": "2018-11-09T11:00:00Z", "count_points": 1, "latitude": 48.87305, "longitude": 26.49318, "city": "Chemerivtsi", "images": []}, {"id": 405111, "min_date": "2018-11-09T11:00:00Z", "max_date": "2018-11-09T11:00:00Z", "count_points": 1, "latitude": 47.5228, "longitude": 33.91691, "city": "Novovorontsovka", "images": []}, {"id": 405112, "min_date": "2018-11-09T11:00:00Z", "max_date": "2018-11-09T11:00:00Z", "count_points": 1, "latitude": 47.37966, "longitude": 30.63667, "city": "Mykolayivka", "images": []}, {"id": 405113, "min_date": "2018-11-09T11:00:00Z", "max_date": "2018-11-09T10:44:00Z", "count_points": 2, "latitude": 47.19934, "longitude": 32.88619, "city": "Bereznehuvate", "images": []}, {"id": 405114, "min_date": "2018-11-09T11:00:00Z", "max_date": "2018-11-09T11:00:00Z", "count_points": 3, "latitude": 48.47818, "longitude": 22.40183, "city": "Batiovo", "images": []}, {"id": 405115, "min_date": "2018-11-09T11:00:00Z", "max_date": "2018-11-09T11:00:00Z", "count_points": 1, "latitude": 49.75122, "longitude": 27.89073, "city": "Khmilnyk", "images": []}, {"id": 405116, "min_date": "2018-11-09T11:00:00Z", "max_date": "2018-11-09T11:00:00Z", "count_points": 1, "latitude": 49.67873, "longitude": 27.60806, "city": "Stara Syniava", "images": []}, {"id": 405117, "min_date": "2018-11-09T11:00:00Z", "max_date": "2018-11-09T11:00:00Z", "count_points": 1, "latitude": 48.62622, "longitude": 28.37153, "city": "Tomashpil\u2019", "images": []}, {"id": 405118, "min_date": "2018-11-09T11:00:00Z", "max_date": "2018-11-09T10:45:00Z", "count_points": 4, "latitude": 48.54351, "longitude": 29.72082, "city": "Teplyk", "images": []}, {"id": 405119, "min_date": "2018-11-09T11:00:00Z", "max_date": "2018-11-09T11:00:00Z", "count_points": 1, "latitude": 48.77398, "longitude": 28.67091, "city": "Tulchyn", "images": []}, {"id": 405120, "min_date": "2018-11-09T11:00:00Z", "max_date": "2018-11-09T11:00:00Z", "count_points": 2, "latitude": 49.04676, "longitude": 31.38129, "city": "Shpola", "images": []}, {"id": 405121, "min_date": "2018-11-09T11:00:00Z", "max_date": "2018-11-09T11:00:00Z", "count_points": 2, "latitude": 49.75061, "longitude": 30.73618, "city": "Karapyshi", "images": []}, {"id": 405122, "min_date": "2018-11-09T11:00:00Z", "max_date": "2018-11-09T10:45:00Z", "count_points": 3, "latitude": 49.27261, "longitude": 23.65736, "city": "Ulychne", "images": []}, {"id": 405123, "min_date": "2018-11-09T11:00:00Z", "max_date": "2018-11-10T10:42:00Z", "count_points": 5, "latitude": 49.73758, "longitude": 26.46697, "city": "Bazaliya", "images": []}, {"id": 405124, "min_date": "2018-11-09T11:00:00Z", "max_date": "2018-11-09T11:00:00Z", "count_points": 1, "latitude": 49.8182, "longitude": 26.58948, "city": "Bazaliya", "images": []}, {"id": 405125, "min_date": "2018-11-09T11:06:00Z", "max_date": "2018-11-09T11:06:00Z", "count_points": 1, "latitude": 51.3904, "longitude": 28.57161, "city": "Ovruch", "images": []}, {"id": 405126, "min_date": "2018-11-09T11:06:00Z", "max_date": "2018-11-09T11:06:00Z", "count_points": 1, "latitude": 50.93323, "longitude": 26.88464, "city": "Berezne", "images": []}, {"id": 405127, "min_date": "2018-11-09T11:06:00Z", "max_date": "2018-11-09T11:06:00Z", "count_points": 1, "latitude": 51.29144, "longitude": 27.77815, "city": "Olevs\u2019k", "images": []}, {"id": 405128, "min_date": "2018-11-09T23:18:00Z", "max_date": "2018-11-09T23:18:00Z", "count_points": 1, "latitude": 49.29198, "longitude": 32.3755, "city": "Chervona Sloboda", "images": []}, {"id": 405129, "min_date": "2018-11-10T00:54:00Z", "max_date": "2018-11-10T00:54:00Z", "count_points": 2, "latitude": 49.26817, "longitude": 27.41666, "city": "Derazhnya", "images": []}, {"id": 405130, "min_date": "2018-11-10T10:42:00Z", "max_date": "2018-11-10T10:42:00Z", "count_points": 1, "latitude": 48.07592, "longitude": 29.94138, "city": "Savran", "images": []}, {"id": 405131, "min_date": "2018-11-10T10:42:00Z", "max_date": "2018-11-10T10:42:00Z", "count_points": 1, "latitude": 50.20448, "longitude": 28.1275, "city": "Chudniv", "images": []}, {"id": 405132, "min_date": "2018-11-10T10:42:00Z", "max_date": "2018-11-10T10:42:00Z", "count_points": 1, "latitude": 51.45615, "longitude": 27.4887, "city": "Olevs\u2019k", "images": []}, {"id": 405133, "min_date": "2018-11-10T10:42:00Z", "max_date": "2018-11-10T10:42:00Z", "count_points": 1, "latitude": 46.37569, "longitude": 30.50472, "city": "Oleksandrivka", "images": []}, {"id": 405134, "min_date": "2018-11-10T10:42:00Z", "max_date": "2018-11-10T10:42:00Z", "count_points": 1, "latitude": 46.98975, "longitude": 31.14786, "city": "Kurisove", "images": []}, {"id": 405135, "min_date": "2018-11-10T10:42:00Z", "max_date": "2018-11-10T10:42:00Z", "count_points": 1, "latitude": 49.05834, "longitude": 31.30686, "city": "Shpola", "images": []}, {"id": 405136, "min_date": "2018-11-10T10:42:00Z", "max_date": "2018-11-10T10:42:00Z", "count_points": 1, "latitude": 45.48225, "longitude": 28.92569, "city": "Izmayil", "images": []}, {"id": 405137, "min_date": "2018-11-10T10:42:00Z", "max_date": "2018-11-10T10:42:00Z", "count_points": 1, "latitude": 45.40091, "longitude": 28.29841, "city": "Reni", "images": []}, {"id": 405138, "min_date": "2018-11-10T10:42:00Z", "max_date": "2018-11-10T10:42:00Z", "count_points": 2, "latitude": 48.31899, "longitude": 30.6731, "city": "Pobugskoye", "images": []}, {"id": 405139, "min_date": "2018-11-10T10:42:00Z", "max_date": "2018-11-10T11:28:00Z", "count_points": 10, "latitude": 48.37006, "longitude": 29.31373, "city": "Obodivka", "images": []}, {"id": 405140, "min_date": "2018-11-10T10:42:00Z", "max_date": "2018-11-10T10:42:00Z", "count_points": 1, "latitude": 48.2294, "longitude": 25.40312, "city": "Berehomet", "images": []}, {"id": 405141, "min_date": "2018-11-10T10:42:00Z", "max_date": "2018-11-10T10:42:00Z", "count_points": 1, "latitude": 48.24432, "longitude": 30.44657, "city": "Holovanivs\u2019k", "images": []}, {"id": 405142, "min_date": "2018-11-10T10:42:00Z", "max_date": "2018-11-10T10:42:00Z", "count_points": 1, "latitude": 51.15714, "longitude": 28.78663, "city": "Ovruch", "images": []}, {"id": 405143, "min_date": "2018-11-10T10:42:00Z", "max_date": "2018-11-10T10:42:00Z", "count_points": 1, "latitude": 51.13275, "longitude": 28.53779, "city": "Luhyny", "images": []}, {"id": 405144, "min_date": "2018-11-10T10:42:00Z", "max_date": "2018-11-10T10:42:00Z", "count_points": 1, "latitude": 50.99113, "longitude": 28.68599, "city": "Korosten\u2019", "images": []}, {"id": 405157, "min_date": "2018-11-06T08:30:00Z", "max_date": "2018-11-06T08:30:00Z", "count_points": 1, "latitude": 51.2248, "longitude": 29.5112, "city": "Krasyatychi", "images": []}, {"id": 405158, "min_date": "2018-11-06T08:31:00Z", "max_date": "2018-11-06T08:31:00Z", "count_points": 1, "latitude": 47.1354, "longitude": 32.9584, "city": "Snihurivka", "images": []}, {"id": 405159, "min_date": "2018-11-07T09:14:00Z", "max_date": "2018-11-07T09:14:00Z", "count_points": 1, "latitude": 48.2733, "longitude": 25.7519, "city": "Luzhany", "images": []}, {"id": 405160, "min_date": "2018-11-07T10:56:00Z", "max_date": "2018-11-07T10:56:00Z", "count_points": 2, "latitude": 46.1619, "longitude": 32.9529, "city": "Skadovs\u2019k", "images": []}, {"id": 405161, "min_date": "2018-11-07T10:57:00Z", "max_date": "2018-11-07T10:57:00Z", "count_points": 1, "latitude": 46.6637, "longitude": 32.9642, "city": "Kozachi Laheri", "images": []}, {"id": 405162, "min_date": "2018-11-07T10:57:00Z", "max_date": "2018-11-07T10:57:00Z", "count_points": 1, "latitude": 46.9631, "longitude": 30.3514, "city": "Ivanivka", "images": []}, {"id": 405163, "min_date": "2018-11-07T10:57:00Z", "max_date": "2018-11-07T10:57:00Z", "count_points": 1, "latitude": 48.3931, "longitude": 26.0757, "city": "Boyany", "images": []}, {"id": 405164, "min_date": "2018-11-07T10:57:00Z", "max_date": "2018-11-07T10:57:00Z", "count_points": 1, "latitude": 49.8129, "longitude": 36.7819, "city": "Malynivka", "images": []}, {"id": 405165, "min_date": "2018-11-07T10:57:00Z", "max_date": "2018-11-07T10:57:00Z", "count_points": 1, "latitude": 48.4696, "longitude": 25.8164, "city": "Kitsman\u2019", "images": []}, {"id": 405166, "min_date": "2018-11-07T10:58:00Z", "max_date": "2018-11-07T10:58:00Z", "count_points": 1, "latitude": 51.3427, "longitude": 27.4059, "city": "Rokytne", "images": []}, {"id": 405167, "min_date": "2018-11-07T10:58:00Z", "max_date": "2018-11-07T10:58:00Z", "count_points": 1, "latitude": 50.6708, "longitude": 29.3632, "city": "Bila Krynytsya", "images": []}, {"id": 405168, "min_date": "2018-11-07T10:58:00Z", "max_date": "2018-11-07T10:58:00Z", "count_points": 1, "latitude": 49.1761, "longitude": 26.0174, "city": "Khorostkiv", "images": []}, {"id": 405169, "min_date": "2018-11-08T08:18:00Z", "max_date": "2018-11-08T08:18:00Z", "count_points": 1, "latitude": 47.3018, "longitude": 36.4843, "city": "Kuybysheve", "images": []}, {"id": 405170, "min_date": "2018-11-08T10:02:00Z", "max_date": "2018-11-08T10:02:00Z", "count_points": 1, "latitude": 48.3082, "longitude": 38.4741, "city": "Chornukhyne", "images": []}, {"id": 405171, "min_date": "2018-11-08T10:02:00Z", "max_date": "2018-11-08T10:02:00Z", "count_points": 1, "latitude": 47.595, "longitude": 38.0838, "city": "Starobesheve", "images": []}, {"id": 405172, "min_date": "2018-11-08T11:40:00Z", "max_date": "2018-11-08T11:40:00Z", "count_points": 1, "latitude": 46.0931, "longitude": 29.2955, "city": "Artsyz", "images": []}, {"id": 405173, "min_date": "2018-11-08T11:40:00Z", "max_date": "2018-11-08T11:40:00Z", "count_points": 2, "latitude": 49.27295, "longitude": 34.06215, "city": "Lutovynivka", "images": []}, {"id": 405174, "min_date": "2018-11-08T11:40:00Z", "max_date": "2018-11-08T11:40:00Z", "count_points": 1, "latitude": 48.5483, "longitude": 28.0419, "city": "Chernivtsi", "images": []}, {"id": 405175, "min_date": "2018-11-09T09:00:00Z", "max_date": "2018-11-09T09:00:00Z", "count_points": 2, "latitude": 51.352, "longitude": 29.37315, "city": "Narodychi", "images": []}, {"id": 405176, "min_date": "2018-11-09T09:00:00Z", "max_date": "2018-11-09T09:00:00Z", "count_points": 3, "latitude": 51.40473, "longitude": 28.16023, "city": "Novi Bilokorovychi", "images": []}, {"id": 405177, "min_date": "2018-11-09T09:01:00Z", "max_date": "2018-11-09T09:01:00Z", "count_points": 1, "latitude": 47.0145, "longitude": 32.1748, "city": "Shevchenkove", "images": []}, {"id": 405178, "min_date": "2018-11-09T09:01:00Z", "max_date": "2018-11-09T09:01:00Z", "count_points": 2, "latitude": 48.60815, "longitude": 27.41265, "city": "Novodnistrovs\u2019k", "images": []}, {"id": 405179, "min_date": "2018-11-09T09:02:00Z", "max_date": "2018-11-09T09:02:00Z", "count_points": 1, "latitude": 44.903, "longitude": 34.125, "city": "Ukrainka", "images": []}, {"id": 405180, "min_date": "2018-11-09T10:44:00Z", "max_date": "2018-11-09T10:44:00Z", "count_points": 1, "latitude": 46.8733, "longitude": 31.3876, "city": "Berezanka", "images": []}, {"id": 405181, "min_date": "2018-11-09T10:44:00Z", "max_date": "2018-11-09T10:44:00Z", "count_points": 2, "latitude": 45.48355, "longitude": 29.4746, "city": "Vylkove", "images": []}, {"id": 405182, "min_date": "2018-11-09T10:44:00Z", "max_date": "2018-11-09T10:44:00Z", "count_points": 2, "latitude": 46.85185, "longitude": 31.4319, "city": "Berezanka", "images": []}, {"id": 405183, "min_date": "2018-11-09T10:45:00Z", "max_date": "2018-11-09T10:45:00Z", "count_points": 1, "latitude": 47.5641, "longitude": 31.3954, "city": "Voznesensk", "images": []}, {"id": 405184, "min_date": "2018-11-10T11:28:00Z", "max_date": "2018-11-10T11:28:00Z", "count_points": 1, "latitude": 48.4063, "longitude": 29.9826, "city": "Hayvoron", "images": []}, {"id": 405185, "min_date": "2018-11-11T10:32:00Z", "max_date": "2018-11-11T10:32:00Z", "count_points": 1, "latitude": 46.7106, "longitude": 34.8279, "city": "Ivanivka", "images": []}]