[{"id": 380729, "min_date": "2018-01-31T10:48:00Z", "max_date": "2018-01-31T10:48:00Z", "count_points": 1, "latitude": 49.98212, "longitude": 24.05352, "city": "Kulykiv", "images": []}, {"id": 380730, "min_date": "2018-01-31T10:48:00Z", "max_date": "2018-01-31T10:48:00Z", "count_points": 1, "latitude": 50.50719, "longitude": 24.54343, "city": "Horokhiv", "images": []}, {"id": 380731, "min_date": "2018-01-31T10:48:00Z", "max_date": "2018-01-31T10:48:00Z", "count_points": 1, "latitude": 49.45739, "longitude": 23.76057, "city": "Medenychi", "images": []}, {"id": 380732, "min_date": "2018-01-31T10:48:00Z", "max_date": "2018-01-31T10:48:00Z", "count_points": 1, "latitude": 49.24006, "longitude": 23.74639, "city": "Duliby", "images": []}, {"id": 380733, "min_date": "2018-01-31T10:48:00Z", "max_date": "2018-01-31T10:48:00Z", "count_points": 1, "latitude": 49.44968, "longitude": 23.60407, "city": "Rykhtychi", "images": []}, {"id": 380734, "min_date": "2018-01-31T10:48:00Z", "max_date": "2018-01-31T10:48:00Z", "count_points": 1, "latitude": 49.29839, "longitude": 23.53264, "city": "Stebnyk", "images": []}, {"id": 380735, "min_date": "2018-01-31T10:48:00Z", "max_date": "2018-02-01T00:42:00Z", "count_points": 2, "latitude": 49.447, "longitude": 24.11458, "city": "Rozdil", "images": []}, {"id": 380736, "min_date": "2018-01-31T10:48:00Z", "max_date": "2018-01-31T10:48:00Z", "count_points": 2, "latitude": 49.28296, "longitude": 23.86387, "city": "Stryi", "images": []}, {"id": 380737, "min_date": "2018-01-31T10:48:00Z", "max_date": "2018-02-01T10:30:00Z", "count_points": 2, "latitude": 49.52416, "longitude": 23.71356, "city": "Medenychi", "images": []}, {"id": 380738, "min_date": "2018-01-31T10:48:00Z", "max_date": "2018-02-01T10:52:00Z", "count_points": 3, "latitude": 49.37519, "longitude": 23.82428, "city": "Medenychi", "images": []}, {"id": 380739, "min_date": "2018-01-31T10:48:00Z", "max_date": "2018-01-31T10:48:00Z", "count_points": 1, "latitude": 49.18679, "longitude": 23.83568, "city": "Morshyn", "images": []}, {"id": 380740, "min_date": "2018-01-31T10:48:00Z", "max_date": "2018-01-31T10:48:00Z", "count_points": 1, "latitude": 47.19807, "longitude": 30.81194, "city": "Berezivka", "images": []}, {"id": 380741, "min_date": "2018-01-31T10:48:00Z", "max_date": "2018-01-31T10:48:00Z", "count_points": 1, "latitude": 49.41373, "longitude": 24.36942, "city": "Khodoriv", "images": []}, {"id": 380742, "min_date": "2018-02-01T00:42:00Z", "max_date": "2018-02-01T00:42:00Z", "count_points": 1, "latitude": 49.26878, "longitude": 23.93035, "city": "Stryi", "images": []}, {"id": 380743, "min_date": "2018-02-01T00:42:00Z", "max_date": "2018-02-01T00:42:00Z", "count_points": 11, "latitude": 49.59039, "longitude": 23.36463, "city": "Dublyany", "images": [{"image_url": "380743.jpg", "timestamp": "2018-02-01T00:42:00Z"}, {"image_url": "380743.jpg", "timestamp": "2018-02-01T00:42:00Z"}]}, {"id": 380744, "min_date": "2018-02-01T00:42:00Z", "max_date": "2018-02-01T00:42:00Z", "count_points": 1, "latitude": 49.42284, "longitude": 23.67517, "city": "Medenychi", "images": []}, {"id": 380745, "min_date": "2018-02-01T00:42:00Z", "max_date": "2018-02-01T00:42:00Z", "count_points": 1, "latitude": 49.49359, "longitude": 23.46214, "city": "Dublyany", "images": []}, {"id": 380746, "min_date": "2018-02-01T00:42:00Z", "max_date": "2018-02-01T00:42:00Z", "count_points": 3, "latitude": 50.68532, "longitude": 25.19911, "city": "Lutsk", "images": []}, {"id": 380747, "min_date": "2018-02-01T00:42:00Z", "max_date": "2018-02-01T10:30:00Z", "count_points": 3, "latitude": 49.85079, "longitude": 24.28843, "city": "Verkhnyaya Belka", "images": []}, {"id": 380748, "min_date": "2018-02-01T00:42:00Z", "max_date": "2018-02-01T10:30:00Z", "count_points": 3, "latitude": 48.59653, "longitude": 25.24389, "city": "Obertyn", "images": []}, {"id": 380749, "min_date": "2018-02-01T10:30:00Z", "max_date": "2018-02-01T10:30:00Z", "count_points": 1, "latitude": 49.26373, "longitude": 23.61879, "city": "Ulychne", "images": []}, {"id": 380750, "min_date": "2018-02-01T10:30:00Z", "max_date": "2018-02-01T10:30:00Z", "count_points": 3, "latitude": 49.33866, "longitude": 24.05289, "city": "Zhydachiv", "images": []}, {"id": 380751, "min_date": "2018-02-01T10:30:00Z", "max_date": "2018-02-01T10:30:00Z", "count_points": 1, "latitude": 49.30516, "longitude": 23.63984, "city": "Ulychne", "images": []}, {"id": 380752, "min_date": "2018-02-01T10:30:00Z", "max_date": "2018-02-01T10:30:00Z", "count_points": 3, "latitude": 49.48893, "longitude": 23.82197, "city": "Medenychi", "images": []}, {"id": 380753, "min_date": "2018-02-01T10:30:00Z", "max_date": "2018-02-01T10:30:00Z", "count_points": 1, "latitude": 49.2412, "longitude": 24.12852, "city": "Zhydachiv", "images": []}, {"id": 380754, "min_date": "2018-02-01T10:30:00Z", "max_date": "2018-02-01T10:30:00Z", "count_points": 1, "latitude": 49.55824, "longitude": 23.38907, "city": "Dublyany", "images": []}, {"id": 380755, "min_date": "2018-02-01T10:30:00Z", "max_date": "2018-02-01T10:30:00Z", "count_points": 1, "latitude": 49.365, "longitude": 23.62359, "city": "Rykhtychi", "images": []}, {"id": 380756, "min_date": "2018-02-01T10:30:00Z", "max_date": "2018-02-01T10:30:00Z", "count_points": 1, "latitude": 49.319, "longitude": 24.21392, "city": "Zhydachiv", "images": []}, {"id": 380757, "min_date": "2018-02-01T10:30:00Z", "max_date": "2018-02-01T10:30:00Z", "count_points": 2, "latitude": 49.55495, "longitude": 23.22382, "city": "Sambir", "images": []}, {"id": 380758, "min_date": "2018-02-01T10:30:00Z", "max_date": "2018-02-01T10:30:00Z", "count_points": 1, "latitude": 49.47933, "longitude": 23.60933, "city": "Rykhtychi", "images": []}, {"id": 380759, "min_date": "2018-02-01T10:30:00Z", "max_date": "2018-02-01T10:30:00Z", "count_points": 2, "latitude": 48.56398, "longitude": 26.09515, "city": "Klishkivtsi", "images": []}, {"id": 380760, "min_date": "2018-02-01T10:30:00Z", "max_date": "2018-02-01T10:30:00Z", "count_points": 1, "latitude": 46.18964, "longitude": 32.56456, "city": "Lazurne", "images": []}, {"id": 380761, "min_date": "2018-02-01T10:30:00Z", "max_date": "2018-02-01T10:30:00Z", "count_points": 1, "latitude": 48.56504, "longitude": 24.76109, "city": "Lanchyn", "images": []}, {"id": 380762, "min_date": "2018-02-01T10:30:00Z", "max_date": "2018-02-01T10:30:00Z", "count_points": 1, "latitude": 49.43932, "longitude": 27.43739, "city": "Medzhybizh", "images": []}, {"id": 380763, "min_date": "2018-02-01T12:12:00Z", "max_date": "2018-02-01T12:12:00Z", "count_points": 2, "latitude": 49.24215, "longitude": 23.79181, "city": "Duliby", "images": []}, {"id": 380764, "min_date": "2018-02-01T12:12:00Z", "max_date": "2018-02-01T10:52:00Z", "count_points": 3, "latitude": 49.27645, "longitude": 27.35882, "city": "Derazhnya", "images": []}, {"id": 380765, "min_date": "2018-02-01T12:12:00Z", "max_date": "2018-02-01T12:12:00Z", "count_points": 2, "latitude": 49.23717, "longitude": 24.21378, "city": "Zhydachiv", "images": []}, {"id": 380766, "min_date": "2018-02-01T12:12:00Z", "max_date": "2018-02-01T12:12:00Z", "count_points": 2, "latitude": 49.05902, "longitude": 24.51162, "city": "Kalush", "images": []}, {"id": 380767, "min_date": "2018-02-01T12:12:00Z", "max_date": "2018-02-01T12:12:00Z", "count_points": 1, "latitude": 49.1711, "longitude": 23.96701, "city": "Morshyn", "images": []}, {"id": 380768, "min_date": "2018-02-01T12:12:00Z", "max_date": "2018-02-01T12:12:00Z", "count_points": 1, "latitude": 49.37431, "longitude": 24.26463, "city": "Khodoriv", "images": []}, {"id": 380769, "min_date": "2018-02-02T00:24:00Z", "max_date": "2018-02-03T23:48:00Z", "count_points": 2, "latitude": 48.49627, "longitude": 27.93583, "city": "Mohyliv-Podilskyi", "images": []}, {"id": 380770, "min_date": "2018-02-03T00:06:00Z", "max_date": "2018-02-03T00:06:00Z", "count_points": 1, "latitude": 49.46455, "longitude": 26.96554, "city": "Khmelnytskyi", "images": []}, {"id": 380771, "min_date": "2018-01-31T10:02:00Z", "max_date": "2018-01-31T10:02:00Z", "count_points": 1, "latitude": 49.2156, "longitude": 24.4752, "city": "Burshtyn", "images": []}, {"id": 380772, "min_date": "2018-01-31T10:02:00Z", "max_date": "2018-01-31T10:02:00Z", "count_points": 2, "latitude": 49.71765, "longitude": 24.30805, "city": "Dzvinogrud", "images": []}, {"id": 380773, "min_date": "2018-01-31T11:47:00Z", "max_date": "2018-01-31T11:47:00Z", "count_points": 1, "latitude": 49.5445, "longitude": 24.5789, "city": "Peremyshlyany", "images": []}]