[{"id": 380967, "min_date": "2018-03-24T23:30:00Z", "max_date": "2018-03-24T23:30:00Z", "count_points": 1, "latitude": 50.0607, "longitude": 35.63062, "city": "Bohodukhiv", "images": []}, {"id": 380968, "min_date": "2018-03-24T23:30:00Z", "max_date": "2018-03-24T23:30:00Z", "count_points": 1, "latitude": 49.18085, "longitude": 33.4594, "city": "Kremenchuk", "images": []}, {"id": 380969, "min_date": "2018-03-25T01:06:00Z", "max_date": "2018-03-25T01:06:00Z", "count_points": 1, "latitude": 49.79641, "longitude": 36.50026, "city": "Vvedenka", "images": []}, {"id": 380970, "min_date": "2018-03-25T10:54:00Z", "max_date": "2018-03-25T10:54:00Z", "count_points": 1, "latitude": 47.2546, "longitude": 36.65968, "city": "Komysh-Zorya", "images": []}, {"id": 380971, "min_date": "2018-03-25T10:54:00Z", "max_date": "2018-03-25T10:54:00Z", "count_points": 4, "latitude": 47.12936, "longitude": 37.54076, "city": "Mariupol", "images": []}, {"id": 380972, "min_date": "2018-03-25T10:54:00Z", "max_date": "2018-03-25T10:54:00Z", "count_points": 1, "latitude": 47.04723, "longitude": 35.83953, "city": "Rozivka", "images": []}, {"id": 380973, "min_date": "2018-03-25T10:54:00Z", "max_date": "2018-03-25T10:54:00Z", "count_points": 1, "latitude": 49.42924, "longitude": 27.45369, "city": "Medzhybizh", "images": []}, {"id": 380974, "min_date": "2018-03-25T10:27:00Z", "max_date": "2018-03-25T10:27:00Z", "count_points": 1, "latitude": 47.5023, "longitude": 35.9773, "city": "Mala Tokmachka", "images": []}]