[{"id": 380956, "min_date": "2018-03-12T10:00:00Z", "max_date": "2018-03-12T10:00:00Z", "count_points": 1, "latitude": 45.02286, "longitude": 34.50467, "city": "Zelenogorskoye", "images": []}, {"id": 380957, "min_date": "2018-03-12T11:36:00Z", "max_date": "2018-03-12T11:36:00Z", "count_points": 3, "latitude": 46.52553, "longitude": 32.50439, "city": "Hola Prystan\u2019", "images": []}, {"id": 380958, "min_date": "2018-03-12T23:54:00Z", "max_date": "2018-03-12T23:54:00Z", "count_points": 1, "latitude": 49.37671, "longitude": 37.78168, "city": "Borova", "images": []}, {"id": 380959, "min_date": "2018-03-13T09:42:00Z", "max_date": "2018-03-13T09:42:00Z", "count_points": 1, "latitude": 48.31039, "longitude": 37.35008, "city": "Myrnohrad", "images": []}, {"id": 380960, "min_date": "2018-03-13T11:18:00Z", "max_date": "2018-03-13T11:18:00Z", "count_points": 2, "latitude": 47.25355, "longitude": 35.91883, "city": "Tokmak", "images": []}, {"id": 380961, "min_date": "2018-03-13T11:24:00Z", "max_date": "2018-03-13T11:24:00Z", "count_points": 1, "latitude": 50.38138, "longitude": 23.81142, "city": "Uhniv", "images": []}, {"id": 380962, "min_date": "2018-03-13T11:24:00Z", "max_date": "2018-03-13T11:42:00Z", "count_points": 2, "latitude": 50.89241, "longitude": 24.31699, "city": "Volodymyr-Volynskyi", "images": []}, {"id": 380963, "min_date": "2018-03-17T10:06:00Z", "max_date": "2018-03-17T10:06:00Z", "count_points": 1, "latitude": 45.64793, "longitude": 34.43393, "city": "Kondratyevo", "images": []}, {"id": 380964, "min_date": "2018-03-17T11:42:00Z", "max_date": "2018-03-17T11:42:00Z", "count_points": 1, "latitude": 45.62608, "longitude": 34.56495, "city": "Mayskoye", "images": []}, {"id": 380965, "min_date": "2018-03-12T10:58:00Z", "max_date": "2018-03-12T10:58:00Z", "count_points": 1, "latitude": 47.6199, "longitude": 34.3202, "city": "Nikopol", "images": []}, {"id": 380966, "min_date": "2018-03-17T11:15:00Z", "max_date": "2018-03-17T11:15:00Z", "count_points": 1, "latitude": 45.0469, "longitude": 34.2054, "city": "Donskoye", "images": []}]