[{"id": 389321, "min_date": "2018-05-28T01:06:00Z", "max_date": "2018-05-31T10:00:00Z", "count_points": 2, "latitude": 49.7967, "longitude": 36.50195, "city": "Vvedenka", "images": []}, {"id": 389322, "min_date": "2018-05-28T01:06:00Z", "max_date": "2018-05-28T01:06:00Z", "count_points": 2, "latitude": 50.88969, "longitude": 30.61465, "city": "Desna", "images": []}, {"id": 389323, "min_date": "2018-05-28T09:12:00Z", "max_date": "2018-05-28T08:43:00Z", "count_points": 2, "latitude": 48.04674, "longitude": 38.39338, "city": "Shakhtars\u2019k", "images": []}, {"id": 389324, "min_date": "2018-05-28T09:18:00Z", "max_date": "2018-05-28T09:18:00Z", "count_points": 1, "latitude": 50.63943, "longitude": 29.46921, "city": "Bila Krynytsya", "images": []}, {"id": 389325, "min_date": "2018-05-28T09:18:00Z", "max_date": "2018-05-28T09:18:00Z", "count_points": 2, "latitude": 47.92644, "longitude": 29.68191, "city": "Balta", "images": []}, {"id": 389326, "min_date": "2018-05-28T09:18:00Z", "max_date": "2018-05-28T09:18:00Z", "count_points": 2, "latitude": 49.49472, "longitude": 34.84563, "city": "Mashivka", "images": []}, {"id": 389327, "min_date": "2018-05-28T09:18:00Z", "max_date": "2018-05-28T09:18:00Z", "count_points": 1, "latitude": 50.0424, "longitude": 34.04304, "city": "Velyki Sorochyntsi", "images": []}, {"id": 389328, "min_date": "2018-05-28T10:54:00Z", "max_date": "2018-05-28T10:54:00Z", "count_points": 1, "latitude": 50.17028, "longitude": 30.69325, "city": "Ukrainka", "images": []}, {"id": 389329, "min_date": "2018-05-28T10:54:00Z", "max_date": "2018-05-28T10:54:00Z", "count_points": 1, "latitude": 46.4758, "longitude": 34.16739, "city": "Novotroyits\u2019ke", "images": []}, {"id": 389330, "min_date": "2018-05-28T10:54:00Z", "max_date": "2018-05-28T10:54:00Z", "count_points": 1, "latitude": 50.18037, "longitude": 27.84914, "city": "Romaniv", "images": []}, {"id": 389331, "min_date": "2018-05-28T10:54:00Z", "max_date": "2018-05-28T10:54:00Z", "count_points": 1, "latitude": 46.74106, "longitude": 33.32233, "city": "Nova Kakhovka", "images": []}, {"id": 389332, "min_date": "2018-05-28T10:54:00Z", "max_date": "2018-05-28T10:54:00Z", "count_points": 1, "latitude": 45.48866, "longitude": 28.45196, "city": "Reni", "images": []}, {"id": 389333, "min_date": "2018-05-28T10:54:00Z", "max_date": "2018-05-28T10:27:00Z", "count_points": 3, "latitude": 47.47932, "longitude": 34.64051, "city": "Energodar", "images": []}, {"id": 389334, "min_date": "2018-05-28T10:54:00Z", "max_date": "2018-05-28T10:54:00Z", "count_points": 1, "latitude": 49.32252, "longitude": 27.85428, "city": "Lityn", "images": []}, {"id": 389335, "min_date": "2018-05-28T10:54:00Z", "max_date": "2018-05-28T10:54:00Z", "count_points": 1, "latitude": 51.74949, "longitude": 25.77121, "city": "Kuznetsovs\u2019k", "images": []}, {"id": 389336, "min_date": "2018-05-28T10:54:00Z", "max_date": "2018-05-28T10:54:00Z", "count_points": 1, "latitude": 46.6189, "longitude": 30.42872, "city": "Teplodar", "images": []}, {"id": 389337, "min_date": "2018-05-28T10:54:00Z", "max_date": "2018-05-28T10:54:00Z", "count_points": 1, "latitude": 48.20949, "longitude": 24.24166, "city": "Kvasy", "images": []}, {"id": 389338, "min_date": "2018-05-28T10:54:00Z", "max_date": "2018-05-28T10:54:00Z", "count_points": 1, "latitude": 48.4669, "longitude": 25.56435, "city": "Sniatyn", "images": []}, {"id": 389339, "min_date": "2018-05-28T10:54:00Z", "max_date": "2018-05-28T10:54:00Z", "count_points": 1, "latitude": 49.78593, "longitude": 23.98908, "city": "Solonka", "images": []}, {"id": 389340, "min_date": "2018-05-28T10:54:00Z", "max_date": "2018-05-28T10:54:00Z", "count_points": 1, "latitude": 49.79438, "longitude": 25.19707, "city": "Zboriv", "images": []}, {"id": 389341, "min_date": "2018-05-28T10:54:00Z", "max_date": "2018-05-28T10:54:00Z", "count_points": 1, "latitude": 49.44819, "longitude": 25.36193, "city": "Ozerna", "images": []}, {"id": 389342, "min_date": "2018-05-28T10:54:00Z", "max_date": "2018-05-28T10:54:00Z", "count_points": 1, "latitude": 49.46059, "longitude": 25.21052, "city": "Kozova", "images": []}, {"id": 389343, "min_date": "2018-05-28T10:54:00Z", "max_date": "2018-05-28T10:54:00Z", "count_points": 1, "latitude": 50.50124, "longitude": 24.60645, "city": "Horokhiv", "images": []}, {"id": 389344, "min_date": "2018-05-28T10:54:00Z", "max_date": "2018-05-28T10:54:00Z", "count_points": 1, "latitude": 50.59825, "longitude": 30.27267, "city": "Hostomel", "images": []}, {"id": 389345, "min_date": "2018-05-28T10:54:00Z", "max_date": "2018-05-29T11:09:00Z", "count_points": 24, "latitude": 46.57061, "longitude": 32.85676, "city": "Radens\u2019k", "images": []}, {"id": 389346, "min_date": "2018-05-28T10:54:00Z", "max_date": "2018-05-28T10:54:00Z", "count_points": 1, "latitude": 48.39873, "longitude": 22.55626, "city": "Strabychovo", "images": []}, {"id": 389347, "min_date": "2018-05-28T23:06:00Z", "max_date": "2018-05-29T00:48:00Z", "count_points": 2, "latitude": 51.55787, "longitude": 33.42706, "city": "Krolevets\u2019", "images": []}, {"id": 389348, "min_date": "2018-05-28T23:06:00Z", "max_date": "2018-05-28T23:06:00Z", "count_points": 1, "latitude": 50.53402, "longitude": 34.4697, "city": "Lebedyn", "images": []}, {"id": 389349, "min_date": "2018-05-28T23:12:00Z", "max_date": "2018-06-03T22:54:00Z", "count_points": 2, "latitude": 50.0135, "longitude": 34.07553, "city": "Velyki Sorochyntsi", "images": []}, {"id": 389350, "min_date": "2018-05-28T23:12:00Z", "max_date": "2018-05-28T19:53:00Z", "count_points": 6, "latitude": 48.78292, "longitude": 29.37571, "city": "Haisyn", "images": []}, {"id": 389351, "min_date": "2018-05-28T23:12:00Z", "max_date": "2018-05-28T23:12:00Z", "count_points": 1, "latitude": 49.34989, "longitude": 36.38248, "city": "Pervomays\u2019kyy", "images": []}, {"id": 389352, "min_date": "2018-05-28T23:12:00Z", "max_date": "2018-06-03T22:54:00Z", "count_points": 11, "latitude": 49.18272, "longitude": 33.45962, "city": "Kremenchuk", "images": []}, {"id": 389353, "min_date": "2018-05-28T23:12:00Z", "max_date": "2018-06-02T23:18:00Z", "count_points": 3, "latitude": 48.3559, "longitude": 37.92391, "city": "Dzerzhyns\u2019k", "images": []}, {"id": 389354, "min_date": "2018-05-28T23:12:00Z", "max_date": "2018-05-28T23:12:00Z", "count_points": 1, "latitude": 47.44304, "longitude": 36.62491, "city": "Kuybysheve", "images": []}, {"id": 389355, "min_date": "2018-05-28T23:12:00Z", "max_date": "2018-06-01T23:36:00Z", "count_points": 2, "latitude": 49.39619, "longitude": 35.48861, "city": "Verbivka", "images": []}, {"id": 389356, "min_date": "2018-05-29T00:48:00Z", "max_date": "2018-05-29T00:48:00Z", "count_points": 1, "latitude": 48.93158, "longitude": 32.28558, "city": "Oleksandrivka", "images": []}, {"id": 389357, "min_date": "2018-05-29T00:48:00Z", "max_date": "2018-05-29T00:48:00Z", "count_points": 2, "latitude": 50.22981, "longitude": 33.34982, "city": "Sencha", "images": []}, {"id": 389358, "min_date": "2018-05-29T10:36:00Z", "max_date": "2018-05-29T10:36:00Z", "count_points": 1, "latitude": 47.96226, "longitude": 34.25343, "city": "Sholokhove", "images": []}, {"id": 389359, "min_date": "2018-05-29T10:36:00Z", "max_date": "2018-05-29T10:36:00Z", "count_points": 1, "latitude": 45.42127, "longitude": 28.36807, "city": "Reni", "images": []}, {"id": 389360, "min_date": "2018-05-29T10:36:00Z", "max_date": "2018-05-29T10:36:00Z", "count_points": 1, "latitude": 51.79336, "longitude": 30.96092, "city": "Ripky", "images": []}, {"id": 389361, "min_date": "2018-05-29T10:36:00Z", "max_date": "2018-05-29T10:36:00Z", "count_points": 2, "latitude": 47.59488, "longitude": 37.87359, "city": "Starobesheve", "images": []}, {"id": 389362, "min_date": "2018-05-29T10:36:00Z", "max_date": "2018-05-29T10:36:00Z", "count_points": 1, "latitude": 51.22147, "longitude": 32.44101, "city": "Borzna", "images": []}, {"id": 389363, "min_date": "2018-05-29T10:36:00Z", "max_date": "2018-05-29T10:36:00Z", "count_points": 1, "latitude": 51.70727, "longitude": 31.81628, "city": "Berezna", "images": []}, {"id": 389364, "min_date": "2018-05-29T10:36:00Z", "max_date": "2018-05-29T10:36:00Z", "count_points": 1, "latitude": 49.37955, "longitude": 35.65087, "city": "Berezivka", "images": []}, {"id": 389365, "min_date": "2018-05-29T10:36:00Z", "max_date": "2018-05-29T10:36:00Z", "count_points": 1, "latitude": 51.04521, "longitude": 26.12997, "city": "Orzhiv", "images": []}, {"id": 389366, "min_date": "2018-05-29T10:36:00Z", "max_date": "2018-05-29T11:09:00Z", "count_points": 2, "latitude": 45.47143, "longitude": 34.04186, "city": "Kotel\u2019nikovo", "images": []}, {"id": 389367, "min_date": "2018-05-29T10:36:00Z", "max_date": "2018-05-29T10:36:00Z", "count_points": 1, "latitude": 48.25527, "longitude": 22.72447, "city": "Velyki Berehy", "images": []}, {"id": 389368, "min_date": "2018-05-29T10:36:00Z", "max_date": "2018-05-30T10:18:00Z", "count_points": 2, "latitude": 45.83019, "longitude": 33.55757, "city": "Botanicheskoye", "images": []}, {"id": 389369, "min_date": "2018-05-29T10:36:00Z", "max_date": "2018-05-29T10:36:00Z", "count_points": 2, "latitude": 48.59955, "longitude": 23.54774, "city": "Volovo", "images": []}, {"id": 389370, "min_date": "2018-05-29T10:36:00Z", "max_date": "2018-05-29T10:36:00Z", "count_points": 1, "latitude": 46.06266, "longitude": 29.91452, "city": "Kulevcha", "images": []}, {"id": 389371, "min_date": "2018-05-29T10:36:00Z", "max_date": "2018-05-29T10:36:00Z", "count_points": 2, "latitude": 48.17551, "longitude": 36.0814, "city": "Vasyl\u2019kivka", "images": []}, {"id": 389372, "min_date": "2018-05-29T10:36:00Z", "max_date": "2018-05-29T10:36:00Z", "count_points": 1, "latitude": 48.10122, "longitude": 36.53796, "city": "Mezhova", "images": []}, {"id": 389373, "min_date": "2018-05-29T10:36:00Z", "max_date": "2018-05-29T10:36:00Z", "count_points": 1, "latitude": 46.1372, "longitude": 32.96629, "city": "Skadovs\u2019k", "images": []}, {"id": 389374, "min_date": "2018-05-29T10:36:00Z", "max_date": "2018-05-29T10:36:00Z", "count_points": 1, "latitude": 48.93587, "longitude": 30.83077, "city": "Glybochek", "images": []}, {"id": 389375, "min_date": "2018-05-29T10:36:00Z", "max_date": "2018-05-29T10:36:00Z", "count_points": 1, "latitude": 49.02688, "longitude": 31.37326, "city": "Shpola", "images": []}, {"id": 389376, "min_date": "2018-05-29T10:36:00Z", "max_date": "2018-05-29T10:36:00Z", "count_points": 1, "latitude": 49.05006, "longitude": 37.06699, "city": "Barvinkove", "images": []}, {"id": 389377, "min_date": "2018-05-29T10:36:00Z", "max_date": "2018-05-30T08:31:00Z", "count_points": 6, "latitude": 49.19993, "longitude": 34.88749, "city": "Hupalivka", "images": []}, {"id": 389378, "min_date": "2018-05-29T10:36:00Z", "max_date": "2018-05-29T10:36:00Z", "count_points": 1, "latitude": 48.65866, "longitude": 33.42147, "city": "Onufriyivka", "images": []}, {"id": 389379, "min_date": "2018-05-29T10:36:00Z", "max_date": "2018-05-29T10:36:00Z", "count_points": 1, "latitude": 48.42528, "longitude": 25.51483, "city": "Vashkivtsi", "images": []}, {"id": 389380, "min_date": "2018-05-29T10:36:00Z", "max_date": "2018-05-29T10:36:00Z", "count_points": 1, "latitude": 48.66771, "longitude": 27.40508, "city": "Novodnistrovs\u2019k", "images": []}, {"id": 389381, "min_date": "2018-05-29T10:36:00Z", "max_date": "2018-05-29T10:36:00Z", "count_points": 1, "latitude": 49.86613, "longitude": 23.94317, "city": "Bryukhovychi", "images": []}, {"id": 389382, "min_date": "2018-05-29T10:36:00Z", "max_date": "2018-05-29T10:36:00Z", "count_points": 1, "latitude": 51.41843, "longitude": 27.02669, "city": "Rokytne", "images": []}, {"id": 389383, "min_date": "2018-05-29T10:36:00Z", "max_date": "2018-05-29T10:36:00Z", "count_points": 1, "latitude": 49.26265, "longitude": 35.63215, "city": "Kehychivka", "images": []}, {"id": 389384, "min_date": "2018-05-29T10:36:00Z", "max_date": "2018-05-29T11:09:00Z", "count_points": 8, "latitude": 46.72341, "longitude": 34.95414, "city": "Yakymivka", "images": []}, {"id": 389385, "min_date": "2018-05-29T10:36:00Z", "max_date": "2018-05-31T10:57:00Z", "count_points": 16, "latitude": 45.71877, "longitude": 34.73633, "city": "Prostornoye", "images": []}, {"id": 389386, "min_date": "2018-05-29T12:18:00Z", "max_date": "2018-05-29T12:18:00Z", "count_points": 1, "latitude": 49.65161, "longitude": 23.20291, "city": "Pnikut", "images": []}, {"id": 389387, "min_date": "2018-05-29T22:48:00Z", "max_date": "2018-05-29T22:48:00Z", "count_points": 1, "latitude": 49.8675, "longitude": 28.47277, "city": "Berdychiv", "images": []}, {"id": 389388, "min_date": "2018-05-29T22:48:00Z", "max_date": "2018-05-31T22:12:00Z", "count_points": 5, "latitude": 49.37706, "longitude": 37.77938, "city": "Borova", "images": []}, {"id": 389389, "min_date": "2018-05-29T22:48:00Z", "max_date": "2018-05-29T22:48:00Z", "count_points": 1, "latitude": 49.27811, "longitude": 30.81528, "city": "Lysyanka", "images": []}, {"id": 389390, "min_date": "2018-05-29T22:48:00Z", "max_date": "2018-05-29T22:48:00Z", "count_points": 1, "latitude": 50.10081, "longitude": 34.5453, "city": "Oposhnya", "images": []}, {"id": 389391, "min_date": "2018-05-29T22:48:00Z", "max_date": "2018-05-29T22:48:00Z", "count_points": 2, "latitude": 50.744, "longitude": 32.27972, "city": "Lisovi Sorochyntsi", "images": []}, {"id": 389392, "min_date": "2018-05-30T00:30:00Z", "max_date": "2018-05-30T00:30:00Z", "count_points": 1, "latitude": 49.91715, "longitude": 24.1284, "city": "Dublyany", "images": []}, {"id": 389393, "min_date": "2018-05-30T00:30:00Z", "max_date": "2018-06-01T11:18:00Z", "count_points": 3, "latitude": 48.90456, "longitude": 28.34079, "city": "Sutysky", "images": []}, {"id": 389394, "min_date": "2018-05-30T00:30:00Z", "max_date": "2018-05-30T00:30:00Z", "count_points": 1, "latitude": 50.0053, "longitude": 35.16964, "city": "Krasnokuts\u2019k", "images": []}, {"id": 389395, "min_date": "2018-05-30T00:30:00Z", "max_date": "2018-05-31T00:12:00Z", "count_points": 2, "latitude": 49.70431, "longitude": 26.66779, "city": "Narkevychi", "images": []}, {"id": 389396, "min_date": "2018-05-30T00:30:00Z", "max_date": "2018-05-30T00:30:00Z", "count_points": 2, "latitude": 50.46521, "longitude": 30.59262, "city": "Kyiv", "images": []}, {"id": 389397, "min_date": "2018-05-30T10:18:00Z", "max_date": "2018-05-30T10:18:00Z", "count_points": 1, "latitude": 47.78884, "longitude": 38.60549, "city": "Amvrosiyivka", "images": []}, {"id": 389398, "min_date": "2018-05-30T10:18:00Z", "max_date": "2018-05-30T10:18:00Z", "count_points": 1, "latitude": 51.59991, "longitude": 32.56884, "city": "Sosnytsya", "images": []}, {"id": 389399, "min_date": "2018-05-30T10:18:00Z", "max_date": "2018-05-30T10:18:00Z", "count_points": 1, "latitude": 47.80069, "longitude": 36.43065, "city": "Hulyaypole", "images": []}, {"id": 389400, "min_date": "2018-05-30T10:18:00Z", "max_date": "2018-05-30T10:14:00Z", "count_points": 12, "latitude": 45.04186, "longitude": 34.70757, "city": "Michurinskoye", "images": []}, {"id": 389401, "min_date": "2018-05-30T10:18:00Z", "max_date": "2018-05-30T10:18:00Z", "count_points": 1, "latitude": 50.20483, "longitude": 29.38241, "city": "Brusyliv", "images": []}, {"id": 389402, "min_date": "2018-05-30T10:18:00Z", "max_date": "2018-05-30T10:18:00Z", "count_points": 1, "latitude": 49.69839, "longitude": 30.48449, "city": "Rokytne", "images": []}, {"id": 389403, "min_date": "2018-05-30T10:18:00Z", "max_date": "2018-05-30T10:18:00Z", "count_points": 2, "latitude": 45.94643, "longitude": 33.78802, "city": "Krasnoperekops\u2019k", "images": []}, {"id": 389404, "min_date": "2018-05-30T10:18:00Z", "max_date": "2018-05-30T10:18:00Z", "count_points": 1, "latitude": 45.13559, "longitude": 35.87431, "city": "Kirovo", "images": []}, {"id": 389405, "min_date": "2018-05-30T10:18:00Z", "max_date": "2018-05-30T10:14:00Z", "count_points": 3, "latitude": 46.25248, "longitude": 33.65937, "city": "Armyansk", "images": []}, {"id": 389406, "min_date": "2018-05-30T10:18:00Z", "max_date": "2018-05-30T10:18:00Z", "count_points": 1, "latitude": 48.62564, "longitude": 23.83662, "city": "Synevyrska Poliana", "images": []}, {"id": 389407, "min_date": "2018-05-30T12:00:00Z", "max_date": "2018-05-30T12:00:00Z", "count_points": 1, "latitude": 49.65981, "longitude": 24.5093, "city": "Peremyshlyany", "images": []}, {"id": 389408, "min_date": "2018-05-30T22:30:00Z", "max_date": "2018-05-30T22:30:00Z", "count_points": 2, "latitude": 49.98394, "longitude": 32.97982, "city": "Lubny", "images": []}, {"id": 389409, "min_date": "2018-05-31T00:12:00Z", "max_date": "2018-05-31T23:54:00Z", "count_points": 2, "latitude": 49.0179, "longitude": 33.22216, "city": "Svitlovods\u2019k", "images": []}, {"id": 389410, "min_date": "2018-05-31T00:12:00Z", "max_date": "2018-05-31T00:12:00Z", "count_points": 1, "latitude": 49.91909, "longitude": 24.31386, "city": "Novyy Yarychiv", "images": []}, {"id": 389411, "min_date": "2018-05-31T00:12:00Z", "max_date": "2018-05-31T23:54:00Z", "count_points": 2, "latitude": 48.36546, "longitude": 28.25425, "city": "Yampil\u2019", "images": []}, {"id": 389412, "min_date": "2018-05-31T00:12:00Z", "max_date": "2018-05-31T00:12:00Z", "count_points": 1, "latitude": 49.00531, "longitude": 35.1394, "city": "Zachepylivka", "images": []}, {"id": 389413, "min_date": "2018-05-31T00:12:00Z", "max_date": "2018-05-31T00:12:00Z", "count_points": 1, "latitude": 51.53944, "longitude": 27.64144, "city": "Olevs\u2019k", "images": []}, {"id": 389414, "min_date": "2018-05-31T00:12:00Z", "max_date": "2018-05-31T00:12:00Z", "count_points": 1, "latitude": 50.25114, "longitude": 29.98552, "city": "Chervona Motovylivka", "images": []}, {"id": 389415, "min_date": "2018-05-31T00:12:00Z", "max_date": "2018-05-31T00:12:00Z", "count_points": 1, "latitude": 49.27699, "longitude": 23.41447, "city": "Boryslav", "images": []}, {"id": 389416, "min_date": "2018-05-31T10:00:00Z", "max_date": "2018-05-31T10:58:00Z", "count_points": 6, "latitude": 50.95744, "longitude": 30.76126, "city": "Desna", "images": [{"image_url": "389416.jpg", "timestamp": "2018-05-31T10:58:00Z"}]}, {"id": 389417, "min_date": "2018-05-31T10:00:00Z", "max_date": "2018-05-31T23:54:00Z", "count_points": 4, "latitude": 48.58935, "longitude": 38.87649, "city": "Alchevs\u2019k", "images": []}, {"id": 389418, "min_date": "2018-05-31T10:00:00Z", "max_date": "2018-05-31T10:57:00Z", "count_points": 7, "latitude": 48.70276, "longitude": 39.14543, "city": "Shchastya", "images": []}, {"id": 389419, "min_date": "2018-05-31T10:00:00Z", "max_date": "2018-05-31T10:00:00Z", "count_points": 1, "latitude": 50.06147, "longitude": 24.50101, "city": "Bus\u2019k", "images": []}, {"id": 389420, "min_date": "2018-05-31T10:00:00Z", "max_date": "2018-05-31T10:00:00Z", "count_points": 1, "latitude": 46.69182, "longitude": 31.99816, "city": "Parutyne", "images": []}, {"id": 389421, "min_date": "2018-05-31T10:00:00Z", "max_date": "2018-05-31T10:00:00Z", "count_points": 1, "latitude": 50.44245, "longitude": 30.69497, "city": "Knyazhichi", "images": []}, {"id": 389422, "min_date": "2018-05-31T10:00:00Z", "max_date": "2018-05-31T10:00:00Z", "count_points": 1, "latitude": 47.52968, "longitude": 35.3952, "city": "Vasylivka", "images": []}, {"id": 389423, "min_date": "2018-05-31T10:00:00Z", "max_date": "2018-05-31T10:00:00Z", "count_points": 2, "latitude": 49.32319, "longitude": 28.32922, "city": "Vinnytsia", "images": []}, {"id": 389424, "min_date": "2018-05-31T10:00:00Z", "max_date": "2018-05-31T10:00:00Z", "count_points": 1, "latitude": 49.47391, "longitude": 36.03523, "city": "Chapayeve", "images": []}, {"id": 389425, "min_date": "2018-05-31T10:00:00Z", "max_date": "2018-05-31T10:58:00Z", "count_points": 3, "latitude": 50.72462, "longitude": 26.79586, "city": "Velyki Mezhyrichi", "images": []}, {"id": 389426, "min_date": "2018-05-31T10:00:00Z", "max_date": "2018-05-31T10:00:00Z", "count_points": 1, "latitude": 46.19507, "longitude": 34.08336, "city": "Krasnoarmeyskoye", "images": []}, {"id": 389427, "min_date": "2018-05-31T10:00:00Z", "max_date": "2018-05-31T11:42:00Z", "count_points": 2, "latitude": 48.20972, "longitude": 29.35764, "city": "Chechelnyk", "images": []}, {"id": 389428, "min_date": "2018-05-31T10:00:00Z", "max_date": "2018-05-31T10:00:00Z", "count_points": 1, "latitude": 47.37775, "longitude": 35.54401, "city": "Tokmak", "images": []}, {"id": 389429, "min_date": "2018-05-31T10:00:00Z", "max_date": "2018-05-31T10:00:00Z", "count_points": 1, "latitude": 49.79654, "longitude": 31.65826, "city": "Kaniv", "images": []}, {"id": 389430, "min_date": "2018-05-31T10:00:00Z", "max_date": "2018-05-31T10:00:00Z", "count_points": 2, "latitude": 47.27879, "longitude": 37.85796, "city": "Bezimenne", "images": []}, {"id": 389431, "min_date": "2018-05-31T10:00:00Z", "max_date": "2018-05-31T10:00:00Z", "count_points": 2, "latitude": 51.16656, "longitude": 32.50285, "city": "Borzna", "images": []}, {"id": 389432, "min_date": "2018-05-31T10:00:00Z", "max_date": "2018-05-31T10:00:00Z", "count_points": 1, "latitude": 50.58065, "longitude": 30.62386, "city": "Pukhivka", "images": []}, {"id": 389433, "min_date": "2018-05-31T10:00:00Z", "max_date": "2018-05-31T10:00:00Z", "count_points": 1, "latitude": 51.6353, "longitude": 27.24571, "city": "Rokytne", "images": []}, {"id": 389434, "min_date": "2018-05-31T11:36:00Z", "max_date": "2018-05-31T11:36:00Z", "count_points": 1, "latitude": 45.92029, "longitude": 29.59788, "city": "Tatarbunary", "images": []}, {"id": 389435, "min_date": "2018-05-31T11:42:00Z", "max_date": "2018-05-31T11:42:00Z", "count_points": 1, "latitude": 50.75968, "longitude": 26.43566, "city": "Kostopil\u2019", "images": []}, {"id": 389436, "min_date": "2018-05-31T11:42:00Z", "max_date": "2018-05-31T11:42:00Z", "count_points": 2, "latitude": 47.46868, "longitude": 35.58673, "city": "Kirove", "images": []}, {"id": 389437, "min_date": "2018-05-31T11:42:00Z", "max_date": "2018-05-31T11:42:00Z", "count_points": 1, "latitude": 50.94787, "longitude": 24.21598, "city": "Volodymyr-Volynskyi", "images": []}, {"id": 389438, "min_date": "2018-05-31T11:42:00Z", "max_date": "2018-05-31T11:42:00Z", "count_points": 1, "latitude": 51.62229, "longitude": 26.01412, "city": "Kuznetsovs\u2019k", "images": []}, {"id": 389439, "min_date": "2018-05-31T11:42:00Z", "max_date": "2018-05-31T11:42:00Z", "count_points": 1, "latitude": 49.37707, "longitude": 28.47415, "city": "Pavlovka", "images": []}, {"id": 389440, "min_date": "2018-05-31T11:42:00Z", "max_date": "2018-05-31T10:58:00Z", "count_points": 2, "latitude": 50.18026, "longitude": 28.48166, "city": "Denyshi", "images": []}, {"id": 389441, "min_date": "2018-05-31T23:54:00Z", "max_date": "2018-05-31T23:54:00Z", "count_points": 1, "latitude": 51.53908, "longitude": 26.71534, "city": "Dubrovytsya", "images": []}, {"id": 389442, "min_date": "2018-05-31T23:54:00Z", "max_date": "2018-05-31T23:54:00Z", "count_points": 1, "latitude": 50.42913, "longitude": 32.79719, "city": "Varva", "images": []}, {"id": 389443, "min_date": "2018-05-31T23:54:00Z", "max_date": "2018-05-31T23:54:00Z", "count_points": 1, "latitude": 49.82984, "longitude": 34.745, "city": "Oposhnya", "images": []}, {"id": 389444, "min_date": "2018-05-31T23:54:00Z", "max_date": "2018-05-31T23:54:00Z", "count_points": 2, "latitude": 50.75312, "longitude": 34.93492, "city": "Verkhnya Syrovatka", "images": []}, {"id": 389445, "min_date": "2018-05-31T23:54:00Z", "max_date": "2018-05-31T23:54:00Z", "count_points": 1, "latitude": 49.55992, "longitude": 25.31759, "city": "Ozerna", "images": []}, {"id": 389446, "min_date": "2018-05-31T23:54:00Z", "max_date": "2018-05-31T23:54:00Z", "count_points": 2, "latitude": 50.51478, "longitude": 29.86631, "city": "Makariv", "images": []}, {"id": 389447, "min_date": "2018-05-31T23:54:00Z", "max_date": "2018-05-31T23:54:00Z", "count_points": 1, "latitude": 48.4761, "longitude": 38.40482, "city": "Debal\u2019tseve", "images": []}, {"id": 389448, "min_date": "2018-05-31T23:54:00Z", "max_date": "2018-05-31T23:54:00Z", "count_points": 1, "latitude": 49.7938, "longitude": 36.09148, "city": "Utkivka", "images": []}, {"id": 389449, "min_date": "2018-05-31T23:54:00Z", "max_date": "2018-05-31T23:54:00Z", "count_points": 1, "latitude": 48.78118, "longitude": 37.57211, "city": "Kramators\u2019k", "images": []}, {"id": 389450, "min_date": "2018-05-31T23:54:00Z", "max_date": "2018-05-31T23:54:00Z", "count_points": 1, "latitude": 49.11097, "longitude": 32.63106, "city": "Chyhyryn", "images": []}, {"id": 389451, "min_date": "2018-05-31T23:54:00Z", "max_date": "2018-05-31T23:54:00Z", "count_points": 3, "latitude": 49.71297, "longitude": 36.22492, "city": "Zmiyiv", "images": []}, {"id": 389452, "min_date": "2018-06-01T09:42:00Z", "max_date": "2018-06-01T09:42:00Z", "count_points": 3, "latitude": 51.14454, "longitude": 31.92514, "city": "Nizhyn", "images": []}, {"id": 389453, "min_date": "2018-06-01T09:42:00Z", "max_date": "2018-06-01T09:42:00Z", "count_points": 1, "latitude": 49.00921, "longitude": 27.9603, "city": "Zhmerynka", "images": []}, {"id": 389454, "min_date": "2018-06-01T09:42:00Z", "max_date": "2018-06-01T09:42:00Z", "count_points": 1, "latitude": 47.93199, "longitude": 38.21675, "city": "Ilovays\u2019k", "images": []}, {"id": 389455, "min_date": "2018-06-01T11:18:00Z", "max_date": "2018-06-01T11:18:00Z", "count_points": 1, "latitude": 45.76184, "longitude": 33.5014, "city": "Razdol\u2019noye", "images": []}, {"id": 389456, "min_date": "2018-06-01T11:18:00Z", "max_date": "2018-06-01T11:18:00Z", "count_points": 1, "latitude": 48.65671, "longitude": 24.87864, "city": "Otyniya", "images": []}, {"id": 389457, "min_date": "2018-06-01T11:18:00Z", "max_date": "2018-06-01T11:18:00Z", "count_points": 1, "latitude": 47.66314, "longitude": 35.10105, "city": "Kushuhum", "images": []}, {"id": 389458, "min_date": "2018-06-01T11:18:00Z", "max_date": "2018-06-01T11:18:00Z", "count_points": 1, "latitude": 47.49189, "longitude": 33.40429, "city": "Vysokopillya", "images": []}, {"id": 389459, "min_date": "2018-06-01T11:18:00Z", "max_date": "2018-06-01T11:18:00Z", "count_points": 1, "latitude": 48.95668, "longitude": 28.28574, "city": "Sutysky", "images": []}, {"id": 389460, "min_date": "2018-06-01T11:18:00Z", "max_date": "2018-06-01T11:18:00Z", "count_points": 1, "latitude": 47.24649, "longitude": 35.9921, "city": "Chernihivka", "images": []}, {"id": 389461, "min_date": "2018-06-01T11:18:00Z", "max_date": "2018-06-01T11:18:00Z", "count_points": 1, "latitude": 48.17551, "longitude": 31.05492, "city": "Lysa Hora", "images": []}, {"id": 389462, "min_date": "2018-06-01T11:18:00Z", "max_date": "2018-06-01T11:18:00Z", "count_points": 1, "latitude": 45.53751, "longitude": 29.52864, "city": "Vylkove", "images": []}, {"id": 389463, "min_date": "2018-06-01T11:24:00Z", "max_date": "2018-06-01T11:24:00Z", "count_points": 1, "latitude": 50.84152, "longitude": 31.57464, "city": "Kobyzhcha", "images": []}, {"id": 389464, "min_date": "2018-06-01T11:24:00Z", "max_date": "2018-06-01T11:24:00Z", "count_points": 2, "latitude": 51.61913, "longitude": 27.18702, "city": "Rokytne", "images": []}, {"id": 389465, "min_date": "2018-06-01T11:24:00Z", "max_date": "2018-06-01T11:24:00Z", "count_points": 1, "latitude": 50.36351, "longitude": 29.75063, "city": "Makariv", "images": []}, {"id": 389466, "min_date": "2018-06-01T11:24:00Z", "max_date": "2018-06-01T11:24:00Z", "count_points": 1, "latitude": 51.16607, "longitude": 27.70779, "city": "Olevs\u2019k", "images": []}, {"id": 389467, "min_date": "2018-06-01T23:36:00Z", "max_date": "2018-06-01T23:36:00Z", "count_points": 1, "latitude": 46.60001, "longitude": 35.72467, "city": "Pryazovs\u2019ke", "images": []}, {"id": 389468, "min_date": "2018-06-01T23:36:00Z", "max_date": "2018-06-02T01:18:00Z", "count_points": 2, "latitude": 48.09236, "longitude": 25.95781, "city": "Hlyboka", "images": []}, {"id": 389469, "min_date": "2018-06-01T23:36:00Z", "max_date": "2018-06-01T23:36:00Z", "count_points": 1, "latitude": 46.56509, "longitude": 33.91421, "city": "Askaniya-Nova", "images": []}, {"id": 389470, "min_date": "2018-06-01T23:36:00Z", "max_date": "2018-06-01T23:36:00Z", "count_points": 4, "latitude": 48.74176, "longitude": 23.4578, "city": "Verchnia Rozhanka", "images": []}, {"id": 389471, "min_date": "2018-06-01T23:36:00Z", "max_date": "2018-06-01T23:36:00Z", "count_points": 1, "latitude": 47.13811, "longitude": 31.81017, "city": "Olshanskoye", "images": []}, {"id": 389472, "min_date": "2018-06-01T23:36:00Z", "max_date": "2018-06-01T23:36:00Z", "count_points": 1, "latitude": 49.92751, "longitude": 34.22301, "city": "Shyshaky", "images": []}, {"id": 389473, "min_date": "2018-06-01T23:36:00Z", "max_date": "2018-06-02T01:12:00Z", "count_points": 2, "latitude": 51.85989, "longitude": 25.69156, "city": "Lyubeshiv", "images": []}, {"id": 389474, "min_date": "2018-06-01T23:36:00Z", "max_date": "2018-06-01T23:36:00Z", "count_points": 2, "latitude": 49.36987, "longitude": 32.26214, "city": "Chervona Sloboda", "images": []}, {"id": 389475, "min_date": "2018-06-01T23:36:00Z", "max_date": "2018-06-01T23:36:00Z", "count_points": 1, "latitude": 45.97271, "longitude": 30.29025, "city": "Serhiyivka", "images": []}, {"id": 389476, "min_date": "2018-06-01T23:36:00Z", "max_date": "2018-06-01T23:36:00Z", "count_points": 4, "latitude": 47.13236, "longitude": 36.55069, "city": "Komysh-Zorya", "images": []}, {"id": 389477, "min_date": "2018-06-02T01:12:00Z", "max_date": "2018-06-02T01:12:00Z", "count_points": 1, "latitude": 50.84045, "longitude": 33.34695, "city": "Romny", "images": []}, {"id": 389478, "min_date": "2018-06-02T01:12:00Z", "max_date": "2018-06-02T01:12:00Z", "count_points": 3, "latitude": 49.64126, "longitude": 34.35205, "city": "Poltava", "images": []}, {"id": 389479, "min_date": "2018-06-02T01:18:00Z", "max_date": "2018-06-02T01:18:00Z", "count_points": 1, "latitude": 46.62876, "longitude": 31.20608, "city": "Kobleve", "images": []}, {"id": 389480, "min_date": "2018-06-02T09:18:00Z", "max_date": "2018-06-02T09:18:00Z", "count_points": 2, "latitude": 45.99104, "longitude": 33.7723, "city": "Pochetnoye", "images": []}, {"id": 389481, "min_date": "2018-06-02T09:24:00Z", "max_date": "2018-06-02T09:24:00Z", "count_points": 1, "latitude": 47.83023, "longitude": 34.54124, "city": "Tomakivka", "images": []}, {"id": 389482, "min_date": "2018-06-02T09:24:00Z", "max_date": "2018-06-02T09:24:00Z", "count_points": 1, "latitude": 48.08562, "longitude": 35.62271, "city": "Vil\u2019nyans\u2019k", "images": []}, {"id": 389483, "min_date": "2018-06-02T09:24:00Z", "max_date": "2018-06-02T09:24:00Z", "count_points": 1, "latitude": 47.6689, "longitude": 34.5851, "city": "Marhanets\u2019", "images": []}, {"id": 389484, "min_date": "2018-06-02T09:24:00Z", "max_date": "2018-06-02T11:00:00Z", "count_points": 4, "latitude": 48.35872, "longitude": 39.13361, "city": "Uspenka", "images": []}, {"id": 389485, "min_date": "2018-06-02T11:00:00Z", "max_date": "2018-06-02T11:00:00Z", "count_points": 1, "latitude": 48.51542, "longitude": 27.4712, "city": "Sokyryany", "images": []}, {"id": 389486, "min_date": "2018-06-02T11:00:00Z", "max_date": "2018-06-02T11:00:00Z", "count_points": 1, "latitude": 50.43546, "longitude": 24.65945, "city": "Horokhiv", "images": []}, {"id": 389487, "min_date": "2018-06-02T11:00:00Z", "max_date": "2018-06-02T11:00:00Z", "count_points": 1, "latitude": 46.63946, "longitude": 33.68842, "city": "Lyubymivka", "images": []}, {"id": 389488, "min_date": "2018-06-02T11:00:00Z", "max_date": "2018-06-02T11:00:00Z", "count_points": 1, "latitude": 45.35485, "longitude": 28.85491, "city": "Izmayil", "images": []}, {"id": 389489, "min_date": "2018-06-02T11:00:00Z", "max_date": "2018-06-02T11:00:00Z", "count_points": 1, "latitude": 46.95835, "longitude": 35.03591, "city": "Vesele", "images": []}, {"id": 389490, "min_date": "2018-06-02T11:00:00Z", "max_date": "2018-06-02T11:00:00Z", "count_points": 1, "latitude": 48.4032, "longitude": 24.75088, "city": "Bili Oslavy", "images": []}, {"id": 389491, "min_date": "2018-06-02T11:00:00Z", "max_date": "2018-06-02T11:00:00Z", "count_points": 1, "latitude": 47.79499, "longitude": 29.51733, "city": "Podil\u2019s\u2019k", "images": []}, {"id": 389492, "min_date": "2018-06-02T11:00:00Z", "max_date": "2018-06-02T09:02:00Z", "count_points": 3, "latitude": 47.49982, "longitude": 29.46888, "city": "Okny", "images": []}, {"id": 389493, "min_date": "2018-06-02T11:00:00Z", "max_date": "2018-06-02T11:00:00Z", "count_points": 1, "latitude": 50.9667, "longitude": 28.48634, "city": "Luhyny", "images": []}, {"id": 389494, "min_date": "2018-06-02T11:00:00Z", "max_date": "2018-06-02T11:00:00Z", "count_points": 1, "latitude": 46.42024, "longitude": 35.41515, "city": "Kyrylivka", "images": []}, {"id": 389495, "min_date": "2018-06-02T11:00:00Z", "max_date": "2018-06-02T11:00:00Z", "count_points": 2, "latitude": 50.24209, "longitude": 29.68076, "city": "Brusyliv", "images": []}, {"id": 389496, "min_date": "2018-06-02T11:00:00Z", "max_date": "2018-06-02T11:00:00Z", "count_points": 1, "latitude": 49.09187, "longitude": 30.42699, "city": "Buky", "images": []}, {"id": 389497, "min_date": "2018-06-02T11:00:00Z", "max_date": "2018-06-02T11:00:00Z", "count_points": 1, "latitude": 48.71224, "longitude": 32.91317, "city": "Pantayivka", "images": []}, {"id": 389498, "min_date": "2018-06-02T11:00:00Z", "max_date": "2018-06-02T11:00:00Z", "count_points": 1, "latitude": 50.72762, "longitude": 29.32207, "city": "Malyn", "images": []}, {"id": 389499, "min_date": "2018-06-02T23:18:00Z", "max_date": "2018-06-02T23:18:00Z", "count_points": 4, "latitude": 48.41501, "longitude": 35.12457, "city": "Kaydaki", "images": []}, {"id": 389500, "min_date": "2018-06-02T23:18:00Z", "max_date": "2018-06-02T23:18:00Z", "count_points": 1, "latitude": 47.97948, "longitude": 33.51482, "city": "Kryvyi Rih", "images": []}, {"id": 389501, "min_date": "2018-06-02T23:18:00Z", "max_date": "2018-06-02T23:18:00Z", "count_points": 1, "latitude": 49.55534, "longitude": 36.62529, "city": "Komsomol\u2019s\u2019ke", "images": []}, {"id": 389502, "min_date": "2018-06-02T23:18:00Z", "max_date": "2018-06-02T23:18:00Z", "count_points": 1, "latitude": 47.14691, "longitude": 38.06879, "city": "Novoazovsk", "images": []}, {"id": 389503, "min_date": "2018-06-03T10:42:00Z", "max_date": "2018-06-03T10:42:00Z", "count_points": 1, "latitude": 50.2317, "longitude": 28.72069, "city": "Zhytomyr", "images": []}, {"id": 389504, "min_date": "2018-06-03T10:42:00Z", "max_date": "2018-06-03T10:42:00Z", "count_points": 1, "latitude": 46.35592, "longitude": 34.40172, "city": "Novotroyits\u2019ke", "images": []}, {"id": 389505, "min_date": "2018-06-03T10:42:00Z", "max_date": "2018-06-03T10:42:00Z", "count_points": 1, "latitude": 46.35975, "longitude": 30.67401, "city": "Tayirove", "images": []}, {"id": 389506, "min_date": "2018-06-03T10:42:00Z", "max_date": "2018-06-03T10:42:00Z", "count_points": 1, "latitude": 45.03196, "longitude": 34.01634, "city": "Sovkhoznoye", "images": []}, {"id": 389507, "min_date": "2018-06-03T10:42:00Z", "max_date": "2018-06-03T10:42:00Z", "count_points": 1, "latitude": 45.22158, "longitude": 34.11617, "city": "Novoandreyevka", "images": []}, {"id": 389508, "min_date": "2018-05-28T08:42:00Z", "max_date": "2018-05-28T08:42:00Z", "count_points": 1, "latitude": 51.7734, "longitude": 33.7312, "city": "Yampil\u2019", "images": []}, {"id": 389509, "min_date": "2018-05-28T08:43:00Z", "max_date": "2018-05-28T08:43:00Z", "count_points": 1, "latitude": 49.1808, "longitude": 35.6105, "city": "Kehychivka", "images": []}, {"id": 389510, "min_date": "2018-05-28T08:44:00Z", "max_date": "2018-05-28T08:44:00Z", "count_points": 1, "latitude": 47.3404, "longitude": 35.4549, "city": "Pryshyb", "images": []}, {"id": 389511, "min_date": "2018-05-29T09:26:00Z", "max_date": "2018-05-29T09:26:00Z", "count_points": 1, "latitude": 48.7686, "longitude": 27.4317, "city": "Murovani Kurylivtsi", "images": []}, {"id": 389512, "min_date": "2018-05-29T09:26:00Z", "max_date": "2018-05-29T09:26:00Z", "count_points": 1, "latitude": 49.6458, "longitude": 23.3549, "city": "Rudky", "images": []}, {"id": 389513, "min_date": "2018-05-29T11:09:00Z", "max_date": "2018-05-29T11:09:00Z", "count_points": 2, "latitude": 45.19665, "longitude": 34.0411, "city": "Shirokoye", "images": []}, {"id": 389514, "min_date": "2018-05-30T08:32:00Z", "max_date": "2018-05-30T08:32:00Z", "count_points": 4, "latitude": 45.30982, "longitude": 36.21785, "city": "Gornostayevka", "images": []}, {"id": 389515, "min_date": "2018-05-30T10:15:00Z", "max_date": "2018-05-30T10:15:00Z", "count_points": 1, "latitude": 49.2932, "longitude": 39.0113, "city": "Starobil\u2019s\u2019k", "images": []}, {"id": 389516, "min_date": "2018-05-30T19:40:00Z", "max_date": "2018-05-30T19:40:00Z", "count_points": 1, "latitude": 48.3003, "longitude": 37.2079, "city": "Krasnoarmiys\u2019k", "images": []}, {"id": 389517, "min_date": "2018-05-31T09:13:00Z", "max_date": "2018-05-31T09:13:00Z", "count_points": 1, "latitude": 51.8821, "longitude": 33.3032, "city": "Novhorod-Sivers\u2019kyy", "images": []}, {"id": 389518, "min_date": "2018-05-31T09:13:00Z", "max_date": "2018-05-31T09:13:00Z", "count_points": 1, "latitude": 52.0466, "longitude": 32.9619, "city": "Novhorod-Sivers\u2019kyy", "images": []}, {"id": 389519, "min_date": "2018-05-31T09:14:00Z", "max_date": "2018-05-31T09:14:00Z", "count_points": 1, "latitude": 48.5249, "longitude": 30.1597, "city": "Blahovishchens\u2019ke", "images": []}, {"id": 389520, "min_date": "2018-05-31T10:58:00Z", "max_date": "2018-05-31T10:58:00Z", "count_points": 1, "latitude": 48.2121, "longitude": 25.6981, "city": "Storozhynets\u2019", "images": []}, {"id": 389521, "min_date": "2018-05-31T10:59:00Z", "max_date": "2018-05-31T10:59:00Z", "count_points": 1, "latitude": 51.4898, "longitude": 25.584, "city": "Manevychi", "images": []}, {"id": 389522, "min_date": "2018-06-01T08:18:00Z", "max_date": "2018-06-01T08:18:00Z", "count_points": 1, "latitude": 51.7218, "longitude": 33.3684, "city": "Shostka", "images": []}, {"id": 389523, "min_date": "2018-06-01T08:18:00Z", "max_date": "2018-06-01T08:18:00Z", "count_points": 1, "latitude": 51.6488, "longitude": 32.8866, "city": "Korop", "images": []}, {"id": 389524, "min_date": "2018-06-02T09:02:00Z", "max_date": "2018-06-02T09:02:00Z", "count_points": 1, "latitude": 46.6029, "longitude": 32.4571, "city": "Bilozerka", "images": []}, {"id": 389525, "min_date": "2018-06-02T09:02:00Z", "max_date": "2018-06-02T09:02:00Z", "count_points": 1, "latitude": 48.2285, "longitude": 29.4271, "city": "Chechelnyk", "images": []}]