[{"id": 383884, "min_date": "2018-04-09T11:12:00Z", "max_date": "2018-04-09T11:12:00Z", "count_points": 1, "latitude": 48.75383, "longitude": 24.8662, "city": "Otyniya", "images": []}, {"id": 383304, "min_date": "2018-04-09T01:24:00Z", "max_date": "2018-04-09T01:24:00Z", "count_points": 1, "latitude": 49.16353, "longitude": 30.363, "city": "Buky", "images": []}, {"id": 383305, "min_date": "2018-04-09T01:24:00Z", "max_date": "2018-04-10T10:54:00Z", "count_points": 5, "latitude": 50.31998, "longitude": 26.59392, "city": "Netishyn", "images": [{"image_url": "383305.jpg", "timestamp": "2018-04-10T10:54:00Z"}]}, {"id": 383306, "min_date": "2018-04-09T01:30:00Z", "max_date": "2018-04-09T09:38:00Z", "count_points": 5, "latitude": 49.47813, "longitude": 23.94807, "city": "Rozvadiv", "images": [{"image_url": "383306.jpg", "timestamp": "2018-04-09T09:38:00Z"}]}, {"id": 383307, "min_date": "2018-04-09T01:30:00Z", "max_date": "2018-04-09T01:30:00Z", "count_points": 1, "latitude": 49.84908, "longitude": 26.80917, "city": "Antoniny", "images": []}, {"id": 383308, "min_date": "2018-04-09T01:30:00Z", "max_date": "2018-04-09T09:38:00Z", "count_points": 4, "latitude": 49.25631, "longitude": 28.21143, "city": "Lityn", "images": []}, {"id": 383309, "min_date": "2018-04-09T01:30:00Z", "max_date": "2018-04-09T11:23:00Z", "count_points": 5, "latitude": 50.1333, "longitude": 25.71293, "city": "Kremenets", "images": []}, {"id": 383310, "min_date": "2018-04-09T09:36:00Z", "max_date": "2018-04-11T11:11:00Z", "count_points": 17, "latitude": 50.04464, "longitude": 27.49925, "city": "Novoselytsya", "images": [{"image_url": "383310.jpg", "timestamp": "2018-04-11T11:11:00Z"}]}, {"id": 383311, "min_date": "2018-04-09T09:36:00Z", "max_date": "2018-04-09T09:38:00Z", "count_points": 3, "latitude": 49.42677, "longitude": 28.08909, "city": "Lityn", "images": []}, {"id": 383312, "min_date": "2018-04-09T09:36:00Z", "max_date": "2018-04-09T11:23:00Z", "count_points": 8, "latitude": 50.63135, "longitude": 28.23768, "city": "Pulyny", "images": [{"image_url": "383312.jpg", "timestamp": "2018-04-09T11:23:00Z"}]}, {"id": 383313, "min_date": "2018-04-09T09:36:00Z", "max_date": "2018-04-10T08:43:00Z", "count_points": 13, "latitude": 49.53066, "longitude": 28.15703, "city": "Ulaniv", "images": []}, {"id": 383314, "min_date": "2018-04-09T09:36:00Z", "max_date": "2018-04-09T09:36:00Z", "count_points": 1, "latitude": 50.41562, "longitude": 28.17277, "city": "Pulyny", "images": []}, {"id": 383315, "min_date": "2018-04-09T09:36:00Z", "max_date": "2018-04-09T09:38:00Z", "count_points": 6, "latitude": 48.86672, "longitude": 28.30808, "city": "Sutysky", "images": []}, {"id": 383316, "min_date": "2018-04-09T09:36:00Z", "max_date": "2018-04-09T09:37:00Z", "count_points": 4, "latitude": 50.70199, "longitude": 28.24232, "city": "Khoroshiv", "images": [{"image_url": "383316.jpg", "timestamp": "2018-04-09T09:37:00Z"}]}, {"id": 383317, "min_date": "2018-04-09T09:36:00Z", "max_date": "2018-04-09T11:23:00Z", "count_points": 12, "latitude": 50.60066, "longitude": 25.92151, "city": "Klevan\u2019", "images": []}, {"id": 383318, "min_date": "2018-04-09T09:36:00Z", "max_date": "2018-04-09T09:36:00Z", "count_points": 2, "latitude": 49.58419, "longitude": 28.28471, "city": "Ulaniv", "images": []}, {"id": 383319, "min_date": "2018-04-09T09:36:00Z", "max_date": "2018-04-09T09:36:00Z", "count_points": 2, "latitude": 50.42796, "longitude": 25.79742, "city": "Dubno", "images": []}, {"id": 383320, "min_date": "2018-04-09T09:36:00Z", "max_date": "2018-04-09T11:23:00Z", "count_points": 3, "latitude": 48.2413, "longitude": 29.29883, "city": "Chechelnyk", "images": []}, {"id": 383321, "min_date": "2018-04-09T09:36:00Z", "max_date": "2018-04-13T10:59:00Z", "count_points": 63, "latitude": 50.04181, "longitude": 28.07126, "city": "Chudniv", "images": [{"image_url": "383321.jpg", "timestamp": "2018-04-13T10:59:00Z"}]}, {"id": 383322, "min_date": "2018-04-09T09:36:00Z", "max_date": "2018-04-09T09:38:00Z", "count_points": 4, "latitude": 49.68536, "longitude": 27.84893, "city": "Khmilnyk", "images": [{"image_url": "383322.jpg", "timestamp": "2018-04-09T09:38:00Z"}]}, {"id": 383323, "min_date": "2018-04-09T09:36:00Z", "max_date": "2018-04-09T09:38:00Z", "count_points": 5, "latitude": 49.72093, "longitude": 27.98795, "city": "Ulaniv", "images": [{"image_url": "383323.jpg", "timestamp": "2018-04-09T09:38:00Z"}]}, {"id": 383324, "min_date": "2018-04-09T09:36:00Z", "max_date": "2018-04-13T09:13:00Z", "count_points": 18, "latitude": 49.68067, "longitude": 27.51349, "city": "Stara Syniava", "images": []}, {"id": 383325, "min_date": "2018-04-09T09:36:00Z", "max_date": "2018-04-09T09:37:00Z", "count_points": 4, "latitude": 50.82332, "longitude": 27.6077, "city": "Yemil\u2019chyne", "images": [{"image_url": "383325.jpg", "timestamp": "2018-04-09T09:37:00Z"}]}, {"id": 383326, "min_date": "2018-04-09T09:36:00Z", "max_date": "2018-04-11T09:25:00Z", "count_points": 13, "latitude": 50.47706, "longitude": 25.23713, "city": "Demydivka", "images": []}, {"id": 383327, "min_date": "2018-04-09T09:36:00Z", "max_date": "2018-04-09T11:23:00Z", "count_points": 9, "latitude": 49.87051, "longitude": 25.56537, "city": "Pochaiv", "images": []}, {"id": 383328, "min_date": "2018-04-09T09:36:00Z", "max_date": "2018-04-09T11:23:00Z", "count_points": 3, "latitude": 49.20146, "longitude": 28.07806, "city": "Lityn", "images": []}, {"id": 383329, "min_date": "2018-04-09T09:36:00Z", "max_date": "2018-04-09T11:23:00Z", "count_points": 9, "latitude": 50.7664, "longitude": 28.18034, "city": "Khoroshiv", "images": [{"image_url": "383329.jpg", "timestamp": "2018-04-09T11:23:00Z"}]}, {"id": 383330, "min_date": "2018-04-09T09:36:00Z", "max_date": "2018-04-09T09:36:00Z", "count_points": 2, "latitude": 50.48236, "longitude": 31.5431, "city": "Korniyivka", "images": []}, {"id": 383331, "min_date": "2018-04-09T09:36:00Z", "max_date": "2018-04-09T09:38:00Z", "count_points": 3, "latitude": 50.04619, "longitude": 27.94204, "city": "Romaniv", "images": []}, {"id": 383332, "min_date": "2018-04-09T09:36:00Z", "max_date": "2018-04-09T09:36:00Z", "count_points": 1, "latitude": 50.46025, "longitude": 31.56792, "city": "Korniyivka", "images": []}, {"id": 383333, "min_date": "2018-04-09T09:36:00Z", "max_date": "2018-04-09T09:38:00Z", "count_points": 8, "latitude": 50.29588, "longitude": 25.63846, "city": "Tarakaniv", "images": []}, {"id": 383334, "min_date": "2018-04-09T09:36:00Z", "max_date": "2018-04-09T09:38:00Z", "count_points": 2, "latitude": 49.96601, "longitude": 25.3676, "city": "Pidkamin\u2019", "images": []}, {"id": 383335, "min_date": "2018-04-09T09:36:00Z", "max_date": "2018-04-09T09:38:00Z", "count_points": 2, "latitude": 49.98081, "longitude": 27.55954, "city": "Novoselytsya", "images": []}, {"id": 383336, "min_date": "2018-04-09T09:36:00Z", "max_date": "2018-04-09T09:36:00Z", "count_points": 1, "latitude": 49.70312, "longitude": 28.46909, "city": "Berdychiv", "images": []}, {"id": 383337, "min_date": "2018-04-09T09:36:00Z", "max_date": "2018-04-09T09:38:00Z", "count_points": 4, "latitude": 49.55263, "longitude": 28.08582, "city": "Khmilnyk", "images": [{"image_url": "383337.jpg", "timestamp": "2018-04-09T09:38:00Z"}]}, {"id": 383338, "min_date": "2018-04-09T09:36:00Z", "max_date": "2018-04-09T11:23:00Z", "count_points": 7, "latitude": 50.00873, "longitude": 27.77069, "city": "Liubar", "images": [{"image_url": "383338.jpg", "timestamp": "2018-04-09T11:23:00Z"}]}, {"id": 383339, "min_date": "2018-04-09T09:36:00Z", "max_date": "2018-04-09T11:23:00Z", "count_points": 7, "latitude": 49.74907, "longitude": 27.74533, "city": "Liubar", "images": [{"image_url": "383339.jpg", "timestamp": "2018-04-09T11:23:00Z"}]}, {"id": 383340, "min_date": "2018-04-09T09:36:00Z", "max_date": "2018-04-09T09:37:00Z", "count_points": 2, "latitude": 50.63529, "longitude": 28.31546, "city": "Khoroshiv", "images": []}, {"id": 383341, "min_date": "2018-04-09T09:36:00Z", "max_date": "2018-04-11T09:25:00Z", "count_points": 3, "latitude": 50.96499, "longitude": 25.30327, "city": "Rozhyshche", "images": []}, {"id": 383342, "min_date": "2018-04-09T09:36:00Z", "max_date": "2018-04-14T09:56:00Z", "count_points": 59, "latitude": 50.80268, "longitude": 26.57312, "city": "Kostopil\u2019", "images": []}, {"id": 383343, "min_date": "2018-04-09T09:36:00Z", "max_date": "2018-04-09T09:44:00Z", "count_points": 12, "latitude": 47.63981, "longitude": 36.50761, "city": "Chapayevka", "images": []}, {"id": 383344, "min_date": "2018-04-09T09:36:00Z", "max_date": "2018-04-09T11:12:00Z", "count_points": 2, "latitude": 49.49193, "longitude": 37.68936, "city": "Kivsharivka", "images": []}, {"id": 383345, "min_date": "2018-04-09T09:36:00Z", "max_date": "2018-04-09T09:38:00Z", "count_points": 2, "latitude": 50.16197, "longitude": 27.0282, "city": "Shepetivka", "images": []}, {"id": 383346, "min_date": "2018-04-09T09:36:00Z", "max_date": "2018-04-09T09:36:00Z", "count_points": 1, "latitude": 50.00986, "longitude": 37.67612, "city": "Dvorichna", "images": []}, {"id": 383347, "min_date": "2018-04-09T09:36:00Z", "max_date": "2018-04-09T09:37:00Z", "count_points": 3, "latitude": 50.7288, "longitude": 26.62562, "city": "Hoshcha", "images": []}, {"id": 383348, "min_date": "2018-04-09T09:36:00Z", "max_date": "2018-04-09T11:23:00Z", "count_points": 4, "latitude": 50.09393, "longitude": 26.84726, "city": "Izyaslav", "images": [{"image_url": "383348.jpg", "timestamp": "2018-04-09T11:23:00Z"}]}, {"id": 383349, "min_date": "2018-04-09T09:36:00Z", "max_date": "2018-04-09T11:23:00Z", "count_points": 14, "latitude": 49.30337, "longitude": 23.6105, "city": "Stebnyk", "images": []}, {"id": 383350, "min_date": "2018-04-09T09:36:00Z", "max_date": "2018-04-09T09:38:00Z", "count_points": 4, "latitude": 50.64293, "longitude": 26.25154, "city": "Rivne", "images": [{"image_url": "383350.jpg", "timestamp": "2018-04-09T09:38:00Z"}]}, {"id": 383351, "min_date": "2018-04-09T09:36:00Z", "max_date": "2018-04-13T10:58:00Z", "count_points": 8, "latitude": 49.26653, "longitude": 27.43005, "city": "Derazhnya", "images": [{"image_url": "383351.jpg", "timestamp": "2018-04-13T10:58:00Z"}]}, {"id": 383352, "min_date": "2018-04-09T09:36:00Z", "max_date": "2018-04-09T09:36:00Z", "count_points": 1, "latitude": 48.14235, "longitude": 36.31672, "city": "Pokrovs\u2019ke", "images": []}, {"id": 383353, "min_date": "2018-04-09T09:36:00Z", "max_date": "2018-04-09T09:38:00Z", "count_points": 3, "latitude": 49.3819, "longitude": 27.15874, "city": "Khmelnytskyi", "images": []}, {"id": 383354, "min_date": "2018-04-09T09:36:00Z", "max_date": "2018-04-09T11:23:00Z", "count_points": 6, "latitude": 48.82139, "longitude": 33.53256, "city": "Onufriyivka", "images": []}, {"id": 383355, "min_date": "2018-04-09T09:36:00Z", "max_date": "2018-04-09T11:23:00Z", "count_points": 10, "latitude": 49.67694, "longitude": 23.31066, "city": "Sudova Vyshnya", "images": []}, {"id": 383356, "min_date": "2018-04-09T09:36:00Z", "max_date": "2018-04-09T09:36:00Z", "count_points": 1, "latitude": 48.86201, "longitude": 33.96696, "city": "Lykhivka", "images": []}, {"id": 383357, "min_date": "2018-04-09T09:36:00Z", "max_date": "2018-04-09T09:37:00Z", "count_points": 5, "latitude": 50.00145, "longitude": 30.58343, "city": "Mirovka", "images": []}, {"id": 383358, "min_date": "2018-04-09T09:36:00Z", "max_date": "2018-04-09T09:37:00Z", "count_points": 5, "latitude": 50.39172, "longitude": 30.21068, "city": "Boyarka", "images": []}, {"id": 383359, "min_date": "2018-04-09T09:36:00Z", "max_date": "2018-04-14T10:03:00Z", "count_points": 18, "latitude": 48.00546, "longitude": 37.62233, "city": "Donetsk", "images": []}, {"id": 383360, "min_date": "2018-04-09T09:36:00Z", "max_date": "2018-04-09T09:38:00Z", "count_points": 3, "latitude": 49.60796, "longitude": 27.02115, "city": "Krasyliv", "images": []}, {"id": 383361, "min_date": "2018-04-09T09:36:00Z", "max_date": "2018-04-09T11:23:00Z", "count_points": 4, "latitude": 49.63547, "longitude": 23.92568, "city": "Shchyrets\u2019", "images": []}, {"id": 383362, "min_date": "2018-04-09T09:36:00Z", "max_date": "2018-04-09T09:36:00Z", "count_points": 1, "latitude": 48.4661, "longitude": 37.61876, "city": "Kostyantynivka", "images": []}, {"id": 383363, "min_date": "2018-04-09T09:36:00Z", "max_date": "2018-04-09T09:38:00Z", "count_points": 6, "latitude": 49.78144, "longitude": 24.40436, "city": "Verkhnyaya Belka", "images": []}, {"id": 383364, "min_date": "2018-04-09T09:36:00Z", "max_date": "2018-04-09T11:12:00Z", "count_points": 3, "latitude": 47.86398, "longitude": 32.19835, "city": "Bobrynets", "images": []}, {"id": 383365, "min_date": "2018-04-09T09:36:00Z", "max_date": "2018-04-09T09:36:00Z", "count_points": 2, "latitude": 48.2982, "longitude": 35.5081, "city": "Synel\u2019nykove", "images": []}, {"id": 383366, "min_date": "2018-04-09T09:36:00Z", "max_date": "2018-04-09T11:23:00Z", "count_points": 12, "latitude": 50.8399, "longitude": 24.39653, "city": "Volodymyr-Volynskyi", "images": []}, {"id": 383367, "min_date": "2018-04-09T09:36:00Z", "max_date": "2018-04-09T11:23:00Z", "count_points": 5, "latitude": 50.48938, "longitude": 24.38024, "city": "Sokal\u2019", "images": [{"image_url": "383367.jpg", "timestamp": "2018-04-09T11:23:00Z"}]}, {"id": 383368, "min_date": "2018-04-09T09:36:00Z", "max_date": "2018-04-09T09:36:00Z", "count_points": 5, "latitude": 46.6188, "longitude": 32.52199, "city": "Komyshany", "images": []}, {"id": 383369, "min_date": "2018-04-09T09:36:00Z", "max_date": "2018-04-09T11:23:00Z", "count_points": 11, "latitude": 49.95049, "longitude": 23.43385, "city": "Yavoriv", "images": []}, {"id": 383370, "min_date": "2018-04-09T09:36:00Z", "max_date": "2018-04-09T11:22:00Z", "count_points": 5, "latitude": 47.72439, "longitude": 31.33752, "city": "Voznesensk", "images": []}, {"id": 383371, "min_date": "2018-04-09T09:36:00Z", "max_date": "2018-04-09T11:23:00Z", "count_points": 16, "latitude": 50.06329, "longitude": 23.59679, "city": "Starychi", "images": []}, {"id": 383372, "min_date": "2018-04-09T09:36:00Z", "max_date": "2018-04-09T09:36:00Z", "count_points": 2, "latitude": 48.42227, "longitude": 32.7198, "city": "Novhorodka", "images": []}, {"id": 383373, "min_date": "2018-04-09T09:36:00Z", "max_date": "2018-04-09T09:36:00Z", "count_points": 2, "latitude": 48.44392, "longitude": 32.76245, "city": "Novhorodka", "images": []}, {"id": 383374, "min_date": "2018-04-09T09:36:00Z", "max_date": "2018-04-09T09:36:00Z", "count_points": 1, "latitude": 48.8742, "longitude": 27.42033, "city": "Nova Ushytsya", "images": []}, {"id": 383375, "min_date": "2018-04-09T09:36:00Z", "max_date": "2018-04-09T09:36:00Z", "count_points": 1, "latitude": 48.24731, "longitude": 34.32034, "city": "Krynychky", "images": []}, {"id": 383376, "min_date": "2018-04-09T09:36:00Z", "max_date": "2018-04-10T10:54:00Z", "count_points": 5, "latitude": 48.25629, "longitude": 34.99517, "city": "Solone", "images": []}, {"id": 383377, "min_date": "2018-04-09T09:36:00Z", "max_date": "2018-04-09T09:36:00Z", "count_points": 4, "latitude": 47.69657, "longitude": 34.66995, "city": "Marhanets\u2019", "images": []}, {"id": 383378, "min_date": "2018-04-09T09:36:00Z", "max_date": "2018-04-09T09:36:00Z", "count_points": 1, "latitude": 48.05986, "longitude": 34.25448, "city": "Novopokrovka", "images": []}, {"id": 383379, "min_date": "2018-04-09T09:36:00Z", "max_date": "2018-04-09T11:22:00Z", "count_points": 18, "latitude": 47.33743, "longitude": 34.49386, "city": "Dniprovka", "images": []}, {"id": 383380, "min_date": "2018-04-09T09:36:00Z", "max_date": "2018-04-09T09:36:00Z", "count_points": 1, "latitude": 47.81461, "longitude": 34.3207, "city": "Nikopol", "images": []}, {"id": 383381, "min_date": "2018-04-09T09:36:00Z", "max_date": "2018-04-09T09:36:00Z", "count_points": 2, "latitude": 48.04155, "longitude": 34.54285, "city": "Novopokrovka", "images": []}, {"id": 383382, "min_date": "2018-04-09T09:36:00Z", "max_date": "2018-04-09T09:38:00Z", "count_points": 6, "latitude": 46.40023, "longitude": 34.33509, "city": "Novotroyits\u2019ke", "images": []}, {"id": 383383, "min_date": "2018-04-09T09:36:00Z", "max_date": "2018-04-09T09:36:00Z", "count_points": 3, "latitude": 46.39419, "longitude": 34.418, "city": "Novotroyits\u2019ke", "images": []}, {"id": 383384, "min_date": "2018-04-09T09:36:00Z", "max_date": "2018-04-09T09:36:00Z", "count_points": 1, "latitude": 47.23353, "longitude": 34.45895, "city": "Verkhniy Rohachyk", "images": []}, {"id": 383385, "min_date": "2018-04-09T09:36:00Z", "max_date": "2018-04-10T10:27:00Z", "count_points": 15, "latitude": 48.07474, "longitude": 37.85852, "city": "Donetsk", "images": []}, {"id": 383386, "min_date": "2018-04-09T09:36:00Z", "max_date": "2018-04-09T11:23:00Z", "count_points": 15, "latitude": 49.64221, "longitude": 37.98381, "city": "Nyzhnya Duvanka", "images": []}, {"id": 383387, "min_date": "2018-04-09T09:36:00Z", "max_date": "2018-04-09T09:36:00Z", "count_points": 6, "latitude": 48.7454, "longitude": 38.14119, "city": "Soledar", "images": []}, {"id": 383388, "min_date": "2018-04-09T09:36:00Z", "max_date": "2018-04-09T09:44:00Z", "count_points": 8, "latitude": 48.61743, "longitude": 38.26016, "city": "Popasna", "images": []}, {"id": 383389, "min_date": "2018-04-09T09:36:00Z", "max_date": "2018-04-09T09:36:00Z", "count_points": 1, "latitude": 47.87061, "longitude": 38.02089, "city": "Mospyne", "images": []}, {"id": 383390, "min_date": "2018-04-09T09:36:00Z", "max_date": "2018-04-09T11:12:00Z", "count_points": 3, "latitude": 48.54165, "longitude": 38.21115, "city": "Luhans\u2019ke", "images": []}, {"id": 383391, "min_date": "2018-04-09T09:36:00Z", "max_date": "2018-04-09T09:36:00Z", "count_points": 1, "latitude": 48.78105, "longitude": 38.34182, "city": "Popasna", "images": []}, {"id": 383392, "min_date": "2018-04-09T09:36:00Z", "max_date": "2018-04-09T09:44:00Z", "count_points": 4, "latitude": 48.18967, "longitude": 37.9748, "city": "Krinichnaya", "images": []}, {"id": 383393, "min_date": "2018-04-09T09:36:00Z", "max_date": "2018-04-10T10:27:00Z", "count_points": 9, "latitude": 48.84577, "longitude": 38.36223, "city": "Lysychans\u2019k", "images": []}, {"id": 383394, "min_date": "2018-04-09T09:36:00Z", "max_date": "2018-04-09T09:36:00Z", "count_points": 2, "latitude": 48.02419, "longitude": 38.13774, "city": "Khartsyz\u2019k", "images": []}, {"id": 383395, "min_date": "2018-04-09T09:36:00Z", "max_date": "2018-04-09T08:00:00Z", "count_points": 3, "latitude": 48.79318, "longitude": 38.23845, "city": "Bilohorivka", "images": []}, {"id": 383396, "min_date": "2018-04-09T09:36:00Z", "max_date": "2018-04-13T09:13:00Z", "count_points": 16, "latitude": 48.34334, "longitude": 38.27552, "city": "Vuhlehirs\u2019k", "images": []}, {"id": 383397, "min_date": "2018-04-09T09:36:00Z", "max_date": "2018-04-09T09:36:00Z", "count_points": 2, "latitude": 48.86601, "longitude": 38.16632, "city": "Serebryanka", "images": []}, {"id": 383398, "min_date": "2018-04-09T09:36:00Z", "max_date": "2018-04-11T08:54:00Z", "count_points": 2, "latitude": 48.5186, "longitude": 38.11299, "city": "Artemivs\u2019k", "images": []}, {"id": 383399, "min_date": "2018-04-09T09:36:00Z", "max_date": "2018-04-09T11:12:00Z", "count_points": 2, "latitude": 48.80493, "longitude": 38.32686, "city": "Bilohorivka", "images": []}, {"id": 383400, "min_date": "2018-04-09T09:36:00Z", "max_date": "2018-04-09T09:36:00Z", "count_points": 1, "latitude": 49.09061, "longitude": 38.52096, "city": "Syevyerodonets\u2019k", "images": []}, {"id": 383401, "min_date": "2018-04-09T09:36:00Z", "max_date": "2018-04-09T09:44:00Z", "count_points": 3, "latitude": 48.70074, "longitude": 38.32635, "city": "Popasna", "images": []}, {"id": 383402, "min_date": "2018-04-09T09:36:00Z", "max_date": "2018-04-14T11:18:00Z", "count_points": 4, "latitude": 48.35019, "longitude": 37.82594, "city": "Shcherbynivka", "images": []}, {"id": 383403, "min_date": "2018-04-09T09:36:00Z", "max_date": "2018-04-09T09:36:00Z", "count_points": 2, "latitude": 47.94167, "longitude": 37.92415, "city": "Makiyivka", "images": []}, {"id": 383404, "min_date": "2018-04-09T09:36:00Z", "max_date": "2018-04-15T11:00:00Z", "count_points": 3, "latitude": 49.82903, "longitude": 38.40684, "city": "Troyits\u2019ke", "images": []}, {"id": 383405, "min_date": "2018-04-09T09:36:00Z", "max_date": "2018-04-09T09:36:00Z", "count_points": 1, "latitude": 49.04357, "longitude": 33.73274, "city": "Horishni Plavni", "images": []}, {"id": 383406, "min_date": "2018-04-09T09:36:00Z", "max_date": "2018-04-10T10:54:00Z", "count_points": 2, "latitude": 49.29753, "longitude": 38.18792, "city": "Svatove", "images": []}, {"id": 383407, "min_date": "2018-04-09T09:36:00Z", "max_date": "2018-04-11T08:54:00Z", "count_points": 8, "latitude": 48.12899, "longitude": 38.7137, "city": "Krasnyy Kut", "images": []}, {"id": 383408, "min_date": "2018-04-09T09:36:00Z", "max_date": "2018-04-09T09:36:00Z", "count_points": 1, "latitude": 49.33579, "longitude": 38.13972, "city": "Svatove", "images": []}, {"id": 383409, "min_date": "2018-04-09T09:36:00Z", "max_date": "2018-04-09T11:12:00Z", "count_points": 3, "latitude": 48.11794, "longitude": 38.59783, "city": "Rozsypne", "images": []}, {"id": 383410, "min_date": "2018-04-09T09:36:00Z", "max_date": "2018-04-12T08:30:00Z", "count_points": 7, "latitude": 48.71776, "longitude": 38.53555, "city": "Toshkivka", "images": []}, {"id": 383411, "min_date": "2018-04-09T09:36:00Z", "max_date": "2018-04-09T09:36:00Z", "count_points": 1, "latitude": 48.76702, "longitude": 38.51111, "city": "Hirs\u2019ke", "images": []}, {"id": 383412, "min_date": "2018-04-09T09:36:00Z", "max_date": "2018-04-14T09:42:00Z", "count_points": 2, "latitude": 48.18995, "longitude": 37.86601, "city": "Yasynuvata", "images": []}, {"id": 383413, "min_date": "2018-04-09T09:36:00Z", "max_date": "2018-04-12T10:15:00Z", "count_points": 101, "latitude": 48.70792, "longitude": 38.8081, "city": "Frunze", "images": []}, {"id": 383414, "min_date": "2018-04-09T09:36:00Z", "max_date": "2018-04-09T09:36:00Z", "count_points": 1, "latitude": 48.6458, "longitude": 38.71027, "city": "Frunze", "images": []}, {"id": 383415, "min_date": "2018-04-09T09:36:00Z", "max_date": "2018-04-09T09:36:00Z", "count_points": 7, "latitude": 47.86814, "longitude": 38.25402, "city": "Kuteynykove", "images": []}, {"id": 383416, "min_date": "2018-04-09T09:36:00Z", "max_date": "2018-04-09T09:36:00Z", "count_points": 2, "latitude": 48.15555, "longitude": 37.87208, "city": "Yasynuvata", "images": []}, {"id": 383417, "min_date": "2018-04-09T09:36:00Z", "max_date": "2018-04-09T08:00:00Z", "count_points": 3, "latitude": 48.32482, "longitude": 38.68521, "city": "Zoryns\u2019k", "images": []}, {"id": 383418, "min_date": "2018-04-09T09:36:00Z", "max_date": "2018-04-10T10:27:00Z", "count_points": 17, "latitude": 48.37202, "longitude": 38.47261, "city": "Chornukhyne", "images": []}, {"id": 383419, "min_date": "2018-04-09T09:36:00Z", "max_date": "2018-04-09T09:36:00Z", "count_points": 3, "latitude": 49.0051, "longitude": 38.00956, "city": "Serebryanka", "images": []}, {"id": 383420, "min_date": "2018-04-09T09:36:00Z", "max_date": "2018-04-15T09:01:00Z", "count_points": 15, "latitude": 48.31496, "longitude": 37.90924, "city": "Dzerzhyns\u2019k", "images": []}, {"id": 383421, "min_date": "2018-04-09T09:36:00Z", "max_date": "2018-04-09T09:36:00Z", "count_points": 2, "latitude": 48.81361, "longitude": 35.33151, "city": "Hubynykha", "images": []}, {"id": 383422, "min_date": "2018-04-09T09:36:00Z", "max_date": "2018-04-14T08:18:00Z", "count_points": 4, "latitude": 48.62657, "longitude": 37.80716, "city": "Chasiv Yar", "images": []}, {"id": 383423, "min_date": "2018-04-09T09:36:00Z", "max_date": "2018-04-09T09:36:00Z", "count_points": 2, "latitude": 48.34907, "longitude": 38.16462, "city": "Svetlodarsk", "images": []}, {"id": 383424, "min_date": "2018-04-09T09:36:00Z", "max_date": "2018-04-15T10:46:00Z", "count_points": 41, "latitude": 48.42812, "longitude": 38.05773, "city": "Horlivka", "images": []}, {"id": 383425, "min_date": "2018-04-09T09:36:00Z", "max_date": "2018-04-14T10:03:00Z", "count_points": 13, "latitude": 49.70963, "longitude": 38.01071, "city": "Nyzhnya Duvanka", "images": []}, {"id": 383426, "min_date": "2018-04-09T09:36:00Z", "max_date": "2018-04-11T11:10:00Z", "count_points": 21, "latitude": 49.39193, "longitude": 38.8034, "city": "Bilokurakyne", "images": []}, {"id": 383427, "min_date": "2018-04-09T09:36:00Z", "max_date": "2018-04-09T09:36:00Z", "count_points": 1, "latitude": 48.83839, "longitude": 38.05224, "city": "Sivers\u2019k", "images": []}, {"id": 383428, "min_date": "2018-04-09T09:36:00Z", "max_date": "2018-04-10T23:06:00Z", "count_points": 4, "latitude": 49.37572, "longitude": 38.64988, "city": "Bilokurakyne", "images": []}, {"id": 383429, "min_date": "2018-04-09T09:36:00Z", "max_date": "2018-04-13T10:00:00Z", "count_points": 3, "latitude": 48.22588, "longitude": 38.65172, "city": "Rozsypne", "images": []}, {"id": 383430, "min_date": "2018-04-09T09:36:00Z", "max_date": "2018-04-09T09:44:00Z", "count_points": 8, "latitude": 48.27987, "longitude": 38.51912, "city": "Chornukhyne", "images": []}, {"id": 383431, "min_date": "2018-04-09T09:36:00Z", "max_date": "2018-04-14T09:42:00Z", "count_points": 4, "latitude": 49.27739, "longitude": 38.30223, "city": "Svatove", "images": []}, {"id": 383432, "min_date": "2018-04-09T09:36:00Z", "max_date": "2018-04-09T09:36:00Z", "count_points": 1, "latitude": 48.74889, "longitude": 38.05787, "city": "Soledar", "images": []}, {"id": 383433, "min_date": "2018-04-09T09:36:00Z", "max_date": "2018-04-11T10:36:00Z", "count_points": 2, "latitude": 49.20951, "longitude": 37.79538, "city": "Krasnyy Lyman", "images": []}, {"id": 383434, "min_date": "2018-04-09T09:36:00Z", "max_date": "2018-04-09T09:44:00Z", "count_points": 8, "latitude": 48.38389, "longitude": 38.38165, "city": "Debal\u2019tseve", "images": []}, {"id": 383435, "min_date": "2018-04-09T09:36:00Z", "max_date": "2018-04-15T09:01:00Z", "count_points": 34, "latitude": 48.26033, "longitude": 38.36731, "city": "Debal\u2019tseve", "images": []}, {"id": 383436, "min_date": "2018-04-09T09:36:00Z", "max_date": "2018-04-09T09:36:00Z", "count_points": 3, "latitude": 49.51396, "longitude": 38.74274, "city": "Bilokurakyne", "images": []}, {"id": 383437, "min_date": "2018-04-09T09:36:00Z", "max_date": "2018-04-09T09:36:00Z", "count_points": 1, "latitude": 48.19029, "longitude": 38.10914, "city": "Nyzhnya Krynka", "images": []}, {"id": 383438, "min_date": "2018-04-09T09:36:00Z", "max_date": "2018-04-10T10:27:00Z", "count_points": 20, "latitude": 49.4699, "longitude": 37.80521, "city": "Kivsharivka", "images": []}, {"id": 383439, "min_date": "2018-04-09T09:36:00Z", "max_date": "2018-04-15T11:00:00Z", "count_points": 4, "latitude": 48.88658, "longitude": 38.38349, "city": "Lysychans\u2019k", "images": []}, {"id": 383440, "min_date": "2018-04-09T09:36:00Z", "max_date": "2018-04-09T09:45:00Z", "count_points": 9, "latitude": 48.87007, "longitude": 37.7806, "city": "Krasnyy Lyman", "images": []}, {"id": 383441, "min_date": "2018-04-09T09:36:00Z", "max_date": "2018-04-09T07:59:00Z", "count_points": 2, "latitude": 49.20122, "longitude": 38.13131, "city": "Kreminna", "images": []}, {"id": 383442, "min_date": "2018-04-09T09:36:00Z", "max_date": "2018-04-09T09:36:00Z", "count_points": 1, "latitude": 48.83721, "longitude": 38.77223, "city": "Frunze", "images": []}, {"id": 383443, "min_date": "2018-04-09T09:36:00Z", "max_date": "2018-04-09T11:12:00Z", "count_points": 9, "latitude": 48.30169, "longitude": 38.60845, "city": "Bayrachky", "images": []}, {"id": 383444, "min_date": "2018-04-09T09:36:00Z", "max_date": "2018-04-09T11:12:00Z", "count_points": 3, "latitude": 48.0586, "longitude": 38.53905, "city": "Torez", "images": []}, {"id": 383445, "min_date": "2018-04-09T09:36:00Z", "max_date": "2018-04-09T11:23:00Z", "count_points": 4, "latitude": 51.12962, "longitude": 27.87005, "city": "Novi Bilokorovychi", "images": [{"image_url": "383445.jpg", "timestamp": "2018-04-09T11:23:00Z"}]}, {"id": 383446, "min_date": "2018-04-09T09:36:00Z", "max_date": "2018-04-09T09:36:00Z", "count_points": 2, "latitude": 49.66146, "longitude": 28.12092, "city": "Ulaniv", "images": []}, {"id": 383447, "min_date": "2018-04-09T09:36:00Z", "max_date": "2018-04-09T09:36:00Z", "count_points": 2, "latitude": 48.14364, "longitude": 33.61358, "city": "Zhovti Vody", "images": []}, {"id": 383448, "min_date": "2018-04-09T09:36:00Z", "max_date": "2018-04-09T08:00:00Z", "count_points": 4, "latitude": 46.37833, "longitude": 33.86181, "city": "Askaniya-Nova", "images": []}, {"id": 383449, "min_date": "2018-04-09T09:36:00Z", "max_date": "2018-04-10T08:43:00Z", "count_points": 7, "latitude": 48.28336, "longitude": 34.09103, "city": "Vyshneve", "images": []}, {"id": 383450, "min_date": "2018-04-09T09:36:00Z", "max_date": "2018-04-09T09:36:00Z", "count_points": 1, "latitude": 49.61887, "longitude": 28.22279, "city": "Ulaniv", "images": []}, {"id": 383451, "min_date": "2018-04-09T09:36:00Z", "max_date": "2018-04-09T09:38:00Z", "count_points": 5, "latitude": 50.30025, "longitude": 26.27354, "city": "Mizoch", "images": [{"image_url": "383451.jpg", "timestamp": "2018-04-09T09:38:00Z"}]}, {"id": 383452, "min_date": "2018-04-09T09:36:00Z", "max_date": "2018-04-09T09:38:00Z", "count_points": 2, "latitude": 48.52811, "longitude": 25.50826, "city": "Stetseva", "images": []}, {"id": 383453, "min_date": "2018-04-09T09:36:00Z", "max_date": "2018-04-09T09:36:00Z", "count_points": 1, "latitude": 48.0234, "longitude": 33.79826, "city": "Sofiyivka", "images": []}, {"id": 383454, "min_date": "2018-04-09T09:36:00Z", "max_date": "2018-04-09T09:36:00Z", "count_points": 1, "latitude": 47.30225, "longitude": 35.54341, "city": "Tokmak", "images": []}, {"id": 383455, "min_date": "2018-04-09T09:36:00Z", "max_date": "2018-04-09T11:23:00Z", "count_points": 7, "latitude": 49.3704, "longitude": 26.40177, "city": "Volochysk", "images": [{"image_url": "383455.jpg", "timestamp": "2018-04-09T11:23:00Z"}]}, {"id": 383456, "min_date": "2018-04-09T09:36:00Z", "max_date": "2018-04-09T11:23:00Z", "count_points": 6, "latitude": 50.90596, "longitude": 28.12549, "city": "Novi Bilokorovychi", "images": [{"image_url": "383456.jpg", "timestamp": "2018-04-09T11:23:00Z"}]}, {"id": 383457, "min_date": "2018-04-09T09:36:00Z", "max_date": "2018-04-09T09:38:00Z", "count_points": 6, "latitude": 50.5808, "longitude": 26.35994, "city": "Kolodenka", "images": [{"image_url": "383457.jpg", "timestamp": "2018-04-09T09:38:00Z"}]}, {"id": 383458, "min_date": "2018-04-09T09:36:00Z", "max_date": "2018-04-09T09:36:00Z", "count_points": 1, "latitude": 51.45841, "longitude": 26.81754, "city": "Sarny", "images": []}, {"id": 383459, "min_date": "2018-04-09T09:36:00Z", "max_date": "2018-04-09T11:12:00Z", "count_points": 3, "latitude": 46.68236, "longitude": 34.11251, "city": "Nyzhni Sirohozy", "images": []}, {"id": 383460, "min_date": "2018-04-09T09:36:00Z", "max_date": "2018-04-09T09:36:00Z", "count_points": 1, "latitude": 48.02856, "longitude": 33.83622, "city": "Sofiyivka", "images": []}, {"id": 383461, "min_date": "2018-04-09T09:36:00Z", "max_date": "2018-04-09T09:38:00Z", "count_points": 3, "latitude": 47.78303, "longitude": 33.59708, "city": "Apostolove", "images": []}, {"id": 383462, "min_date": "2018-04-09T09:36:00Z", "max_date": "2018-04-09T09:38:00Z", "count_points": 3, "latitude": 50.46988, "longitude": 26.47467, "city": "Ostroh", "images": []}, {"id": 383463, "min_date": "2018-04-09T09:36:00Z", "max_date": "2018-04-09T09:36:00Z", "count_points": 1, "latitude": 47.08742, "longitude": 33.56242, "city": "Hornostayivka", "images": []}, {"id": 383464, "min_date": "2018-04-09T09:36:00Z", "max_date": "2018-04-09T09:36:00Z", "count_points": 1, "latitude": 48.35806, "longitude": 32.98117, "city": "Nova Praha", "images": []}, {"id": 383465, "min_date": "2018-04-09T09:36:00Z", "max_date": "2018-04-09T09:38:00Z", "count_points": 4, "latitude": 47.25098, "longitude": 31.36424, "city": "Veselynove", "images": []}, {"id": 383466, "min_date": "2018-04-09T09:36:00Z", "max_date": "2018-04-14T11:18:00Z", "count_points": 3, "latitude": 48.51965, "longitude": 32.91907, "city": "Nova Praha", "images": []}, {"id": 383467, "min_date": "2018-04-09T09:36:00Z", "max_date": "2018-04-09T23:30:00Z", "count_points": 4, "latitude": 46.98873, "longitude": 36.3146, "city": "Prymors\u2019k", "images": []}, {"id": 383468, "min_date": "2018-04-09T09:36:00Z", "max_date": "2018-04-09T08:00:00Z", "count_points": 3, "latitude": 47.41375, "longitude": 36.22899, "city": "Polohy", "images": []}, {"id": 383469, "min_date": "2018-04-09T09:36:00Z", "max_date": "2018-04-09T09:36:00Z", "count_points": 3, "latitude": 48.44296, "longitude": 33.17234, "city": "Novyy Starodub", "images": []}, {"id": 383470, "min_date": "2018-04-09T09:36:00Z", "max_date": "2018-04-09T09:38:00Z", "count_points": 4, "latitude": 48.21895, "longitude": 29.15089, "city": "Torkanivka", "images": []}, {"id": 383471, "min_date": "2018-04-09T09:36:00Z", "max_date": "2018-04-09T09:36:00Z", "count_points": 1, "latitude": 47.05074, "longitude": 31.90227, "city": "Mykolayiv", "images": []}, {"id": 383472, "min_date": "2018-04-09T09:36:00Z", "max_date": "2018-04-09T09:36:00Z", "count_points": 1, "latitude": 48.15875, "longitude": 30.10438, "city": "Savran", "images": []}, {"id": 383473, "min_date": "2018-04-09T09:36:00Z", "max_date": "2018-04-09T09:36:00Z", "count_points": 1, "latitude": 47.7581, "longitude": 33.01128, "city": "Kazanka", "images": []}, {"id": 383474, "min_date": "2018-04-09T09:36:00Z", "max_date": "2018-04-09T09:36:00Z", "count_points": 1, "latitude": 47.28672, "longitude": 35.63153, "city": "Tokmak", "images": []}, {"id": 383475, "min_date": "2018-04-09T09:36:00Z", "max_date": "2018-04-09T09:36:00Z", "count_points": 3, "latitude": 46.15716, "longitude": 33.16478, "city": "Kalanchak", "images": []}, {"id": 383476, "min_date": "2018-04-09T09:36:00Z", "max_date": "2018-04-15T11:00:00Z", "count_points": 6, "latitude": 50.12746, "longitude": 34.96234, "city": "Krasnokuts\u2019k", "images": []}, {"id": 383477, "min_date": "2018-04-09T09:36:00Z", "max_date": "2018-04-09T09:37:00Z", "count_points": 7, "latitude": 50.96833, "longitude": 28.41028, "city": "Luhyny", "images": []}, {"id": 383478, "min_date": "2018-04-09T09:36:00Z", "max_date": "2018-04-09T09:36:00Z", "count_points": 1, "latitude": 46.18411, "longitude": 33.16439, "city": "Kalanchak", "images": []}, {"id": 383479, "min_date": "2018-04-09T09:36:00Z", "max_date": "2018-04-09T09:36:00Z", "count_points": 1, "latitude": 48.09077, "longitude": 35.49445, "city": "Vil\u2019nyans\u2019k", "images": []}, {"id": 383480, "min_date": "2018-04-09T09:36:00Z", "max_date": "2018-04-09T09:37:00Z", "count_points": 4, "latitude": 51.10893, "longitude": 27.92724, "city": "Novi Bilokorovychi", "images": [{"image_url": "383480.jpg", "timestamp": "2018-04-09T09:37:00Z"}]}, {"id": 383481, "min_date": "2018-04-09T09:36:00Z", "max_date": "2018-04-09T09:36:00Z", "count_points": 1, "latitude": 47.23644, "longitude": 29.78302, "city": "Kuchurhan", "images": []}, {"id": 383482, "min_date": "2018-04-09T09:36:00Z", "max_date": "2018-04-09T11:23:00Z", "count_points": 7, "latitude": 49.18024, "longitude": 24.58931, "city": "Burshtyn", "images": []}, {"id": 383483, "min_date": "2018-04-09T09:36:00Z", "max_date": "2018-04-13T09:13:00Z", "count_points": 10, "latitude": 50.82871, "longitude": 34.77335, "city": "Nyzy", "images": []}, {"id": 383484, "min_date": "2018-04-09T09:36:00Z", "max_date": "2018-04-09T09:38:00Z", "count_points": 6, "latitude": 49.1454, "longitude": 24.63049, "city": "Halych", "images": []}, {"id": 383485, "min_date": "2018-04-09T09:36:00Z", "max_date": "2018-04-09T11:23:00Z", "count_points": 6, "latitude": 48.35487, "longitude": 28.34497, "city": "Klembivka", "images": []}, {"id": 383486, "min_date": "2018-04-09T09:36:00Z", "max_date": "2018-04-09T09:38:00Z", "count_points": 5, "latitude": 49.48744, "longitude": 26.59321, "city": "Narkevychi", "images": [{"image_url": "383486.jpg", "timestamp": "2018-04-09T09:38:00Z"}]}, {"id": 383487, "min_date": "2018-04-09T09:36:00Z", "max_date": "2018-04-09T09:37:00Z", "count_points": 7, "latitude": 51.09452, "longitude": 28.16141, "city": "Novi Bilokorovychi", "images": [{"image_url": "383487.jpg", "timestamp": "2018-04-09T09:37:00Z"}]}, {"id": 383488, "min_date": "2018-04-09T09:36:00Z", "max_date": "2018-04-09T08:00:00Z", "count_points": 4, "latitude": 48.52983, "longitude": 36.96404, "city": "Novodonets\u2019ke", "images": []}, {"id": 383489, "min_date": "2018-04-09T09:36:00Z", "max_date": "2018-04-09T11:23:00Z", "count_points": 6, "latitude": 49.20996, "longitude": 39.29178, "city": "Bilovodsk", "images": []}, {"id": 383490, "min_date": "2018-04-09T09:36:00Z", "max_date": "2018-04-15T10:46:00Z", "count_points": 13, "latitude": 49.45464, "longitude": 36.19719, "city": "Pervomays\u2019kyy", "images": []}, {"id": 383491, "min_date": "2018-04-09T09:36:00Z", "max_date": "2018-04-12T10:16:00Z", "count_points": 11, "latitude": 49.52835, "longitude": 28.67567, "city": "Nova Pryluka", "images": []}, {"id": 383492, "min_date": "2018-04-09T09:36:00Z", "max_date": "2018-04-09T09:36:00Z", "count_points": 1, "latitude": 48.60095, "longitude": 36.77059, "city": "Oleksandrivka", "images": []}, {"id": 383493, "min_date": "2018-04-09T09:36:00Z", "max_date": "2018-04-10T10:54:00Z", "count_points": 3, "latitude": 49.87482, "longitude": 36.9451, "city": "Pechenihy", "images": []}, {"id": 383494, "min_date": "2018-04-09T09:36:00Z", "max_date": "2018-04-09T09:36:00Z", "count_points": 2, "latitude": 48.96026, "longitude": 36.29396, "city": "Panyutyne", "images": []}, {"id": 383495, "min_date": "2018-04-09T09:36:00Z", "max_date": "2018-04-09T09:36:00Z", "count_points": 3, "latitude": 49.11559, "longitude": 30.33379, "city": "Buky", "images": []}, {"id": 383496, "min_date": "2018-04-09T09:36:00Z", "max_date": "2018-04-09T09:36:00Z", "count_points": 1, "latitude": 49.77477, "longitude": 33.16482, "city": "Khorol", "images": []}, {"id": 383497, "min_date": "2018-04-09T09:36:00Z", "max_date": "2018-04-09T11:12:00Z", "count_points": 7, "latitude": 49.86948, "longitude": 37.18997, "city": "Shevchenkove", "images": []}, {"id": 383498, "min_date": "2018-04-09T09:36:00Z", "max_date": "2018-04-09T09:36:00Z", "count_points": 1, "latitude": 48.68506, "longitude": 36.71224, "city": "Oleksandrivka", "images": []}, {"id": 383499, "min_date": "2018-04-09T09:36:00Z", "max_date": "2018-04-10T10:28:00Z", "count_points": 14, "latitude": 49.83902, "longitude": 36.08133, "city": "Merefa", "images": []}, {"id": 383500, "min_date": "2018-04-09T09:36:00Z", "max_date": "2018-04-10T08:42:00Z", "count_points": 4, "latitude": 49.8808, "longitude": 29.44192, "city": "Popilnya", "images": []}, {"id": 383501, "min_date": "2018-04-09T09:36:00Z", "max_date": "2018-04-10T10:27:00Z", "count_points": 21, "latitude": 48.56517, "longitude": 39.56479, "city": "Stanytsya Luhans\u2019ka", "images": []}, {"id": 383502, "min_date": "2018-04-09T09:36:00Z", "max_date": "2018-04-09T09:38:00Z", "count_points": 4, "latitude": 49.34362, "longitude": 31.1493, "city": "Stebl\u00ebv", "images": []}, {"id": 383503, "min_date": "2018-04-09T09:36:00Z", "max_date": "2018-04-09T09:45:00Z", "count_points": 2, "latitude": 49.3796, "longitude": 39.5172, "city": "Markivka", "images": []}, {"id": 383504, "min_date": "2018-04-09T09:36:00Z", "max_date": "2018-04-09T11:12:00Z", "count_points": 2, "latitude": 48.55751, "longitude": 36.86368, "city": "Novodonets\u2019ke", "images": []}, {"id": 383505, "min_date": "2018-04-09T09:36:00Z", "max_date": "2018-04-09T11:23:00Z", "count_points": 11, "latitude": 49.17987, "longitude": 36.07439, "city": "Sakhnovshchyna", "images": []}, {"id": 383506, "min_date": "2018-04-09T09:36:00Z", "max_date": "2018-04-14T08:18:00Z", "count_points": 23, "latitude": 49.86824, "longitude": 36.45477, "city": "Vvedenka", "images": []}, {"id": 383507, "min_date": "2018-04-09T09:36:00Z", "max_date": "2018-04-09T09:36:00Z", "count_points": 1, "latitude": 48.78318, "longitude": 29.5758, "city": "Haisyn", "images": []}, {"id": 383508, "min_date": "2018-04-09T09:36:00Z", "max_date": "2018-04-09T11:23:00Z", "count_points": 9, "latitude": 48.66827, "longitude": 29.79825, "city": "Teplyk", "images": []}, {"id": 383509, "min_date": "2018-04-09T09:36:00Z", "max_date": "2018-04-11T11:11:00Z", "count_points": 6, "latitude": 49.75687, "longitude": 28.52063, "city": "Berdychiv", "images": []}, {"id": 383510, "min_date": "2018-04-09T09:36:00Z", "max_date": "2018-04-09T09:36:00Z", "count_points": 1, "latitude": 50.15067, "longitude": 36.09552, "city": "Derhachi", "images": []}, {"id": 383511, "min_date": "2018-04-09T09:36:00Z", "max_date": "2018-04-09T09:36:00Z", "count_points": 1, "latitude": 49.0626, "longitude": 29.62396, "city": "Orativ", "images": []}, {"id": 383512, "min_date": "2018-04-09T09:36:00Z", "max_date": "2018-04-09T09:38:00Z", "count_points": 8, "latitude": 48.84645, "longitude": 31.01949, "city": "Katerynopil", "images": []}, {"id": 383513, "min_date": "2018-04-09T09:36:00Z", "max_date": "2018-04-09T09:36:00Z", "count_points": 1, "latitude": 48.78904, "longitude": 31.42648, "city": "Lebedyn", "images": []}, {"id": 383514, "min_date": "2018-04-09T09:36:00Z", "max_date": "2018-04-09T09:36:00Z", "count_points": 1, "latitude": 48.94441, "longitude": 28.9142, "city": "Nemyriv", "images": []}, {"id": 383515, "min_date": "2018-04-09T09:36:00Z", "max_date": "2018-04-15T10:46:00Z", "count_points": 28, "latitude": 50.06669, "longitude": 35.87151, "city": "Manchenky", "images": []}, {"id": 383516, "min_date": "2018-04-09T09:36:00Z", "max_date": "2018-04-09T09:37:00Z", "count_points": 2, "latitude": 49.94077, "longitude": 35.88024, "city": "Manchenky", "images": []}, {"id": 383517, "min_date": "2018-04-09T09:36:00Z", "max_date": "2018-04-10T10:54:00Z", "count_points": 2, "latitude": 48.70897, "longitude": 35.99421, "city": "Yur\u201dyivka", "images": []}, {"id": 383518, "min_date": "2018-04-09T09:36:00Z", "max_date": "2018-04-09T09:36:00Z", "count_points": 1, "latitude": 49.6569, "longitude": 29.81617, "city": "Volodarka", "images": []}, {"id": 383519, "min_date": "2018-04-09T09:36:00Z", "max_date": "2018-04-09T11:23:00Z", "count_points": 8, "latitude": 49.68821, "longitude": 28.62522, "city": "Kozyatyn", "images": []}, {"id": 383520, "min_date": "2018-04-09T09:36:00Z", "max_date": "2018-04-10T10:27:00Z", "count_points": 5, "latitude": 49.20652, "longitude": 35.79393, "city": "Sakhnovshchyna", "images": []}, {"id": 383521, "min_date": "2018-04-09T09:36:00Z", "max_date": "2018-04-09T09:36:00Z", "count_points": 1, "latitude": 48.80118, "longitude": 28.67338, "city": "Tulchyn", "images": []}, {"id": 383522, "min_date": "2018-04-09T09:36:00Z", "max_date": "2018-04-10T10:54:00Z", "count_points": 3, "latitude": 48.90592, "longitude": 28.81579, "city": "Nemyriv", "images": []}, {"id": 383523, "min_date": "2018-04-09T09:36:00Z", "max_date": "2018-04-09T09:36:00Z", "count_points": 2, "latitude": 49.24944, "longitude": 32.06885, "city": "Chervona Sloboda", "images": []}, {"id": 383524, "min_date": "2018-04-09T09:36:00Z", "max_date": "2018-04-09T09:36:00Z", "count_points": 1, "latitude": 50.06872, "longitude": 32.93426, "city": "Lubny", "images": []}, {"id": 383525, "min_date": "2018-04-09T09:36:00Z", "max_date": "2018-04-09T11:12:00Z", "count_points": 2, "latitude": 49.1084, "longitude": 29.32483, "city": "Illintsi", "images": []}, {"id": 383526, "min_date": "2018-04-09T09:36:00Z", "max_date": "2018-04-09T09:37:00Z", "count_points": 3, "latitude": 50.11088, "longitude": 32.84822, "city": "Chornukhy", "images": []}, {"id": 383527, "min_date": "2018-04-09T09:36:00Z", "max_date": "2018-04-09T09:36:00Z", "count_points": 1, "latitude": 49.44518, "longitude": 36.69476, "city": "Balakliya", "images": []}, {"id": 383528, "min_date": "2018-04-09T09:36:00Z", "max_date": "2018-04-09T09:37:00Z", "count_points": 2, "latitude": 48.88173, "longitude": 35.87099, "city": "Yur\u201dyivka", "images": []}, {"id": 383529, "min_date": "2018-04-09T09:36:00Z", "max_date": "2018-04-12T10:15:00Z", "count_points": 19, "latitude": 49.65438, "longitude": 37.53867, "city": "Kupjansk", "images": []}, {"id": 383530, "min_date": "2018-04-09T09:36:00Z", "max_date": "2018-04-09T11:23:00Z", "count_points": 7, "latitude": 48.97362, "longitude": 33.04828, "city": "Svitlovods\u2019k", "images": []}, {"id": 383531, "min_date": "2018-04-09T09:36:00Z", "max_date": "2018-04-09T09:36:00Z", "count_points": 1, "latitude": 49.74985, "longitude": 36.94427, "city": "Pechenihy", "images": []}, {"id": 383532, "min_date": "2018-04-09T09:36:00Z", "max_date": "2018-04-10T10:54:00Z", "count_points": 5, "latitude": 49.45202, "longitude": 36.51399, "city": "Komsomol\u2019s\u2019ke", "images": []}, {"id": 383533, "min_date": "2018-04-09T09:36:00Z", "max_date": "2018-04-09T09:36:00Z", "count_points": 2, "latitude": 49.82581, "longitude": 36.97431, "city": "Pechenihy", "images": []}, {"id": 383534, "min_date": "2018-04-09T09:36:00Z", "max_date": "2018-04-15T10:45:00Z", "count_points": 176, "latitude": 47.11621, "longitude": 37.58475, "city": "Mariupol", "images": []}, {"id": 383535, "min_date": "2018-04-09T09:36:00Z", "max_date": "2018-04-09T09:38:00Z", "count_points": 6, "latitude": 49.49768, "longitude": 29.07809, "city": "Pohrebyshche", "images": []}, {"id": 383536, "min_date": "2018-04-09T09:36:00Z", "max_date": "2018-04-09T09:36:00Z", "count_points": 1, "latitude": 49.86718, "longitude": 31.12251, "city": "Rzhyshchiv", "images": []}, {"id": 383537, "min_date": "2018-04-09T09:36:00Z", "max_date": "2018-04-09T09:36:00Z", "count_points": 1, "latitude": 49.21852, "longitude": 31.41822, "city": "Horodyshche", "images": []}, {"id": 383538, "min_date": "2018-04-09T09:36:00Z", "max_date": "2018-04-15T10:46:00Z", "count_points": 10, "latitude": 49.44563, "longitude": 28.54721, "city": "Kalynivka", "images": []}, {"id": 383539, "min_date": "2018-04-09T09:36:00Z", "max_date": "2018-04-09T11:23:00Z", "count_points": 12, "latitude": 49.67951, "longitude": 28.76699, "city": "Kozyatyn", "images": []}, {"id": 383540, "min_date": "2018-04-09T09:36:00Z", "max_date": "2018-04-09T11:23:00Z", "count_points": 4, "latitude": 49.76466, "longitude": 28.71308, "city": "Kozyatyn", "images": []}, {"id": 383541, "min_date": "2018-04-09T09:36:00Z", "max_date": "2018-04-09T09:38:00Z", "count_points": 2, "latitude": 49.85957, "longitude": 28.76474, "city": "Chervone", "images": []}, {"id": 383542, "min_date": "2018-04-09T09:36:00Z", "max_date": "2018-04-10T10:54:00Z", "count_points": 13, "latitude": 49.42937, "longitude": 36.94407, "city": "Balakliya", "images": []}, {"id": 383543, "min_date": "2018-04-09T09:36:00Z", "max_date": "2018-04-09T09:38:00Z", "count_points": 3, "latitude": 49.83583, "longitude": 29.16217, "city": "Chornorudka", "images": []}, {"id": 383544, "min_date": "2018-04-09T09:36:00Z", "max_date": "2018-04-09T09:45:00Z", "count_points": 3, "latitude": 48.84023, "longitude": 36.50852, "city": "Blyznyuky", "images": []}, {"id": 383545, "min_date": "2018-04-09T09:36:00Z", "max_date": "2018-04-10T08:42:00Z", "count_points": 9, "latitude": 49.55139, "longitude": 35.76233, "city": "Berezivka", "images": []}, {"id": 383546, "min_date": "2018-04-09T09:36:00Z", "max_date": "2018-04-11T10:36:00Z", "count_points": 4, "latitude": 49.84544, "longitude": 30.80875, "city": "Kaharlyk", "images": []}, {"id": 383547, "min_date": "2018-04-09T09:36:00Z", "max_date": "2018-04-09T09:36:00Z", "count_points": 1, "latitude": 50.42022, "longitude": 30.04085, "city": "Klavdiyevo-Tarasove", "images": []}, {"id": 383548, "min_date": "2018-04-09T09:36:00Z", "max_date": "2018-04-11T10:36:00Z", "count_points": 2, "latitude": 48.73212, "longitude": 32.74867, "city": "Dmytrivka", "images": []}, {"id": 383549, "min_date": "2018-04-09T09:36:00Z", "max_date": "2018-04-09T11:12:00Z", "count_points": 2, "latitude": 49.52445, "longitude": 32.14144, "city": "Cherkasy", "images": []}, {"id": 383550, "min_date": "2018-04-09T09:36:00Z", "max_date": "2018-04-09T09:36:00Z", "count_points": 1, "latitude": 49.69497, "longitude": 32.5678, "city": "Orzhytsya", "images": []}, {"id": 383551, "min_date": "2018-04-09T09:36:00Z", "max_date": "2018-04-09T11:23:00Z", "count_points": 4, "latitude": 50.05591, "longitude": 29.11993, "city": "Andrushivka", "images": []}, {"id": 383552, "min_date": "2018-04-09T09:36:00Z", "max_date": "2018-04-10T08:42:00Z", "count_points": 4, "latitude": 50.12108, "longitude": 35.99262, "city": "Peresichna", "images": []}, {"id": 383553, "min_date": "2018-04-09T09:36:00Z", "max_date": "2018-04-09T09:36:00Z", "count_points": 2, "latitude": 49.13453, "longitude": 35.67515, "city": "Kehychivka", "images": []}, {"id": 383554, "min_date": "2018-04-09T09:36:00Z", "max_date": "2018-04-09T11:23:00Z", "count_points": 7, "latitude": 49.37036, "longitude": 30.70913, "city": "Lysyanka", "images": []}, {"id": 383555, "min_date": "2018-04-09T09:36:00Z", "max_date": "2018-04-09T09:36:00Z", "count_points": 1, "latitude": 49.66908, "longitude": 37.04147, "city": "Shevchenkove", "images": []}, {"id": 383556, "min_date": "2018-04-09T09:36:00Z", "max_date": "2018-04-14T08:18:00Z", "count_points": 5, "latitude": 49.91105, "longitude": 35.76417, "city": "Staryy Merchyk", "images": []}, {"id": 383557, "min_date": "2018-04-09T09:36:00Z", "max_date": "2018-04-09T09:36:00Z", "count_points": 2, "latitude": 48.73458, "longitude": 39.59199, "city": "Stanytsya Luhans\u2019ka", "images": []}, {"id": 383558, "min_date": "2018-04-09T09:36:00Z", "max_date": "2018-04-09T09:38:00Z", "count_points": 3, "latitude": 49.86876, "longitude": 29.58222, "city": "Skvyra", "images": []}, {"id": 383559, "min_date": "2018-04-09T09:36:00Z", "max_date": "2018-04-10T10:27:00Z", "count_points": 15, "latitude": 49.56198, "longitude": 36.56212, "city": "Komsomol\u2019s\u2019ke", "images": []}, {"id": 383560, "min_date": "2018-04-09T09:36:00Z", "max_date": "2018-04-09T11:12:00Z", "count_points": 2, "latitude": 48.9245, "longitude": 31.58565, "city": "Lebedyn", "images": []}, {"id": 383561, "min_date": "2018-04-09T09:36:00Z", "max_date": "2018-04-09T09:36:00Z", "count_points": 2, "latitude": 49.20833, "longitude": 32.17532, "city": "Chervona Sloboda", "images": []}, {"id": 383562, "min_date": "2018-04-09T09:36:00Z", "max_date": "2018-04-09T09:36:00Z", "count_points": 2, "latitude": 49.69656, "longitude": 32.03349, "city": "Zolotonosha", "images": []}, {"id": 383563, "min_date": "2018-04-09T09:36:00Z", "max_date": "2018-04-10T10:28:00Z", "count_points": 3, "latitude": 49.71962, "longitude": 31.91574, "city": "Zolotonosha", "images": []}, {"id": 383564, "min_date": "2018-04-09T09:36:00Z", "max_date": "2018-04-09T11:12:00Z", "count_points": 2, "latitude": 49.18089, "longitude": 37.29461, "city": "Izyum", "images": []}, {"id": 383565, "min_date": "2018-04-09T09:36:00Z", "max_date": "2018-04-09T09:36:00Z", "count_points": 1, "latitude": 49.04556, "longitude": 32.42476, "city": "Oleksandrivka", "images": []}, {"id": 383566, "min_date": "2018-04-09T09:36:00Z", "max_date": "2018-04-09T09:38:00Z", "count_points": 5, "latitude": 49.32537, "longitude": 30.22377, "city": "Roskoshnyy", "images": []}, {"id": 383567, "min_date": "2018-04-09T09:36:00Z", "max_date": "2018-04-09T09:38:00Z", "count_points": 4, "latitude": 49.60099, "longitude": 30.28298, "city": "Rokytne", "images": []}, {"id": 383568, "min_date": "2018-04-09T09:36:00Z", "max_date": "2018-04-09T07:59:00Z", "count_points": 3, "latitude": 49.87104, "longitude": 36.8248, "city": "Kochetok", "images": []}, {"id": 383569, "min_date": "2018-04-09T09:36:00Z", "max_date": "2018-04-09T09:36:00Z", "count_points": 1, "latitude": 49.12814, "longitude": 32.73694, "city": "Chyhyryn", "images": []}, {"id": 383570, "min_date": "2018-04-09T09:36:00Z", "max_date": "2018-04-09T11:12:00Z", "count_points": 3, "latitude": 49.55733, "longitude": 36.19945, "city": "Pervomays\u2019kyy", "images": []}, {"id": 383571, "min_date": "2018-04-09T09:36:00Z", "max_date": "2018-04-09T09:36:00Z", "count_points": 1, "latitude": 48.8187, "longitude": 36.07431, "city": "Yur\u201dyivka", "images": []}, {"id": 383572, "min_date": "2018-04-09T09:36:00Z", "max_date": "2018-04-14T08:18:00Z", "count_points": 12, "latitude": 49.63684, "longitude": 36.17841, "city": "Zmiyiv", "images": []}, {"id": 383573, "min_date": "2018-04-09T09:36:00Z", "max_date": "2018-04-09T09:36:00Z", "count_points": 1, "latitude": 49.17798, "longitude": 36.9174, "city": "Petrivs\u2019ke", "images": []}, {"id": 383574, "min_date": "2018-04-09T09:36:00Z", "max_date": "2018-04-12T10:15:00Z", "count_points": 11, "latitude": 48.58111, "longitude": 37.45969, "city": "Druzhkivka", "images": []}, {"id": 383575, "min_date": "2018-04-09T09:36:00Z", "max_date": "2018-04-09T09:38:00Z", "count_points": 4, "latitude": 49.30276, "longitude": 29.67619, "city": "Tetiiv", "images": [{"image_url": "383575.jpg", "timestamp": "2018-04-09T09:38:00Z"}]}, {"id": 383576, "min_date": "2018-04-09T09:36:00Z", "max_date": "2018-04-15T09:01:00Z", "count_points": 5, "latitude": 48.74703, "longitude": 31.56027, "city": "Novomyrhorod", "images": []}, {"id": 383577, "min_date": "2018-04-09T09:36:00Z", "max_date": "2018-04-15T09:01:00Z", "count_points": 8, "latitude": 49.95415, "longitude": 36.07369, "city": "Vysokyy", "images": []}, {"id": 383578, "min_date": "2018-04-09T09:36:00Z", "max_date": "2018-04-09T09:37:00Z", "count_points": 4, "latitude": 50.11028, "longitude": 32.41614, "city": "Hrebinka", "images": []}, {"id": 383579, "min_date": "2018-04-09T09:36:00Z", "max_date": "2018-04-13T10:58:00Z", "count_points": 2, "latitude": 49.08672, "longitude": 31.07576, "city": "Vatutine", "images": []}, {"id": 383580, "min_date": "2018-04-09T09:36:00Z", "max_date": "2018-04-10T08:43:00Z", "count_points": 4, "latitude": 47.22091, "longitude": 37.63079, "city": "Sartana", "images": []}, {"id": 383581, "min_date": "2018-04-09T09:36:00Z", "max_date": "2018-04-10T10:54:00Z", "count_points": 5, "latitude": 50.88759, "longitude": 34.85283, "city": "Sumy", "images": []}, {"id": 383582, "min_date": "2018-04-09T09:36:00Z", "max_date": "2018-04-09T09:36:00Z", "count_points": 1, "latitude": 50.02353, "longitude": 36.46078, "city": "Kulynychi", "images": []}, {"id": 383583, "min_date": "2018-04-09T09:36:00Z", "max_date": "2018-04-11T11:11:00Z", "count_points": 13, "latitude": 50.53194, "longitude": 32.67804, "city": "Varva", "images": []}, {"id": 383584, "min_date": "2018-04-09T09:36:00Z", "max_date": "2018-04-09T09:36:00Z", "count_points": 2, "latitude": 47.96395, "longitude": 37.58641, "city": "Mareyka", "images": []}, {"id": 383585, "min_date": "2018-04-09T09:36:00Z", "max_date": "2018-04-09T09:37:00Z", "count_points": 3, "latitude": 50.0493, "longitude": 30.23497, "city": "Vasylkiv", "images": []}, {"id": 383586, "min_date": "2018-04-09T09:36:00Z", "max_date": "2018-04-09T11:22:00Z", "count_points": 24, "latitude": 47.81588, "longitude": 38.54028, "city": "Amvrosiyivka", "images": []}, {"id": 383587, "min_date": "2018-04-09T09:36:00Z", "max_date": "2018-04-09T09:45:00Z", "count_points": 3, "latitude": 49.38691, "longitude": 40.07575, "city": "Milove", "images": []}, {"id": 383588, "min_date": "2018-04-09T09:36:00Z", "max_date": "2018-04-10T10:28:00Z", "count_points": 17, "latitude": 50.07432, "longitude": 28.56187, "city": "Hryshkivtsi", "images": []}, {"id": 383589, "min_date": "2018-04-09T09:36:00Z", "max_date": "2018-04-14T10:03:00Z", "count_points": 7, "latitude": 48.65546, "longitude": 28.97827, "city": "Tulchyn", "images": []}, {"id": 383590, "min_date": "2018-04-09T09:36:00Z", "max_date": "2018-04-09T09:36:00Z", "count_points": 1, "latitude": 48.11829, "longitude": 39.56482, "city": "Sverdlovs\u2019k", "images": []}, {"id": 383591, "min_date": "2018-04-09T09:36:00Z", "max_date": "2018-04-11T11:11:00Z", "count_points": 3, "latitude": 50.59856, "longitude": 31.0829, "city": "Velyka Dymerka", "images": []}, {"id": 383592, "min_date": "2018-04-09T09:36:00Z", "max_date": "2018-04-09T11:23:00Z", "count_points": 7, "latitude": 50.82292, "longitude": 28.60759, "city": "Nova Borova", "images": [{"image_url": "383592.jpg", "timestamp": "2018-04-09T11:23:00Z"}]}, {"id": 383593, "min_date": "2018-04-09T09:36:00Z", "max_date": "2018-04-15T11:00:00Z", "count_points": 4, "latitude": 50.53296, "longitude": 30.62314, "city": "Pukhivka", "images": []}, {"id": 383594, "min_date": "2018-04-09T09:36:00Z", "max_date": "2018-04-09T11:23:00Z", "count_points": 3, "latitude": 49.14856, "longitude": 28.97356, "city": "Lypovets", "images": []}, {"id": 383595, "min_date": "2018-04-09T09:36:00Z", "max_date": "2018-04-10T10:27:00Z", "count_points": 5, "latitude": 49.26083, "longitude": 39.88961, "city": "Milove", "images": []}, {"id": 383596, "min_date": "2018-04-09T09:36:00Z", "max_date": "2018-04-11T10:36:00Z", "count_points": 4, "latitude": 50.72817, "longitude": 33.44658, "city": "Romny", "images": []}, {"id": 383597, "min_date": "2018-04-09T09:36:00Z", "max_date": "2018-04-09T09:38:00Z", "count_points": 5, "latitude": 50.03424, "longitude": 28.96726, "city": "Andrushivka", "images": []}, {"id": 383598, "min_date": "2018-04-09T09:36:00Z", "max_date": "2018-04-09T09:37:00Z", "count_points": 3, "latitude": 50.42316, "longitude": 28.89086, "city": "Holovyne", "images": []}, {"id": 383599, "min_date": "2018-04-09T09:36:00Z", "max_date": "2018-04-10T10:28:00Z", "count_points": 6, "latitude": 50.28956, "longitude": 31.71615, "city": "Yahotyn", "images": [{"image_url": "383599.jpg", "timestamp": "2018-04-10T10:28:00Z"}]}, {"id": 383600, "min_date": "2018-04-09T09:36:00Z", "max_date": "2018-04-13T10:59:00Z", "count_points": 22, "latitude": 50.15542, "longitude": 28.95696, "city": "Andrushivka", "images": [{"image_url": "383600.jpg", "timestamp": "2018-04-13T10:59:00Z"}]}, {"id": 383601, "min_date": "2018-04-09T09:36:00Z", "max_date": "2018-04-11T10:36:00Z", "count_points": 4, "latitude": 50.63754, "longitude": 32.69303, "city": "Dihtyari", "images": []}, {"id": 383602, "min_date": "2018-04-09T09:36:00Z", "max_date": "2018-04-09T09:36:00Z", "count_points": 1, "latitude": 50.19441, "longitude": 30.54198, "city": "Obukhiv", "images": []}, {"id": 383603, "min_date": "2018-04-09T09:36:00Z", "max_date": "2018-04-09T09:36:00Z", "count_points": 1, "latitude": 50.13541, "longitude": 30.33332, "city": "Vasylkiv", "images": []}, {"id": 383604, "min_date": "2018-04-09T09:36:00Z", "max_date": "2018-04-09T09:36:00Z", "count_points": 1, "latitude": 50.51471, "longitude": 30.67252, "city": "Pukhivka", "images": []}, {"id": 383605, "min_date": "2018-04-09T09:36:00Z", "max_date": "2018-04-09T09:37:00Z", "count_points": 5, "latitude": 50.49199, "longitude": 32.50325, "city": "Ladan", "images": []}, {"id": 383606, "min_date": "2018-04-09T09:36:00Z", "max_date": "2018-04-09T09:36:00Z", "count_points": 1, "latitude": 50.00258, "longitude": 30.21482, "city": "Borova", "images": []}, {"id": 383607, "min_date": "2018-04-09T09:36:00Z", "max_date": "2018-04-13T10:00:00Z", "count_points": 2, "latitude": 49.16364, "longitude": 39.86434, "city": "Bilovodsk", "images": []}, {"id": 383608, "min_date": "2018-04-09T09:36:00Z", "max_date": "2018-04-11T10:36:00Z", "count_points": 4, "latitude": 49.02965, "longitude": 29.52882, "city": "Dashiv", "images": []}, {"id": 383609, "min_date": "2018-04-09T09:36:00Z", "max_date": "2018-04-10T08:43:00Z", "count_points": 9, "latitude": 48.85992, "longitude": 34.56328, "city": "Tsarychanka", "images": []}, {"id": 383610, "min_date": "2018-04-09T09:36:00Z", "max_date": "2018-04-09T09:36:00Z", "count_points": 1, "latitude": 47.97704, "longitude": 32.96775, "city": "Kazanka", "images": []}, {"id": 383611, "min_date": "2018-04-09T09:36:00Z", "max_date": "2018-04-09T09:38:00Z", "count_points": 3, "latitude": 48.47248, "longitude": 30.25954, "city": "Blahovishchens\u2019ke", "images": []}, {"id": 383612, "min_date": "2018-04-09T09:36:00Z", "max_date": "2018-04-09T09:38:00Z", "count_points": 2, "latitude": 48.7426, "longitude": 27.01397, "city": "Dunaivtsi", "images": []}, {"id": 383613, "min_date": "2018-04-09T09:36:00Z", "max_date": "2018-04-09T11:12:00Z", "count_points": 3, "latitude": 47.90884, "longitude": 34.76613, "city": "Tomakivka", "images": []}, {"id": 383614, "min_date": "2018-04-09T09:36:00Z", "max_date": "2018-04-09T08:00:00Z", "count_points": 4, "latitude": 48.33513, "longitude": 39.74123, "city": "Krasnodon", "images": []}, {"id": 383615, "min_date": "2018-04-09T09:36:00Z", "max_date": "2018-04-09T09:36:00Z", "count_points": 1, "latitude": 48.3322, "longitude": 39.61063, "city": "Molodohvardiys\u2019k", "images": []}, {"id": 383616, "min_date": "2018-04-09T09:36:00Z", "max_date": "2018-04-09T11:12:00Z", "count_points": 2, "latitude": 48.37634, "longitude": 34.42472, "city": "Krynychky", "images": []}, {"id": 383617, "min_date": "2018-04-09T09:36:00Z", "max_date": "2018-04-09T09:36:00Z", "count_points": 1, "latitude": 48.51415, "longitude": 34.03929, "city": "Vyshneve", "images": []}, {"id": 383618, "min_date": "2018-04-09T09:36:00Z", "max_date": "2018-04-09T09:38:00Z", "count_points": 3, "latitude": 48.47272, "longitude": 33.42792, "city": "Zhovti Vody", "images": []}, {"id": 383619, "min_date": "2018-04-09T09:36:00Z", "max_date": "2018-04-09T09:36:00Z", "count_points": 2, "latitude": 48.48773, "longitude": 33.32521, "city": "Novyy Starodub", "images": []}, {"id": 383620, "min_date": "2018-04-09T09:36:00Z", "max_date": "2018-04-09T09:36:00Z", "count_points": 1, "latitude": 48.60357, "longitude": 37.67735, "city": "Kostyantynivka", "images": []}, {"id": 383621, "min_date": "2018-04-09T09:36:00Z", "max_date": "2018-04-09T11:23:00Z", "count_points": 15, "latitude": 50.60136, "longitude": 24.56143, "city": "Lokachi", "images": []}, {"id": 383622, "min_date": "2018-04-09T09:36:00Z", "max_date": "2018-04-09T11:12:00Z", "count_points": 2, "latitude": 47.06149, "longitude": 34.94846, "city": "Vesele", "images": []}, {"id": 383623, "min_date": "2018-04-09T09:36:00Z", "max_date": "2018-04-09T11:12:00Z", "count_points": 2, "latitude": 48.12383, "longitude": 31.98435, "city": "Bobrynets", "images": []}, {"id": 383624, "min_date": "2018-04-09T09:36:00Z", "max_date": "2018-04-09T00:14:00Z", "count_points": 3, "latitude": 45.69599, "longitude": 34.68939, "city": "Prostornoye", "images": []}, {"id": 383625, "min_date": "2018-04-09T09:36:00Z", "max_date": "2018-04-09T09:36:00Z", "count_points": 1, "latitude": 50.92152, "longitude": 34.86496, "city": "Sumy", "images": []}, {"id": 383626, "min_date": "2018-04-09T09:36:00Z", "max_date": "2018-04-10T10:27:00Z", "count_points": 2, "latitude": 49.17571, "longitude": 37.83072, "city": "Krasnyy Lyman", "images": []}, {"id": 383627, "min_date": "2018-04-09T09:36:00Z", "max_date": "2018-04-09T09:36:00Z", "count_points": 1, "latitude": 49.99029, "longitude": 26.63591, "city": "Lyakhovtsy", "images": []}, {"id": 383628, "min_date": "2018-04-09T09:36:00Z", "max_date": "2018-04-15T10:46:00Z", "count_points": 19, "latitude": 49.91465, "longitude": 38.29901, "city": "Troyits\u2019ke", "images": []}, {"id": 383629, "min_date": "2018-04-09T09:36:00Z", "max_date": "2018-04-09T11:22:00Z", "count_points": 8, "latitude": 48.07939, "longitude": 33.05365, "city": "Lozuvatka", "images": []}, {"id": 383630, "min_date": "2018-04-09T09:36:00Z", "max_date": "2018-04-14T10:04:00Z", "count_points": 6, "latitude": 50.86815, "longitude": 33.80002, "city": "Nedryhayliv", "images": []}, {"id": 383631, "min_date": "2018-04-09T09:36:00Z", "max_date": "2018-04-09T09:37:00Z", "count_points": 3, "latitude": 50.7706, "longitude": 31.15435, "city": "Kozelets\u2019", "images": []}, {"id": 383632, "min_date": "2018-04-09T09:36:00Z", "max_date": "2018-04-09T09:36:00Z", "count_points": 1, "latitude": 49.57281, "longitude": 35.26435, "city": "Varvarivka", "images": []}, {"id": 383633, "min_date": "2018-04-09T09:36:00Z", "max_date": "2018-04-09T09:36:00Z", "count_points": 2, "latitude": 49.98093, "longitude": 38.22101, "city": "Troyits\u2019ke", "images": []}, {"id": 383634, "min_date": "2018-04-09T09:36:00Z", "max_date": "2018-04-13T10:58:00Z", "count_points": 2, "latitude": 50.39121, "longitude": 36.04404, "city": "Zolochiv", "images": []}, {"id": 383635, "min_date": "2018-04-09T09:36:00Z", "max_date": "2018-04-09T09:36:00Z", "count_points": 1, "latitude": 50.42942, "longitude": 35.16195, "city": "Kyrykivka", "images": []}, {"id": 383636, "min_date": "2018-04-09T09:36:00Z", "max_date": "2018-04-09T09:38:00Z", "count_points": 5, "latitude": 49.89244, "longitude": 26.70802, "city": "Antoniny", "images": [{"image_url": "383636.jpg", "timestamp": "2018-04-09T09:38:00Z"}]}, {"id": 383637, "min_date": "2018-04-09T09:36:00Z", "max_date": "2018-04-14T10:03:00Z", "count_points": 20, "latitude": 49.85894, "longitude": 38.67595, "city": "Lozno-Oleksandrivka", "images": []}, {"id": 383638, "min_date": "2018-04-09T09:36:00Z", "max_date": "2018-04-09T11:23:00Z", "count_points": 7, "latitude": 50.01367, "longitude": 28.32549, "city": "Chudniv", "images": [{"image_url": "383638.jpg", "timestamp": "2018-04-09T11:23:00Z"}]}, {"id": 383639, "min_date": "2018-04-09T09:36:00Z", "max_date": "2018-04-09T09:36:00Z", "count_points": 1, "latitude": 49.29658, "longitude": 35.65751, "city": "Kehychivka", "images": []}, {"id": 383640, "min_date": "2018-04-09T09:36:00Z", "max_date": "2018-04-09T09:36:00Z", "count_points": 1, "latitude": 47.94907, "longitude": 30.88717, "city": "Pervomays\u2019k", "images": []}, {"id": 383641, "min_date": "2018-04-09T09:36:00Z", "max_date": "2018-04-09T11:23:00Z", "count_points": 4, "latitude": 50.2986, "longitude": 26.42288, "city": "Ostroh", "images": [{"image_url": "383641.jpg", "timestamp": "2018-04-09T11:23:00Z"}]}, {"id": 383642, "min_date": "2018-04-09T09:36:00Z", "max_date": "2018-04-09T09:38:00Z", "count_points": 6, "latitude": 50.21835, "longitude": 28.35192, "city": "Denyshi", "images": [{"image_url": "383642.jpg", "timestamp": "2018-04-09T09:38:00Z"}]}, {"id": 383643, "min_date": "2018-04-09T09:36:00Z", "max_date": "2018-04-09T11:23:00Z", "count_points": 3, "latitude": 49.11058, "longitude": 27.35101, "city": "Vinkivtsi", "images": []}, {"id": 383644, "min_date": "2018-04-09T09:36:00Z", "max_date": "2018-04-09T09:36:00Z", "count_points": 1, "latitude": 46.20938, "longitude": 34.25419, "city": "Novotroyits\u2019ke", "images": []}, {"id": 383645, "min_date": "2018-04-09T09:36:00Z", "max_date": "2018-04-09T11:23:00Z", "count_points": 4, "latitude": 50.30507, "longitude": 28.3235, "city": "Denyshi", "images": [{"image_url": "383645.jpg", "timestamp": "2018-04-09T11:23:00Z"}]}, {"id": 383646, "min_date": "2018-04-09T09:36:00Z", "max_date": "2018-04-09T09:38:00Z", "count_points": 5, "latitude": 49.50296, "longitude": 26.65375, "city": "Narkevychi", "images": [{"image_url": "383646.jpg", "timestamp": "2018-04-09T09:38:00Z"}]}, {"id": 383647, "min_date": "2018-04-09T09:36:00Z", "max_date": "2018-04-13T23:54:00Z", "count_points": 5, "latitude": 49.63264, "longitude": 34.52822, "city": "Poltava", "images": []}, {"id": 383648, "min_date": "2018-04-09T09:36:00Z", "max_date": "2018-04-09T09:36:00Z", "count_points": 2, "latitude": 48.29388, "longitude": 34.23107, "city": "Krynychky", "images": []}, {"id": 383649, "min_date": "2018-04-09T09:36:00Z", "max_date": "2018-04-10T10:27:00Z", "count_points": 4, "latitude": 49.52673, "longitude": 37.9742, "city": "Svatove", "images": []}, {"id": 383650, "min_date": "2018-04-09T09:36:00Z", "max_date": "2018-04-10T10:54:00Z", "count_points": 2, "latitude": 49.54905, "longitude": 27.97704, "city": "Khmilnyk", "images": []}, {"id": 383651, "min_date": "2018-04-09T09:36:00Z", "max_date": "2018-04-09T09:38:00Z", "count_points": 7, "latitude": 49.43073, "longitude": 27.01435, "city": "Khmelnytskyi", "images": [{"image_url": "383651.jpg", "timestamp": "2018-04-09T09:38:00Z"}]}, {"id": 383652, "min_date": "2018-04-09T09:36:00Z", "max_date": "2018-04-10T08:42:00Z", "count_points": 5, "latitude": 49.61253, "longitude": 34.6463, "city": "Poltava", "images": []}, {"id": 383653, "min_date": "2018-04-09T09:36:00Z", "max_date": "2018-04-09T09:36:00Z", "count_points": 1, "latitude": 50.95266, "longitude": 32.118, "city": "Kruty", "images": []}, {"id": 383654, "min_date": "2018-04-09T09:36:00Z", "max_date": "2018-04-09T11:12:00Z", "count_points": 3, "latitude": 48.43191, "longitude": 35.28095, "city": "Kaydaki", "images": []}, {"id": 383655, "min_date": "2018-04-09T09:36:00Z", "max_date": "2018-04-15T10:47:00Z", "count_points": 37, "latitude": 52.10006, "longitude": 33.97061, "city": "Druzhba", "images": []}, {"id": 383656, "min_date": "2018-04-09T09:36:00Z", "max_date": "2018-04-09T09:37:00Z", "count_points": 4, "latitude": 49.16016, "longitude": 36.68199, "city": "Petrivs\u2019ke", "images": []}, {"id": 383657, "min_date": "2018-04-09T09:36:00Z", "max_date": "2018-04-12T10:15:00Z", "count_points": 7, "latitude": 50.11698, "longitude": 37.40108, "city": "Velykyy Burluk", "images": []}, {"id": 383658, "min_date": "2018-04-09T09:36:00Z", "max_date": "2018-04-10T10:27:00Z", "count_points": 9, "latitude": 47.19064, "longitude": 37.44092, "city": "Staryy Krym", "images": []}, {"id": 383659, "min_date": "2018-04-09T09:36:00Z", "max_date": "2018-04-09T09:36:00Z", "count_points": 1, "latitude": 52.0269, "longitude": 32.74844, "city": "Kholmy", "images": []}, {"id": 383660, "min_date": "2018-04-09T09:36:00Z", "max_date": "2018-04-09T09:37:00Z", "count_points": 4, "latitude": 52.15743, "longitude": 32.76181, "city": "Semenivka", "images": []}, {"id": 383661, "min_date": "2018-04-09T09:36:00Z", "max_date": "2018-04-11T11:11:00Z", "count_points": 4, "latitude": 49.88274, "longitude": 35.98976, "city": "Budy", "images": []}, {"id": 383662, "min_date": "2018-04-09T09:36:00Z", "max_date": "2018-04-09T11:12:00Z", "count_points": 3, "latitude": 48.69993, "longitude": 36.96354, "city": "Oleksandrivka", "images": []}, {"id": 383663, "min_date": "2018-04-09T09:36:00Z", "max_date": "2018-04-09T09:36:00Z", "count_points": 2, "latitude": 48.82421, "longitude": 37.51579, "city": "Sloviansk", "images": []}, {"id": 383664, "min_date": "2018-04-09T09:36:00Z", "max_date": "2018-04-09T09:36:00Z", "count_points": 3, "latitude": 47.26141, "longitude": 37.79381, "city": "Sartana", "images": []}, {"id": 383665, "min_date": "2018-04-09T09:36:00Z", "max_date": "2018-04-10T10:28:00Z", "count_points": 16, "latitude": 51.74317, "longitude": 33.44638, "city": "Shostka", "images": []}, {"id": 383666, "min_date": "2018-04-09T09:36:00Z", "max_date": "2018-04-10T08:42:00Z", "count_points": 5, "latitude": 51.89465, "longitude": 33.50177, "city": "Shostka", "images": []}, {"id": 383667, "min_date": "2018-04-09T09:36:00Z", "max_date": "2018-04-11T11:10:00Z", "count_points": 13, "latitude": 47.65843, "longitude": 38.28406, "city": "Kuteynykove", "images": []}, {"id": 383668, "min_date": "2018-04-09T09:36:00Z", "max_date": "2018-04-09T09:36:00Z", "count_points": 1, "latitude": 48.42155, "longitude": 37.45713, "city": "Myrnohrad", "images": []}, {"id": 383669, "min_date": "2018-04-09T09:36:00Z", "max_date": "2018-04-10T09:18:00Z", "count_points": 2, "latitude": 48.70446, "longitude": 36.87796, "city": "Oleksandrivka", "images": []}, {"id": 383670, "min_date": "2018-04-09T09:36:00Z", "max_date": "2018-04-09T09:36:00Z", "count_points": 2, "latitude": 47.82853, "longitude": 38.11807, "city": "Mospyne", "images": []}, {"id": 383671, "min_date": "2018-04-09T09:36:00Z", "max_date": "2018-04-10T10:27:00Z", "count_points": 8, "latitude": 47.67514, "longitude": 37.84196, "city": "Dokuchayevs\u2019k", "images": []}, {"id": 383672, "min_date": "2018-04-09T09:36:00Z", "max_date": "2018-04-09T09:36:00Z", "count_points": 1, "latitude": 49.48167, "longitude": 37.26173, "city": "Savyntsi", "images": []}, {"id": 383673, "min_date": "2018-04-09T09:36:00Z", "max_date": "2018-04-15T09:01:00Z", "count_points": 31, "latitude": 47.70169, "longitude": 38.42655, "city": "Amvrosiyivka", "images": []}, {"id": 383674, "min_date": "2018-04-09T09:36:00Z", "max_date": "2018-04-11T09:33:00Z", "count_points": 7, "latitude": 50.23762, "longitude": 36.22169, "city": "Prudyanka", "images": []}, {"id": 383675, "min_date": "2018-04-09T09:36:00Z", "max_date": "2018-04-09T11:12:00Z", "count_points": 2, "latitude": 49.49903, "longitude": 36.05715, "city": "Pervomays\u2019kyy", "images": []}, {"id": 383676, "min_date": "2018-04-09T09:36:00Z", "max_date": "2018-04-15T10:46:00Z", "count_points": 22, "latitude": 49.70458, "longitude": 36.07103, "city": "Utkivka", "images": []}, {"id": 383677, "min_date": "2018-04-09T09:36:00Z", "max_date": "2018-04-09T09:36:00Z", "count_points": 1, "latitude": 49.68684, "longitude": 35.96674, "city": "Nova Vodolaha", "images": []}, {"id": 383678, "min_date": "2018-04-09T09:36:00Z", "max_date": "2018-04-09T09:36:00Z", "count_points": 1, "latitude": 49.9435, "longitude": 36.67278, "city": "Kochetok", "images": []}, {"id": 383679, "min_date": "2018-04-09T09:36:00Z", "max_date": "2018-04-09T09:36:00Z", "count_points": 1, "latitude": 50.01847, "longitude": 37.27933, "city": "Velykyy Burluk", "images": []}, {"id": 383680, "min_date": "2018-04-09T09:36:00Z", "max_date": "2018-04-09T23:30:00Z", "count_points": 3, "latitude": 49.23031, "longitude": 36.44908, "city": "Krasnopavlivka", "images": []}, {"id": 383681, "min_date": "2018-04-09T09:36:00Z", "max_date": "2018-04-09T23:30:00Z", "count_points": 2, "latitude": 48.68433, "longitude": 35.91192, "city": "Yur\u201dyivka", "images": []}, {"id": 383682, "min_date": "2018-04-09T09:36:00Z", "max_date": "2018-04-09T09:44:00Z", "count_points": 14, "latitude": 48.5737, "longitude": 38.74462, "city": "Frunze", "images": []}, {"id": 383683, "min_date": "2018-04-09T09:36:00Z", "max_date": "2018-04-09T11:23:00Z", "count_points": 10, "latitude": 49.99754, "longitude": 36.08037, "city": "Solonytsivka", "images": []}, {"id": 383684, "min_date": "2018-04-09T09:36:00Z", "max_date": "2018-04-09T11:23:00Z", "count_points": 10, "latitude": 50.04918, "longitude": 35.99569, "city": "Peresichna", "images": []}, {"id": 383685, "min_date": "2018-04-09T09:36:00Z", "max_date": "2018-04-09T09:45:00Z", "count_points": 10, "latitude": 50.01111, "longitude": 37.04152, "city": "Pechenihy", "images": []}, {"id": 383686, "min_date": "2018-04-09T09:36:00Z", "max_date": "2018-04-10T08:42:00Z", "count_points": 8, "latitude": 49.83877, "longitude": 36.65449, "city": "Chuhuyiv", "images": []}, {"id": 383687, "min_date": "2018-04-09T09:36:00Z", "max_date": "2018-04-09T11:23:00Z", "count_points": 3, "latitude": 49.24238, "longitude": 36.11327, "city": "Pervomays\u2019kyy", "images": []}, {"id": 383688, "min_date": "2018-04-09T09:36:00Z", "max_date": "2018-04-15T10:45:00Z", "count_points": 40, "latitude": 48.07644, "longitude": 37.69529, "city": "Avdiyivka", "images": []}, {"id": 383689, "min_date": "2018-04-09T09:36:00Z", "max_date": "2018-04-09T09:44:00Z", "count_points": 2, "latitude": 47.65846, "longitude": 38.0661, "city": "Starobesheve", "images": []}, {"id": 383690, "min_date": "2018-04-09T09:36:00Z", "max_date": "2018-04-11T09:32:00Z", "count_points": 10, "latitude": 49.41453, "longitude": 39.67516, "city": "Markivka", "images": []}, {"id": 383691, "min_date": "2018-04-09T09:36:00Z", "max_date": "2018-04-12T10:18:00Z", "count_points": 5, "latitude": 47.54197, "longitude": 37.67791, "city": "Volnovakha", "images": []}, {"id": 383692, "min_date": "2018-04-09T09:36:00Z", "max_date": "2018-04-13T10:00:00Z", "count_points": 4, "latitude": 49.63023, "longitude": 35.91723, "city": "Nova Vodolaha", "images": []}, {"id": 383693, "min_date": "2018-04-09T09:36:00Z", "max_date": "2018-04-09T09:36:00Z", "count_points": 1, "latitude": 50.24262, "longitude": 30.77693, "city": "Ukrainka", "images": []}, {"id": 383694, "min_date": "2018-04-09T09:36:00Z", "max_date": "2018-04-10T08:43:00Z", "count_points": 2, "latitude": 48.41861, "longitude": 39.23645, "city": "Lutuhyne", "images": []}, {"id": 383695, "min_date": "2018-04-09T09:36:00Z", "max_date": "2018-04-09T09:36:00Z", "count_points": 1, "latitude": 49.03586, "longitude": 33.574, "city": "Horishni Plavni", "images": []}, {"id": 383696, "min_date": "2018-04-09T09:36:00Z", "max_date": "2018-04-09T09:36:00Z", "count_points": 1, "latitude": 48.93998, "longitude": 33.60564, "city": "Horishni Plavni", "images": []}, {"id": 383697, "min_date": "2018-04-09T09:36:00Z", "max_date": "2018-04-09T09:36:00Z", "count_points": 2, "latitude": 49.03189, "longitude": 39.01405, "city": "Novoaydar", "images": []}, {"id": 383698, "min_date": "2018-04-09T09:36:00Z", "max_date": "2018-04-13T10:58:00Z", "count_points": 4, "latitude": 49.25879, "longitude": 39.13709, "city": "Starobil\u2019s\u2019k", "images": []}, {"id": 383699, "min_date": "2018-04-09T09:36:00Z", "max_date": "2018-04-09T11:12:00Z", "count_points": 7, "latitude": 50.30398, "longitude": 32.33509, "city": "Pyryatyn", "images": []}, {"id": 383700, "min_date": "2018-04-09T09:36:00Z", "max_date": "2018-04-09T09:36:00Z", "count_points": 1, "latitude": 48.82468, "longitude": 33.66501, "city": "Horishni Plavni", "images": []}, {"id": 383701, "min_date": "2018-04-09T09:36:00Z", "max_date": "2018-04-09T09:36:00Z", "count_points": 2, "latitude": 49.17229, "longitude": 39.02022, "city": "Starobil\u2019s\u2019k", "images": []}, {"id": 383702, "min_date": "2018-04-09T09:36:00Z", "max_date": "2018-04-15T11:00:00Z", "count_points": 6, "latitude": 49.21658, "longitude": 38.94155, "city": "Starobil\u2019s\u2019k", "images": []}, {"id": 383703, "min_date": "2018-04-09T09:36:00Z", "max_date": "2018-04-09T09:37:00Z", "count_points": 5, "latitude": 49.36773, "longitude": 34.36513, "city": "Novi Sanzhary", "images": []}, {"id": 383704, "min_date": "2018-04-09T09:36:00Z", "max_date": "2018-04-09T09:36:00Z", "count_points": 2, "latitude": 49.06085, "longitude": 39.2927, "city": "Novoaydar", "images": []}, {"id": 383705, "min_date": "2018-04-09T09:36:00Z", "max_date": "2018-04-09T11:23:00Z", "count_points": 8, "latitude": 48.40039, "longitude": 26.90988, "city": "Kel\u2019mentsi", "images": [{"image_url": "383705.jpg", "timestamp": "2018-04-09T11:23:00Z"}]}, {"id": 383706, "min_date": "2018-04-09T09:36:00Z", "max_date": "2018-04-09T09:38:00Z", "count_points": 2, "latitude": 48.49032, "longitude": 27.34781, "city": "Sokyryany", "images": []}, {"id": 383707, "min_date": "2018-04-09T09:36:00Z", "max_date": "2018-04-09T11:12:00Z", "count_points": 5, "latitude": 48.01121, "longitude": 38.88891, "city": "Miusyns\u2019k", "images": []}, {"id": 383708, "min_date": "2018-04-09T09:36:00Z", "max_date": "2018-04-09T09:44:00Z", "count_points": 6, "latitude": 47.96828, "longitude": 39.39489, "city": "Roven\u2019ky", "images": []}, {"id": 383709, "min_date": "2018-04-09T09:36:00Z", "max_date": "2018-04-09T09:37:00Z", "count_points": 3, "latitude": 50.72035, "longitude": 31.81203, "city": "Zgurovka", "images": []}, {"id": 383710, "min_date": "2018-04-09T09:36:00Z", "max_date": "2018-04-09T11:23:00Z", "count_points": 13, "latitude": 48.65767, "longitude": 33.62694, "city": "Piatykhatky", "images": []}, {"id": 383711, "min_date": "2018-04-09T09:36:00Z", "max_date": "2018-04-09T11:12:00Z", "count_points": 2, "latitude": 48.89011, "longitude": 35.04425, "city": "Mahdalynivka", "images": []}, {"id": 383712, "min_date": "2018-04-09T09:36:00Z", "max_date": "2018-04-09T09:36:00Z", "count_points": 1, "latitude": 49.29013, "longitude": 38.87135, "city": "Starobil\u2019s\u2019k", "images": []}, {"id": 383713, "min_date": "2018-04-09T09:36:00Z", "max_date": "2018-04-12T10:15:00Z", "count_points": 10, "latitude": 48.82569, "longitude": 39.23752, "city": "Shchastya", "images": []}, {"id": 383714, "min_date": "2018-04-09T09:36:00Z", "max_date": "2018-04-09T09:45:00Z", "count_points": 2, "latitude": 48.78115, "longitude": 35.26466, "city": "Hubynykha", "images": []}, {"id": 383715, "min_date": "2018-04-09T09:36:00Z", "max_date": "2018-04-09T09:36:00Z", "count_points": 1, "latitude": 48.57713, "longitude": 33.89547, "city": "Lykhivka", "images": []}, {"id": 383716, "min_date": "2018-04-09T09:36:00Z", "max_date": "2018-04-11T10:36:00Z", "count_points": 4, "latitude": 50.42305, "longitude": 30.94537, "city": "Boryspil\u2019", "images": []}, {"id": 383717, "min_date": "2018-04-09T09:36:00Z", "max_date": "2018-04-09T11:12:00Z", "count_points": 2, "latitude": 48.56914, "longitude": 39.21527, "city": "Luhansk", "images": []}, {"id": 383718, "min_date": "2018-04-09T09:36:00Z", "max_date": "2018-04-09T08:00:00Z", "count_points": 4, "latitude": 48.22434, "longitude": 39.26577, "city": "Millerovo", "images": []}, {"id": 383719, "min_date": "2018-04-09T09:36:00Z", "max_date": "2018-04-10T10:27:00Z", "count_points": 4, "latitude": 48.0536, "longitude": 39.51006, "city": "Klenovyy", "images": []}, {"id": 383720, "min_date": "2018-04-09T09:36:00Z", "max_date": "2018-04-14T10:03:00Z", "count_points": 19, "latitude": 48.09826, "longitude": 39.41594, "city": "Klenovyy", "images": []}, {"id": 383721, "min_date": "2018-04-09T09:36:00Z", "max_date": "2018-04-09T09:36:00Z", "count_points": 1, "latitude": 50.96527, "longitude": 33.32481, "city": "Talalayivka", "images": []}, {"id": 383722, "min_date": "2018-04-09T09:36:00Z", "max_date": "2018-04-09T09:45:00Z", "count_points": 11, "latitude": 49.5325, "longitude": 39.14267, "city": "Novopskov", "images": []}, {"id": 383723, "min_date": "2018-04-09T09:36:00Z", "max_date": "2018-04-09T09:45:00Z", "count_points": 4, "latitude": 49.17407, "longitude": 39.12562, "city": "Starobil\u2019s\u2019k", "images": []}, {"id": 383724, "min_date": "2018-04-09T09:36:00Z", "max_date": "2018-04-09T09:36:00Z", "count_points": 1, "latitude": 48.97066, "longitude": 34.49202, "city": "Tsarychanka", "images": []}, {"id": 383725, "min_date": "2018-04-09T09:36:00Z", "max_date": "2018-04-14T10:04:00Z", "count_points": 15, "latitude": 50.76384, "longitude": 31.34538, "city": "Bobrovytsya", "images": []}, {"id": 383726, "min_date": "2018-04-09T09:36:00Z", "max_date": "2018-04-10T10:27:00Z", "count_points": 13, "latitude": 48.15644, "longitude": 39.13189, "city": "Millerovo", "images": []}, {"id": 383727, "min_date": "2018-04-09T09:36:00Z", "max_date": "2018-04-09T11:12:00Z", "count_points": 2, "latitude": 48.2012, "longitude": 39.1559, "city": "Millerovo", "images": []}, {"id": 383728, "min_date": "2018-04-09T09:36:00Z", "max_date": "2018-04-15T09:01:00Z", "count_points": 4, "latitude": 50.96996, "longitude": 34.72077, "city": "Sumy", "images": []}, {"id": 383729, "min_date": "2018-04-09T09:36:00Z", "max_date": "2018-04-09T09:36:00Z", "count_points": 1, "latitude": 50.89475, "longitude": 33.44839, "city": "Romny", "images": []}, {"id": 383730, "min_date": "2018-04-09T09:36:00Z", "max_date": "2018-04-09T11:12:00Z", "count_points": 2, "latitude": 48.58729, "longitude": 34.34722, "city": "Novomykolayivka", "images": []}, {"id": 383731, "min_date": "2018-04-09T09:36:00Z", "max_date": "2018-04-09T09:36:00Z", "count_points": 1, "latitude": 48.23094, "longitude": 37.54615, "city": "Avdiyivka", "images": []}, {"id": 383732, "min_date": "2018-04-09T09:36:00Z", "max_date": "2018-04-10T08:43:00Z", "count_points": 13, "latitude": 48.90253, "longitude": 35.13981, "city": "Hubynykha", "images": []}, {"id": 383733, "min_date": "2018-04-09T09:36:00Z", "max_date": "2018-04-15T10:46:00Z", "count_points": 7, "latitude": 51.21462, "longitude": 34.44207, "city": "Bilopillya", "images": []}, {"id": 383734, "min_date": "2018-04-09T09:36:00Z", "max_date": "2018-04-09T11:12:00Z", "count_points": 3, "latitude": 49.88385, "longitude": 35.56654, "city": "Valky", "images": []}, {"id": 383735, "min_date": "2018-04-09T09:36:00Z", "max_date": "2018-04-09T09:36:00Z", "count_points": 2, "latitude": 47.54982, "longitude": 37.4225, "city": "Volnovakha", "images": []}, {"id": 383736, "min_date": "2018-04-09T09:36:00Z", "max_date": "2018-04-09T08:00:00Z", "count_points": 7, "latitude": 47.54237, "longitude": 37.82931, "city": "Tel\u2019manove", "images": []}, {"id": 383737, "min_date": "2018-04-09T09:36:00Z", "max_date": "2018-04-09T09:37:00Z", "count_points": 2, "latitude": 51.49332, "longitude": 32.51248, "city": "Sosnytsya", "images": []}, {"id": 383738, "min_date": "2018-04-09T09:36:00Z", "max_date": "2018-04-10T10:28:00Z", "count_points": 7, "latitude": 51.05575, "longitude": 31.33669, "city": "Olyshivka", "images": []}, {"id": 383739, "min_date": "2018-04-09T09:36:00Z", "max_date": "2018-04-09T09:36:00Z", "count_points": 1, "latitude": 48.68301, "longitude": 38.9667, "city": "Slov`yanoserbsk", "images": []}, {"id": 383740, "min_date": "2018-04-09T09:36:00Z", "max_date": "2018-04-09T09:36:00Z", "count_points": 1, "latitude": 48.59089, "longitude": 38.94943, "city": "Slov`yanoserbsk", "images": []}, {"id": 383741, "min_date": "2018-04-09T09:36:00Z", "max_date": "2018-04-09T09:36:00Z", "count_points": 2, "latitude": 48.58121, "longitude": 38.98658, "city": "Bile", "images": []}, {"id": 383742, "min_date": "2018-04-09T09:36:00Z", "max_date": "2018-04-13T10:59:00Z", "count_points": 19, "latitude": 51.21092, "longitude": 31.00386, "city": "Oster", "images": []}, {"id": 383743, "min_date": "2018-04-09T09:36:00Z", "max_date": "2018-04-09T09:36:00Z", "count_points": 1, "latitude": 51.16442, "longitude": 31.47081, "city": "Olyshivka", "images": []}, {"id": 383744, "min_date": "2018-04-09T09:36:00Z", "max_date": "2018-04-09T11:23:00Z", "count_points": 9, "latitude": 51.3322, "longitude": 33.67226, "city": "Sloboda", "images": []}, {"id": 383745, "min_date": "2018-04-09T09:36:00Z", "max_date": "2018-04-09T09:37:00Z", "count_points": 4, "latitude": 51.56636, "longitude": 32.78819, "city": "Korop", "images": []}, {"id": 383746, "min_date": "2018-04-09T09:36:00Z", "max_date": "2018-04-09T09:36:00Z", "count_points": 2, "latitude": 47.26601, "longitude": 38.29606, "city": "Syedove", "images": []}, {"id": 383747, "min_date": "2018-04-09T09:36:00Z", "max_date": "2018-04-09T09:36:00Z", "count_points": 1, "latitude": 49.50216, "longitude": 35.43271, "city": "Krasnohrad", "images": []}, {"id": 383748, "min_date": "2018-04-09T09:36:00Z", "max_date": "2018-04-09T09:36:00Z", "count_points": 2, "latitude": 51.11502, "longitude": 31.90861, "city": "Nizhyn", "images": []}, {"id": 383749, "min_date": "2018-04-09T09:36:00Z", "max_date": "2018-04-09T09:36:00Z", "count_points": 1, "latitude": 51.13969, "longitude": 31.89929, "city": "Nizhyn", "images": []}, {"id": 383750, "min_date": "2018-04-09T09:36:00Z", "max_date": "2018-04-10T10:54:00Z", "count_points": 3, "latitude": 51.42292, "longitude": 31.92349, "city": "Berezna", "images": []}, {"id": 383751, "min_date": "2018-04-09T09:36:00Z", "max_date": "2018-04-09T11:12:00Z", "count_points": 2, "latitude": 48.08039, "longitude": 39.56293, "city": "Sverdlovs\u2019k", "images": []}, {"id": 383752, "min_date": "2018-04-09T09:36:00Z", "max_date": "2018-04-09T09:37:00Z", "count_points": 5, "latitude": 51.53321, "longitude": 31.54116, "city": "Sedniv", "images": []}, {"id": 383753, "min_date": "2018-04-09T09:36:00Z", "max_date": "2018-04-09T09:36:00Z", "count_points": 1, "latitude": 49.66632, "longitude": 34.48607, "city": "Poltava", "images": []}, {"id": 383754, "min_date": "2018-04-09T09:36:00Z", "max_date": "2018-04-14T09:42:00Z", "count_points": 2, "latitude": 48.87611, "longitude": 37.54612, "city": "Sloviansk", "images": []}, {"id": 383755, "min_date": "2018-04-09T09:36:00Z", "max_date": "2018-04-15T11:00:00Z", "count_points": 2, "latitude": 48.17238, "longitude": 31.82461, "city": "Rivne", "images": []}, {"id": 383756, "min_date": "2018-04-09T09:36:00Z", "max_date": "2018-04-09T11:23:00Z", "count_points": 14, "latitude": 51.39238, "longitude": 32.01581, "city": "Mena", "images": []}, {"id": 383757, "min_date": "2018-04-09T09:36:00Z", "max_date": "2018-04-09T09:44:00Z", "count_points": 4, "latitude": 47.27257, "longitude": 36.70439, "city": "Komysh-Zorya", "images": []}, {"id": 383758, "min_date": "2018-04-09T09:36:00Z", "max_date": "2018-04-09T09:36:00Z", "count_points": 1, "latitude": 50.22826, "longitude": 35.34742, "city": "Huty", "images": []}, {"id": 383759, "min_date": "2018-04-09T09:36:00Z", "max_date": "2018-04-12T10:18:00Z", "count_points": 3, "latitude": 49.36876, "longitude": 35.50584, "city": "Verbivka", "images": []}, {"id": 383760, "min_date": "2018-04-09T09:36:00Z", "max_date": "2018-04-09T09:36:00Z", "count_points": 3, "latitude": 48.71491, "longitude": 34.91014, "city": "Spas\u2019ke", "images": []}, {"id": 383761, "min_date": "2018-04-09T09:36:00Z", "max_date": "2018-04-11T09:25:00Z", "count_points": 18, "latitude": 48.86248, "longitude": 35.58147, "city": "Melioratyvne", "images": []}, {"id": 383762, "min_date": "2018-04-09T09:36:00Z", "max_date": "2018-04-14T09:42:00Z", "count_points": 3, "latitude": 49.25413, "longitude": 34.23984, "city": "Kobelyaky", "images": []}, {"id": 383763, "min_date": "2018-04-09T09:36:00Z", "max_date": "2018-04-09T09:36:00Z", "count_points": 1, "latitude": 51.18195, "longitude": 32.23429, "city": "Kruty", "images": []}, {"id": 383764, "min_date": "2018-04-09T09:36:00Z", "max_date": "2018-04-09T11:23:00Z", "count_points": 6, "latitude": 51.26527, "longitude": 28.75426, "city": "Ovruch", "images": [{"image_url": "383764.jpg", "timestamp": "2018-04-09T11:23:00Z"}]}, {"id": 383765, "min_date": "2018-04-09T09:36:00Z", "max_date": "2018-04-09T09:36:00Z", "count_points": 1, "latitude": 48.28046, "longitude": 36.36937, "city": "Petropavlivka", "images": []}, {"id": 383766, "min_date": "2018-04-09T09:36:00Z", "max_date": "2018-04-09T09:37:00Z", "count_points": 2, "latitude": 51.32164, "longitude": 28.58324, "city": "Ovruch", "images": []}, {"id": 383767, "min_date": "2018-04-09T09:36:00Z", "max_date": "2018-04-15T10:45:00Z", "count_points": 7, "latitude": 48.19466, "longitude": 36.26689, "city": "Pokrovs\u2019ke", "images": []}, {"id": 383768, "min_date": "2018-04-09T09:36:00Z", "max_date": "2018-04-09T09:37:00Z", "count_points": 4, "latitude": 51.28154, "longitude": 29.00332, "city": "Narodychi", "images": []}, {"id": 383769, "min_date": "2018-04-09T09:36:00Z", "max_date": "2018-04-15T10:45:00Z", "count_points": 3, "latitude": 47.83954, "longitude": 36.68415, "city": "Velyka Novosilka", "images": []}, {"id": 383770, "min_date": "2018-04-09T09:36:00Z", "max_date": "2018-04-09T09:36:00Z", "count_points": 2, "latitude": 48.27175, "longitude": 36.43283, "city": "Petropavlivka", "images": []}, {"id": 383771, "min_date": "2018-04-09T09:36:00Z", "max_date": "2018-04-09T09:36:00Z", "count_points": 2, "latitude": 48.22229, "longitude": 36.04435, "city": "Vasyl\u2019kivka", "images": []}, {"id": 383772, "min_date": "2018-04-09T09:36:00Z", "max_date": "2018-04-09T09:36:00Z", "count_points": 1, "latitude": 48.32393, "longitude": 35.72065, "city": "Synel\u2019nykove", "images": []}, {"id": 383773, "min_date": "2018-04-09T09:36:00Z", "max_date": "2018-04-10T10:27:00Z", "count_points": 10, "latitude": 48.28057, "longitude": 36.28049, "city": "Petropavlivka", "images": []}, {"id": 383774, "min_date": "2018-04-09T09:36:00Z", "max_date": "2018-04-09T09:36:00Z", "count_points": 2, "latitude": 47.78991, "longitude": 35.63225, "city": "Komyshuvakha", "images": []}, {"id": 383775, "min_date": "2018-04-09T09:36:00Z", "max_date": "2018-04-09T09:36:00Z", "count_points": 2, "latitude": 48.35559, "longitude": 36.44287, "city": "Petropavlivka", "images": []}, {"id": 383776, "min_date": "2018-04-09T09:36:00Z", "max_date": "2018-04-09T09:38:00Z", "count_points": 6, "latitude": 48.39509, "longitude": 35.74768, "city": "Pavlohrad", "images": []}, {"id": 383777, "min_date": "2018-04-09T09:36:00Z", "max_date": "2018-04-09T09:36:00Z", "count_points": 1, "latitude": 47.84873, "longitude": 35.85021, "city": "Novomykolayivka", "images": []}, {"id": 383778, "min_date": "2018-04-09T09:36:00Z", "max_date": "2018-04-12T08:31:00Z", "count_points": 2, "latitude": 48.15983, "longitude": 35.79383, "city": "Novomykolayivka", "images": []}, {"id": 383779, "min_date": "2018-04-09T09:36:00Z", "max_date": "2018-04-09T11:12:00Z", "count_points": 2, "latitude": 49.41285, "longitude": 37.74238, "city": "Borova", "images": []}, {"id": 383780, "min_date": "2018-04-09T09:36:00Z", "max_date": "2018-04-09T11:12:00Z", "count_points": 3, "latitude": 48.19539, "longitude": 26.05813, "city": "Molodiya", "images": []}, {"id": 383781, "min_date": "2018-04-09T09:36:00Z", "max_date": "2018-04-09T09:44:00Z", "count_points": 5, "latitude": 48.20667, "longitude": 35.83202, "city": "Vasyl\u2019kivka", "images": []}, {"id": 383782, "min_date": "2018-04-09T09:36:00Z", "max_date": "2018-04-09T09:44:00Z", "count_points": 3, "latitude": 48.18618, "longitude": 37.07893, "city": "Krasnoarmiys\u2019k", "images": []}, {"id": 383783, "min_date": "2018-04-09T09:36:00Z", "max_date": "2018-04-09T11:23:00Z", "count_points": 5, "latitude": 48.267, "longitude": 26.2028, "city": "Novoselytsya", "images": [{"image_url": "383783.jpg", "timestamp": "2018-04-09T11:23:00Z"}]}, {"id": 383784, "min_date": "2018-04-09T09:36:00Z", "max_date": "2018-04-09T11:12:00Z", "count_points": 4, "latitude": 48.08527, "longitude": 35.84228, "city": "Novomykolayivka", "images": []}, {"id": 383785, "min_date": "2018-04-09T09:36:00Z", "max_date": "2018-04-09T09:44:00Z", "count_points": 13, "latitude": 47.99089, "longitude": 35.64181, "city": "Vil\u2019nyans\u2019k", "images": []}, {"id": 383786, "min_date": "2018-04-09T09:36:00Z", "max_date": "2018-04-09T11:23:00Z", "count_points": 5, "latitude": 51.117, "longitude": 30.03899, "city": "Ivankiv", "images": []}, {"id": 383787, "min_date": "2018-04-09T09:36:00Z", "max_date": "2018-04-09T11:18:00Z", "count_points": 2, "latitude": 51.1332, "longitude": 29.95075, "city": "Ivankiv", "images": []}, {"id": 383788, "min_date": "2018-04-09T09:36:00Z", "max_date": "2018-04-09T11:12:00Z", "count_points": 2, "latitude": 47.64485, "longitude": 36.69171, "city": "Velyka Novosilka", "images": []}, {"id": 383789, "min_date": "2018-04-09T09:36:00Z", "max_date": "2018-04-10T08:42:00Z", "count_points": 10, "latitude": 49.65789, "longitude": 37.70398, "city": "Kivsharivka", "images": []}, {"id": 383790, "min_date": "2018-04-09T09:36:00Z", "max_date": "2018-04-09T09:36:00Z", "count_points": 1, "latitude": 51.45219, "longitude": 28.75986, "city": "Pershotravneve", "images": []}, {"id": 383791, "min_date": "2018-04-09T09:36:00Z", "max_date": "2018-04-09T11:23:00Z", "count_points": 8, "latitude": 48.37364, "longitude": 26.04541, "city": "Chernivtsi", "images": [{"image_url": "383791.jpg", "timestamp": "2018-04-09T11:23:00Z"}]}, {"id": 383792, "min_date": "2018-04-09T09:36:00Z", "max_date": "2018-04-15T09:01:00Z", "count_points": 6, "latitude": 48.51978, "longitude": 25.78619, "city": "Verenchanka", "images": [{"image_url": "383792.jpg", "timestamp": "2018-04-15T09:01:00Z"}]}, {"id": 383793, "min_date": "2018-04-09T09:36:00Z", "max_date": "2018-04-09T09:45:00Z", "count_points": 7, "latitude": 49.55165, "longitude": 37.7416, "city": "Kivsharivka", "images": []}, {"id": 383794, "min_date": "2018-04-09T11:12:00Z", "max_date": "2018-04-09T11:22:00Z", "count_points": 5, "latitude": 47.49606, "longitude": 36.63099, "city": "Kuybysheve", "images": []}, {"id": 383795, "min_date": "2018-04-09T11:12:00Z", "max_date": "2018-04-09T11:12:00Z", "count_points": 1, "latitude": 47.76233, "longitude": 35.58569, "city": "Komyshuvakha", "images": []}, {"id": 383796, "min_date": "2018-04-09T11:12:00Z", "max_date": "2018-04-15T10:46:00Z", "count_points": 23, "latitude": 48.39307, "longitude": 26.34189, "city": "Klishkivtsi", "images": [{"image_url": "383796.jpg", "timestamp": "2018-04-15T10:46:00Z"}]}, {"id": 383797, "min_date": "2018-04-09T11:12:00Z", "max_date": "2018-04-09T11:23:00Z", "count_points": 2, "latitude": 48.49837, "longitude": 25.85411, "city": "Zastavna", "images": []}, {"id": 383798, "min_date": "2018-04-09T11:12:00Z", "max_date": "2018-04-09T11:23:00Z", "count_points": 6, "latitude": 48.4477, "longitude": 25.80531, "city": "Kitsman\u2019", "images": [{"image_url": "383798.jpg", "timestamp": "2018-04-09T11:23:00Z"}]}, {"id": 383799, "min_date": "2018-04-09T11:12:00Z", "max_date": "2018-04-09T11:12:00Z", "count_points": 1, "latitude": 48.21119, "longitude": 26.31913, "city": "Marshintsy", "images": []}, {"id": 383800, "min_date": "2018-04-09T11:12:00Z", "max_date": "2018-04-09T11:12:00Z", "count_points": 1, "latitude": 48.47653, "longitude": 37.0321, "city": "Dobropillya", "images": []}, {"id": 383801, "min_date": "2018-04-09T11:12:00Z", "max_date": "2018-04-09T11:12:00Z", "count_points": 1, "latitude": 48.3124, "longitude": 36.93472, "city": "Mezhova", "images": []}, {"id": 383802, "min_date": "2018-04-09T11:12:00Z", "max_date": "2018-04-09T11:12:00Z", "count_points": 1, "latitude": 48.20615, "longitude": 35.70795, "city": "Synel\u2019nykove", "images": []}, {"id": 383803, "min_date": "2018-04-09T11:12:00Z", "max_date": "2018-04-09T11:12:00Z", "count_points": 1, "latitude": 47.86023, "longitude": 37.11574, "city": "Kurakhovo", "images": []}, {"id": 383804, "min_date": "2018-04-09T11:12:00Z", "max_date": "2018-04-09T11:12:00Z", "count_points": 1, "latitude": 48.28245, "longitude": 35.68793, "city": "Synel\u2019nykove", "images": []}, {"id": 383805, "min_date": "2018-04-09T11:12:00Z", "max_date": "2018-04-09T11:12:00Z", "count_points": 2, "latitude": 48.18056, "longitude": 36.44635, "city": "Petropavlivka", "images": []}, {"id": 383806, "min_date": "2018-04-09T11:12:00Z", "max_date": "2018-04-09T11:12:00Z", "count_points": 2, "latitude": 47.01979, "longitude": 36.1892, "city": "Chernihivka", "images": []}, {"id": 383807, "min_date": "2018-04-09T11:12:00Z", "max_date": "2018-04-09T11:22:00Z", "count_points": 2, "latitude": 48.44844, "longitude": 36.30733, "city": "Petropavlivka", "images": []}, {"id": 384192, "min_date": "2018-04-09T11:12:00Z", "max_date": "2018-04-09T11:12:00Z", "count_points": 1, "latitude": 47.43573, "longitude": 37.22403, "city": "Rozivka", "images": []}, {"id": 383808, "min_date": "2018-04-09T11:12:00Z", "max_date": "2018-04-09T11:12:00Z", "count_points": 1, "latitude": 48.19257, "longitude": 36.98534, "city": "Krasnoarmiys\u2019k", "images": []}, {"id": 383809, "min_date": "2018-04-09T11:12:00Z", "max_date": "2018-04-11T11:10:00Z", "count_points": 7, "latitude": 48.26289, "longitude": 25.86947, "city": "Chernivtsi", "images": [{"image_url": "383809.jpg", "timestamp": "2018-04-11T11:10:00Z"}]}, {"id": 383810, "min_date": "2018-04-09T11:12:00Z", "max_date": "2018-04-09T11:12:00Z", "count_points": 1, "latitude": 48.2005, "longitude": 37.72023, "city": "Avdiyivka", "images": []}, {"id": 383811, "min_date": "2018-04-09T11:12:00Z", "max_date": "2018-04-10T10:54:00Z", "count_points": 5, "latitude": 48.46865, "longitude": 36.44967, "city": "Petropavlivka", "images": []}, {"id": 383812, "min_date": "2018-04-09T11:12:00Z", "max_date": "2018-04-09T11:12:00Z", "count_points": 1, "latitude": 48.20448, "longitude": 35.98035, "city": "Vasyl\u2019kivka", "images": []}, {"id": 383813, "min_date": "2018-04-09T11:12:00Z", "max_date": "2018-04-11T10:36:00Z", "count_points": 7, "latitude": 50.07888, "longitude": 37.71623, "city": "Dvorichna", "images": []}, {"id": 383814, "min_date": "2018-04-09T11:12:00Z", "max_date": "2018-04-09T11:23:00Z", "count_points": 3, "latitude": 49.16018, "longitude": 37.7058, "city": "Svyatogorsk", "images": []}, {"id": 383815, "min_date": "2018-04-09T11:12:00Z", "max_date": "2018-04-09T11:12:00Z", "count_points": 1, "latitude": 48.2248, "longitude": 35.93045, "city": "Vasyl\u2019kivka", "images": []}, {"id": 383816, "min_date": "2018-04-09T11:12:00Z", "max_date": "2018-04-09T11:12:00Z", "count_points": 1, "latitude": 48.09965, "longitude": 35.9712, "city": "Vasyl\u2019kivka", "images": []},