[{"id": 420894, "min_date": "2019-07-15T00:24:00Z", "max_date": "2019-07-15T00:24:00Z", "count_points": 2, "latitude": 46.94986, "longitude": 34.40188, "city": "Nyzhni Sirohozy", "images": []}, {"id": 420895, "min_date": "2019-07-15T00:24:00Z", "max_date": "2019-07-18T10:54:00Z", "count_points": 4, "latitude": 46.8189, "longitude": 34.39274, "city": "Nyzhni Sirohozy", "images": []}, {"id": 420896, "min_date": "2019-07-15T00:24:00Z", "max_date": "2019-07-20T00:30:00Z", "count_points": 4, "latitude": 49.50727, "longitude": 34.67511, "city": "Poltava", "images": []}, {"id": 420897, "min_date": "2019-07-15T00:24:00Z", "max_date": "2019-07-15T00:24:00Z", "count_points": 2, "latitude": 46.98016, "longitude": 34.36734, "city": "Nyzhni Sirohozy", "images": []}, {"id": 420898, "min_date": "2019-07-15T00:24:00Z", "max_date": "2019-07-20T10:14:00Z", "count_points": 17, "latitude": 47.00895, "longitude": 34.55743, "city": "Nyzhni Sirohozy", "images": []}, {"id": 420899, "min_date": "2019-07-15T00:24:00Z", "max_date": "2019-07-15T00:24:00Z", "count_points": 1, "latitude": 45.41621, "longitude": 34.93932, "city": "Nekrasovka", "images": []}, {"id": 420900, "min_date": "2019-07-15T00:24:00Z", "max_date": "2019-07-18T10:26:00Z", "count_points": 18, "latitude": 47.40296, "longitude": 34.39486, "city": "Kamenka-Na-Dnepre", "images": []}, {"id": 420901, "min_date": "2019-07-15T00:24:00Z", "max_date": "2019-07-21T23:54:00Z", "count_points": 6, "latitude": 46.38712, "longitude": 35.00475, "city": "Partyzany", "images": []}, {"id": 420902, "min_date": "2019-07-15T00:24:00Z", "max_date": "2019-07-15T00:24:00Z", "count_points": 1, "latitude": 47.67268, "longitude": 35.39346, "city": "Malokaterynivka", "images": []}, {"id": 420903, "min_date": "2019-07-15T00:24:00Z", "max_date": "2019-07-15T00:24:00Z", "count_points": 1, "latitude": 49.64091, "longitude": 34.35151, "city": "Poltava", "images": []}, {"id": 420904, "min_date": "2019-07-15T00:24:00Z", "max_date": "2019-07-15T00:24:00Z", "count_points": 2, "latitude": 46.74319, "longitude": 36.19601, "city": "Prymors\u2019k", "images": []}, {"id": 420905, "min_date": "2019-07-15T00:24:00Z", "max_date": "2019-07-19T11:09:00Z", "count_points": 12, "latitude": 49.20168, "longitude": 35.68696, "city": "Kehychivka", "images": []}, {"id": 420906, "min_date": "2019-07-15T00:24:00Z", "max_date": "2019-07-15T10:12:00Z", "count_points": 7, "latitude": 47.75082, "longitude": 33.0353, "city": "Shyroke", "images": []}, {"id": 420907, "min_date": "2019-07-15T00:24:00Z", "max_date": "2019-07-15T00:24:00Z", "count_points": 1, "latitude": 47.62557, "longitude": 31.43768, "city": "Voznesensk", "images": []}, {"id": 420908, "min_date": "2019-07-15T00:24:00Z", "max_date": "2019-07-17T09:37:00Z", "count_points": 7, "latitude": 47.41752, "longitude": 31.44382, "city": "Voznesensk", "images": []}, {"id": 420909, "min_date": "2019-07-15T00:24:00Z", "max_date": "2019-07-19T09:25:00Z", "count_points": 14, "latitude": 47.1072, "longitude": 34.10586, "city": "Velyka Lepetykha", "images": []}, {"id": 420910, "min_date": "2019-07-15T00:24:00Z", "max_date": "2019-07-21T00:12:00Z", "count_points": 6, "latitude": 46.83917, "longitude": 36.20874, "city": "Prymors\u2019k", "images": []}, {"id": 420911, "min_date": "2019-07-15T00:24:00Z", "max_date": "2019-07-15T09:56:00Z", "count_points": 9, "latitude": 49.58788, "longitude": 34.25628, "city": "Reshetylivka", "images": []}, {"id": 420912, "min_date": "2019-07-15T00:24:00Z", "max_date": "2019-07-20T10:14:00Z", "count_points": 19, "latitude": 48.46548, "longitude": 34.62598, "city": "Kamianske", "images": []}, {"id": 420913, "min_date": "2019-07-15T00:24:00Z", "max_date": "2019-07-19T07:47:00Z", "count_points": 34, "latitude": 47.17347, "longitude": 34.44462, "city": "Velyka Bilozerka", "images": []}, {"id": 420914, "min_date": "2019-07-15T00:24:00Z", "max_date": "2019-07-15T00:24:00Z", "count_points": 4, "latitude": 49.43795, "longitude": 39.8132, "city": "Markivka", "images": []}, {"id": 420915, "min_date": "2019-07-15T00:24:00Z", "max_date": "2019-07-19T10:36:00Z", "count_points": 6, "latitude": 47.67107, "longitude": 36.1275, "city": "Zaliznychne", "images": []}, {"id": 420916, "min_date": "2019-07-15T00:24:00Z", "max_date": "2019-07-15T00:24:00Z", "count_points": 1, "latitude": 48.39361, "longitude": 36.92824, "city": "Dobropillya", "images": []}, {"id": 420917, "min_date": "2019-07-15T00:24:00Z", "max_date": "2019-07-21T23:54:00Z", "count_points": 6, "latitude": 48.24271, "longitude": 36.81482, "city": "Mezhova", "images": []}, {"id": 420918, "min_date": "2019-07-15T00:24:00Z", "max_date": "2019-07-19T10:36:00Z", "count_points": 2, "latitude": 47.78941, "longitude": 36.80434, "city": "Velyka Novosilka", "images": []}, {"id": 420919, "min_date": "2019-07-15T10:12:00Z", "max_date": "2019-07-15T10:12:00Z", "count_points": 1, "latitude": 48.139, "longitude": 36.24187, "city": "Pokrovs\u2019ke", "images": []}, {"id": 420920, "min_date": "2019-07-15T10:12:00Z", "max_date": "2019-07-15T08:11:00Z", "count_points": 8, "latitude": 47.62412, "longitude": 36.8038, "city": "Velyka Novosilka", "images": []}, {"id": 420921, "min_date": "2019-07-15T10:12:00Z", "max_date": "2019-07-20T19:39:00Z", "count_points": 13, "latitude": 47.71336, "longitude": 36.86758, "city": "Velyka Novosilka", "images": []}, {"id": 420922, "min_date": "2019-07-15T10:12:00Z", "max_date": "2019-07-15T09:56:00Z", "count_points": 2, "latitude": 47.79486, "longitude": 35.62047, "city": "Komyshuvakha", "images": []}, {"id": 420923, "min_date": "2019-07-15T10:12:00Z", "max_date": "2019-07-17T09:36:00Z", "count_points": 2, "latitude": 47.81753, "longitude": 37.17087, "city": "Kurakhovo", "images": []}, {"id": 420924, "min_date": "2019-07-15T10:12:00Z", "max_date": "2019-07-20T08:30:00Z", "count_points": 6, "latitude": 48.29591, "longitude": 36.41639, "city": "Petropavlivka", "images": []}, {"id": 420925, "min_date": "2019-07-15T10:12:00Z", "max_date": "2019-07-21T18:44:00Z", "count_points": 28, "latitude": 46.96181, "longitude": 36.11834, "city": "Chernihivka", "images": []}, {"id": 420926, "min_date": "2019-07-15T10:12:00Z", "max_date": "2019-07-15T10:12:00Z", "count_points": 1, "latitude": 47.71099, "longitude": 36.54498, "city": "Hulyaypole", "images": []}, {"id": 420927, "min_date": "2019-07-15T10:12:00Z", "max_date": "2019-07-15T10:12:00Z", "count_points": 1, "latitude": 47.44275, "longitude": 37.06005, "city": "Rozivka", "images": []}, {"id": 420928, "min_date": "2019-07-15T10:12:00Z", "max_date": "2019-07-15T09:56:00Z", "count_points": 10, "latitude": 50.03181, "longitude": 35.12693, "city": "Krasnokuts\u2019k", "images": []}, {"id": 420929, "min_date": "2019-07-15T10:12:00Z", "max_date": "2019-07-15T10:12:00Z", "count_points": 2, "latitude": 47.61808, "longitude": 36.03797, "city": "Zaliznychne", "images": []}, {"id": 420930, "min_date": "2019-07-15T10:12:00Z", "max_date": "2019-07-15T10:12:00Z", "count_points": 2, "latitude": 47.63877, "longitude": 36.06633, "city": "Zaliznychne", "images": []}, {"id": 420931, "min_date": "2019-07-15T10:12:00Z", "max_date": "2019-07-15T10:12:00Z", "count_points": 1, "latitude": 49.82019, "longitude": 35.17629, "city": "Chutove", "images": []}, {"id": 420932, "min_date": "2019-07-15T10:12:00Z", "max_date": "2019-07-15T10:12:00Z", "count_points": 2, "latitude": 47.70755, "longitude": 32.6359, "city": "Novyy Buh", "images": []}, {"id": 420933, "min_date": "2019-07-15T10:12:00Z", "max_date": "2019-07-15T10:12:00Z", "count_points": 1, "latitude": 49.98632, "longitude": 34.54116, "city": "Oposhnya", "images": []}, {"id": 420934, "min_date": "2019-07-15T10:12:00Z", "max_date": "2019-07-15T08:11:00Z", "count_points": 4, "latitude": 49.06428, "longitude": 35.1569, "city": "Zachepylivka", "images": []}, {"id": 420935, "min_date": "2019-07-15T10:12:00Z", "max_date": "2019-07-15T09:56:00Z", "count_points": 6, "latitude": 49.62955, "longitude": 34.24761, "city": "Reshetylivka", "images": []}, {"id": 420936, "min_date": "2019-07-15T10:12:00Z", "max_date": "2019-07-15T10:12:00Z", "count_points": 3, "latitude": 49.20103, "longitude": 34.38139, "city": "Novi Sanzhary", "images": []}, {"id": 420937, "min_date": "2019-07-15T10:12:00Z", "max_date": "2019-07-15T10:12:00Z", "count_points": 1, "latitude": 49.56945, "longitude": 34.39978, "city": "Poltava", "images": []}, {"id": 420938, "min_date": "2019-07-15T10:12:00Z", "max_date": "2019-07-20T10:14:00Z", "count_points": 13, "latitude": 49.27118, "longitude": 35.05606, "city": "Karlivka", "images": []}, {"id": 420939, "min_date": "2019-07-15T10:12:00Z", "max_date": "2019-07-17T09:36:00Z", "count_points": 19, "latitude": 47.89832, "longitude": 29.80098, "city": "Balta", "images": []}, {"id": 420940, "min_date": "2019-07-15T10:12:00Z", "max_date": "2019-07-15T10:12:00Z", "count_points": 2, "latitude": 48.55821, "longitude": 33.2982, "city": "Novyy Starodub", "images": []}, {"id": 420941, "min_date": "2019-07-15T10:12:00Z", "max_date": "2019-07-15T08:11:00Z", "count_points": 5, "latitude": 49.02354, "longitude": 38.72256, "city": "Syevyerodonets\u2019k", "images": []}, {"id": 420942, "min_date": "2019-07-15T10:12:00Z", "max_date": "2019-07-15T09:49:00Z", "count_points": 9, "latitude": 49.69148, "longitude": 35.59863, "city": "Valky", "images": []}, {"id": 420943, "min_date": "2019-07-15T10:12:00Z", "max_date": "2019-07-15T10:12:00Z", "count_points": 1, "latitude": 49.01841, "longitude": 34.13775, "city": "Kobelyaky", "images": []}, {"id": 420944, "min_date": "2019-07-15T10:12:00Z", "max_date": "2019-07-15T10:12:00Z", "count_points": 1, "latitude": 49.71992, "longitude": 33.98841, "city": "Shyshaky", "images": []}, {"id": 420945, "min_date": "2019-07-15T10:12:00Z", "max_date": "2019-07-15T10:12:00Z", "count_points": 1, "latitude": 48.42508, "longitude": 38.46078, "city": "Debal\u2019tseve", "images": []}, {"id": 420946, "min_date": "2019-07-15T10:12:00Z", "max_date": "2019-07-16T09:54:00Z", "count_points": 5, "latitude": 47.67568, "longitude": 33.36581, "city": "Shyroke", "images": []}, {"id": 420947, "min_date": "2019-07-15T10:12:00Z", "max_date": "2019-07-15T10:12:00Z", "count_points": 1, "latitude": 47.09285, "longitude": 35.08244, "city": "Matviyivka", "images": []}, {"id": 420948, "min_date": "2019-07-15T10:12:00Z", "max_date": "2019-07-21T10:56:00Z", "count_points": 14, "latitude": 46.1523, "longitude": 34.48224, "city": "Novooleksiyivka", "images": []}, {"id": 420949, "min_date": "2019-07-15T10:12:00Z", "max_date": "2019-07-18T09:18:00Z", "count_points": 4, "latitude": 47.55339, "longitude": 34.17824, "city": "Chortomlyk", "images": []}, {"id": 420950, "min_date": "2019-07-15T10:12:00Z", "max_date": "2019-07-15T10:12:00Z", "count_points": 2, "latitude": 46.36524, "longitude": 30.51633, "city": "Oleksandrivka", "images": []}, {"id": 420951, "min_date": "2019-07-15T10:12:00Z", "max_date": "2019-07-15T08:12:00Z", "count_points": 11, "latitude": 47.3279, "longitude": 33.09581, "city": "Velyka Oleksandrivka", "images": []}, {"id": 420952, "min_date": "2019-07-15T10:12:00Z", "max_date": "2019-07-17T11:21:00Z", "count_points": 8, "latitude": 46.64583, "longitude": 31.74895, "city": "Parutyne", "images": []}, {"id": 420953, "min_date": "2019-07-15T10:12:00Z", "max_date": "2019-07-15T10:12:00Z", "count_points": 1, "latitude": 47.19992, "longitude": 32.74068, "city": "Snihurivka", "images": []}, {"id": 420954, "min_date": "2019-07-15T10:12:00Z", "max_date": "2019-07-15T10:12:00Z", "count_points": 1, "latitude": 47.86825, "longitude": 32.23944, "city": "Bobrynets", "images": []}, {"id": 420955, "min_date": "2019-07-15T10:12:00Z", "max_date": "2019-07-20T08:30:00Z", "count_points": 3, "latitude": 47.72542, "longitude": 32.8615, "city": "Kazanka", "images": []}, {"id": 420956, "min_date": "2019-07-15T10:12:00Z", "max_date": "2019-07-15T10:12:00Z", "count_points": 2, "latitude": 49.50969, "longitude": 33.14702, "city": "Semenivka", "images": []}, {"id": 420957, "min_date": "2019-07-15T10:12:00Z", "max_date": "2019-07-15T10:12:00Z", "count_points": 1, "latitude": 48.5829, "longitude": 29.84195, "city": "Teplyk", "images": []}, {"id": 420958, "min_date": "2019-07-15T10:12:00Z", "max_date": "2019-07-15T08:11:00Z", "count_points": 11, "latitude": 49.19744, "longitude": 37.6959, "city": "Svyatogorsk", "images": []}, {"id": 420959, "min_date": "2019-07-15T10:12:00Z", "max_date": "2019-07-15T10:12:00Z", "count_points": 3, "latitude": 48.63137, "longitude": 37.49461, "city": "Druzhkivka", "images": []}, {"id": 420960, "min_date": "2019-07-15T10:12:00Z", "max_date": "2019-07-15T10:12:00Z", "count_points": 1, "latitude": 47.68364, "longitude": 36.31979, "city": "Hulyaypole", "images": []}, {"id": 420961, "min_date": "2019-07-15T10:12:00Z", "max_date": "2019-07-15T10:12:00Z", "count_points": 1, "latitude": 47.73363, "longitude": 36.29843, "city": "Hulyaypole", "images": []}, {"id": 420962, "min_date": "2019-07-15T10:12:00Z", "max_date": "2019-07-15T10:12:00Z", "count_points": 1, "latitude": 48.99965, "longitude": 33.84058, "city": "Horishni Plavni", "images": []}, {"id": 420963, "min_date": "2019-07-15T10:12:00Z", "max_date": "2019-07-15T10:12:00Z", "count_points": 1, "latitude": 47.89364, "longitude": 33.07917, "city": "Kazanka", "images": []}, {"id": 420964, "min_date": "2019-07-15T10:12:00Z", "max_date": "2019-07-15T10:12:00Z", "count_points": 1, "latitude": 49.39532, "longitude": 38.2994, "city": "Svatove", "images": []}, {"id": 420965, "min_date": "2019-07-15T10:12:00Z", "max_date": "2019-07-15T10:12:00Z", "count_points": 2, "latitude": 49.93251, "longitude": 35.23712, "city": "Kolomak", "images": []}, {"id": 420966, "min_date": "2019-07-15T10:12:00Z", "max_date": "2019-07-15T10:12:00Z", "count_points": 1, "latitude": 50.34228, "longitude": 35.30553, "city": "Kyrykivka", "images": []}, {"id": 420967, "min_date": "2019-07-15T10:12:00Z", "max_date": "2019-07-15T10:12:00Z", "count_points": 1, "latitude": 49.67515, "longitude": 35.20493, "city": "Chutove", "images": []}, {"id": 420968, "min_date": "2019-07-15T10:12:00Z", "max_date": "2019-07-21T09:12:00Z", "count_points": 2, "latitude": 50.37064, "longitude": 34.23595, "city": "Zin\u2019kiv", "images": []}, {"id": 420969, "min_date": "2019-07-15T10:12:00Z", "max_date": "2019-07-15T10:12:00Z", "count_points": 2, "latitude": 46.34257, "longitude": 29.36131, "city": "Borodino", "images": []}, {"id": 420970, "min_date": "2019-07-15T10:12:00Z", "max_date": "2019-07-15T09:55:00Z", "count_points": 5, "latitude": 47.0837, "longitude": 36.32686, "city": "Chernihivka", "images": []}, {"id": 420971, "min_date": "2019-07-15T10:12:00Z", "max_date": "2019-07-19T11:09:00Z", "count_points": 26, "latitude": 47.22581, "longitude": 35.80622, "city": "Tokmak", "images": []}, {"id": 420972, "min_date": "2019-07-15T10:12:00Z", "max_date": "2019-07-21T09:14:00Z", "count_points": 6, "latitude": 45.66093, "longitude": 29.76891, "city": "Tatarbunary", "images": []}, {"id": 420973, "min_date": "2019-07-15T10:12:00Z", "max_date": "2019-07-16T08:55:00Z", "count_points": 3, "latitude": 47.03001, "longitude": 33.00789, "city": "Snihurivka", "images": []}, {"id": 420974, "min_date": "2019-07-15T10:12:00Z", "max_date": "2019-07-15T10:12:00Z", "count_points": 2, "latitude": 47.94769, "longitude": 29.93192, "city": "Ananyiv Pershyi", "images": []}, {"id": 420975, "min_date": "2019-07-15T10:12:00Z", "max_date": "2019-07-21T10:00:00Z", "count_points": 3, "latitude": 47.04339, "longitude": 32.56353, "city": "Snihurivka", "images": []}, {"id": 420976, "min_date": "2019-07-15T10:12:00Z", "max_date": "2019-07-15T10:12:00Z", "count_points": 6, "latitude": 48.39755, "longitude": 32.85187, "city": "Nova Praha", "images": []}, {"id": 420977, "min_date": "2019-07-15T10:12:00Z", "max_date": "2019-07-15T09:49:00Z", "count_points": 5, "latitude": 48.13513, "longitude": 33.28044, "city": "Lozuvatka", "images": []}, {"id": 420978, "min_date": "2019-07-15T10:12:00Z", "max_date": "2019-07-15T10:12:00Z", "count_points": 1, "latitude": 48.04723, "longitude": 32.77573, "city": "Dolynska", "images": []}, {"id": 420979, "min_date": "2019-07-15T10:12:00Z", "max_date": "2019-07-15T10:12:00Z", "count_points": 1, "latitude": 47.38705, "longitude": 36.05434, "city": "Chernihivka", "images": []}, {"id": 420980, "min_date": "2019-07-15T10:12:00Z", "max_date": "2019-07-15T10:12:00Z", "count_points": 1, "latitude": 47.4075, "longitude": 36.03003, "city": "Mala Tokmachka", "images": []}, {"id": 420981, "min_date": "2019-07-15T10:12:00Z", "max_date": "2019-07-15T10:12:00Z", "count_points": 1, "latitude": 48.28782, "longitude": 33.27171, "city": "Petrove", "images": []}, {"id": 420982, "min_date": "2019-07-15T10:12:00Z", "max_date": "2019-07-15T11:54:00Z", "count_points": 3, "latitude": 45.67622, "longitude": 29.2495, "city": "Shevchenkove", "images": []}, {"id": 420983, "min_date": "2019-07-15T10:12:00Z", "max_date": "2019-07-15T10:12:00Z", "count_points": 2, "latitude": 47.93237, "longitude": 32.79545, "city": "Kazanka", "images": []}, {"id": 420984, "min_date": "2019-07-15T10:12:00Z", "max_date": "2019-07-15T10:12:00Z", "count_points": 1, "latitude": 46.55724, "longitude": 35.06949, "city": "Yakymivka", "images": []}, {"id": 420985, "min_date": "2019-07-15T10:12:00Z", "max_date": "2019-07-15T10:12:00Z", "count_points": 3, "latitude": 47.94756, "longitude": 32.83832, "city": "Kazanka", "images": []}, {"id": 420986, "min_date": "2019-07-15T10:12:00Z", "max_date": "2019-07-16T09:54:00Z", "count_points": 2, "latitude": 45.35427, "longitude": 28.57031, "city": "Ozerne", "images": []}, {"id": 420987, "min_date": "2019-07-15T10:12:00Z", "max_date": "2019-07-15T10:12:00Z", "count_points": 2, "latitude": 48.50199, "longitude": 30.41552, "city": "Perehonivka", "images": []}, {"id": 420988, "min_date": "2019-07-15T10:12:00Z", "max_date": "2019-07-15T10:12:00Z", "count_points": 1, "latitude": 48.4911, "longitude": 33.45615, "city": "Zhovti Vody", "images": []}, {"id": 420989, "min_date": "2019-07-15T10:12:00Z", "max_date": "2019-07-15T10:12:00Z", "count_points": 1, "latitude": 48.21865, "longitude": 34.40018, "city": "Krynychky", "images": []}, {"id": 420990, "min_date": "2019-07-15T10:12:00Z", "max_date": "2019-07-15T10:12:00Z", "count_points": 1, "latitude": 48.46934, "longitude": 34.337, "city": "Novomykolayivka", "images": []}, {"id": 420991, "min_date": "2019-07-15T10:12:00Z", "max_date": "2019-07-15T10:12:00Z", "count_points": 2, "latitude": 45.66702, "longitude": 28.62088, "city": "Bolhrad", "images": []}, {"id": 420992, "min_date": "2019-07-15T10:12:00Z", "max_date": "2019-07-15T10:12:00Z", "count_points": 1, "latitude": 48.37818, "longitude": 34.57032, "city": "Krynychky", "images": []}, {"id": 420993, "min_date": "2019-07-15T10:12:00Z", "max_date": "2019-07-21T23:54:00Z", "count_points": 17, "latitude": 46.64668, "longitude": 34.56172, "city": "Ivanivka", "images": []}, {"id": 420994, "min_date": "2019-07-15T10:12:00Z", "max_date": "2019-07-15T10:12:00Z", "count_points": 1, "latitude": 48.94358, "longitude": 34.53054, "city": "Tsarychanka", "images": []}, {"id": 420995, "min_date": "2019-07-15T10:12:00Z", "max_date": "2019-07-17T19:08:00Z", "count_points": 33, "latitude": 46.23382, "longitude": 34.57243, "city": "Novooleksiyivka", "images": []}, {"id": 420996, "min_date": "2019-07-15T10:12:00Z", "max_date": "2019-07-20T23:48:00Z", "count_points": 12, "latitude": 46.62626, "longitude": 35.05177, "city": "Yakymivka", "images": []}, {"id": 420997, "min_date": "2019-07-15T10:12:00Z", "max_date": "2019-07-16T10:39:00Z", "count_points": 11, "latitude": 48.51024, "longitude": 33.77122, "city": "Piatykhatky", "images": []}, {"id": 420998, "min_date": "2019-07-15T10:12:00Z", "max_date": "2019-07-15T10:12:00Z", "count_points": 1, "latitude": 50.22858, "longitude": 34.48154, "city": "Zin\u2019kiv", "images": []}, {"id": 420999, "min_date": "2019-07-15T10:12:00Z", "max_date": "2019-07-15T10:12:00Z", "count_points": 1, "latitude": 47.18377, "longitude": 32.79558, "city": "Snihurivka", "images": []}, {"id": 421000, "min_date": "2019-07-15T10:12:00Z", "max_date": "2019-07-19T09:25:00Z", "count_points": 5, "latitude": 47.23032, "longitude": 32.40658, "city": "Bashtanka", "images": []}, {"id": 421001, "min_date": "2019-07-15T10:12:00Z", "max_date": "2019-07-20T10:08:00Z", "count_points": 22, "latitude": 46.97004, "longitude": 29.60164, "city": "Velykoploske", "images": []}, {"id": 421002, "min_date": "2019-07-15T10:12:00Z", "max_date": "2019-07-16T10:38:00Z", "count_points": 10, "latitude": 47.36418, "longitude": 32.79145, "city": "Bereznehuvate", "images": []}, {"id": 421003, "min_date": "2019-07-15T10:12:00Z", "max_date": "2019-07-15T10:12:00Z", "count_points": 2, "latitude": 48.05712, "longitude": 33.77698, "city": "Sofiyivka", "images": []}, {"id": 421004, "min_date": "2019-07-15T10:12:00Z", "max_date": "2019-07-15T10:12:00Z", "count_points": 6, "latitude": 47.68838, "longitude": 33.85484, "city": "Apostolove", "images": []}, {"id": 421005, "min_date": "2019-07-15T10:12:00Z", "max_date": "2019-07-15T10:12:00Z", "count_points": 1, "latitude": 47.56593, "longitude": 33.89256, "city": "Novovorontsovka", "images": []}, {"id": 421006, "min_date": "2019-07-15T10:12:00Z", "max_date": "2019-07-18T10:54:00Z", "count_points": 10, "latitude": 47.38482, "longitude": 33.87189, "city": "Novovorontsovka", "images": []}, {"id": 421007, "min_date": "2019-07-15T10:12:00Z", "max_date": "2019-07-15T10:12:00Z", "count_points": 1, "latitude": 47.52297, "longitude": 33.7667, "city": "Apostolove", "images": []}, {"id": 421008, "min_date": "2019-07-15T10:12:00Z", "max_date": "2019-07-21T09:13:00Z", "count_points": 16, "latitude": 47.11447, "longitude": 35.56912, "city": "Tokmak", "images": []}, {"id": 421009, "min_date": "2019-07-15T10:12:00Z", "max_date": "2019-07-21T10:00:00Z", "count_points": 5, "latitude": 46.33929, "longitude": 33.74861, "city": "Askaniya-Nova", "images": []}, {"id": 421010, "min_date": "2019-07-15T10:12:00Z", "max_date": "2019-07-15T10:12:00Z", "count_points": 1, "latitude": 48.30441, "longitude": 34.00819, "city": "Vyshneve", "images": []}, {"id": 421011, "min_date": "2019-07-15T11:54:00Z", "max_date": "2019-07-15T11:54:00Z", "count_points": 1, "latitude": 48.23427, "longitude": 30.30651, "city": "Blahovishchens\u2019ke", "images": []}, {"id": 421012, "min_date": "2019-07-15T11:54:00Z", "max_date": "2019-07-19T09:25:00Z", "count_points": 18, "latitude": 47.92325, "longitude": 29.89067, "city": "Ananyiv Pershyi", "images": []}, {"id": 421013, "min_date": "2019-07-15T11:54:00Z", "max_date": "2019-07-15T11:54:00Z", "count_points": 3, "latitude": 46.97889, "longitude": 30.08742, "city": "Rozdil\u2019na", "images": []}, {"id": 421014, "min_date": "2019-07-15T11:54:00Z", "max_date": "2019-07-15T11:33:00Z", "count_points": 4, "latitude": 46.82633, "longitude": 29.99034, "city": "Stepanivka", "images": []}, {"id": 421015, "min_date": "2019-07-15T11:54:00Z", "max_date": "2019-07-15T11:33:00Z", "count_points": 11, "latitude": 46.89638, "longitude": 30.31655, "city": "Ivanivka", "images": []}, {"id": 421016, "min_date": "2019-07-15T11:54:00Z", "max_date": "2019-07-17T11:18:00Z", "count_points": 4, "latitude": 48.49151, "longitude": 22.43929, "city": "Serednye", "images": []}, {"id": 421017, "min_date": "2019-07-15T11:54:00Z", "max_date": "2019-07-15T11:54:00Z", "count_points": 1, "latitude": 49.99559, "longitude": 26.62414, "city": "Lyakhovtsy", "images": []}, {"id": 421018, "min_date": "2019-07-15T11:54:00Z", "max_date": "2019-07-15T11:54:00Z", "count_points": 2, "latitude": 47.60194, "longitude": 29.96893, "city": "Ananyiv Pershyi", "images": []}, {"id": 421019, "min_date": "2019-07-15T22:24:00Z", "max_date": "2019-07-20T19:39:00Z", "count_points": 5, "latitude": 46.76385, "longitude": 34.8132, "city": "Vesele", "images": []}, {"id": 421020, "min_date": "2019-07-16T00:06:00Z", "max_date": "2019-07-16T09:54:00Z", "count_points": 10, "latitude": 47.6194, "longitude": 33.90598, "city": "Novovorontsovka", "images": []}, {"id": 421021, "min_date": "2019-07-16T00:06:00Z", "max_date": "2019-07-16T00:06:00Z", "count_points": 1, "latitude": 47.56625, "longitude": 33.80489, "city": "Novovorontsovka", "images": []}, {"id": 421022, "min_date": "2019-07-16T00:06:00Z", "max_date": "2019-07-16T09:54:00Z", "count_points": 2, "latitude": 47.71903, "longitude": 33.62374, "city": "Apostolove", "images": []}, {"id": 421023, "min_date": "2019-07-16T00:06:00Z", "max_date": "2019-07-16T00:06:00Z", "count_points": 3, "latitude": 48.03169, "longitude": 34.1051, "city": "Sofiyivka", "images": []}, {"id": 421024, "min_date": "2019-07-16T00:06:00Z", "max_date": "2019-07-16T00:06:00Z", "count_points": 1, "latitude": 47.51093, "longitude": 33.88278, "city": "Novovorontsovka", "images": []}, {"id": 421025, "min_date": "2019-07-16T00:06:00Z", "max_date": "2019-07-16T00:06:00Z", "count_points": 1, "latitude": 47.61701, "longitude": 33.75992, "city": "Apostolove", "images": []}, {"id": 421026, "min_date": "2019-07-16T00:06:00Z", "max_date": "2019-07-16T00:06:00Z", "count_points": 4, "latitude": 49.33272, "longitude": 33.91468, "city": "Lutovynivka", "images": []}, {"id": 421027, "min_date": "2019-07-16T00:06:00Z", "max_date": "2019-07-19T18:57:00Z", "count_points": 11, "latitude": 49.7945, "longitude": 36.96769, "city": "Pechenihy", "images": []}, {"id": 421028, "min_date": "2019-07-16T00:06:00Z", "max_date": "2019-07-16T00:06:00Z", "count_points": 2, "latitude": 48.78363, "longitude": 26.41704, "city": "Smotrych", "images": []}, {"id": 421029, "min_date": "2019-07-16T09:54:00Z", "max_date": "2019-07-16T08:55:00Z", "count_points": 20, "latitude": 47.8629, "longitude": 30.16836, "city": "Lyubashivka", "images": []}, {"id": 421030, "min_date": "2019-07-16T09:54:00Z", "max_date": "2019-07-21T00:12:00Z", "count_points": 2, "latitude": 48.05856, "longitude": 29.68097, "city": "Peschana", "images": []}, {"id": 421031, "min_date": "2019-07-16T09:54:00Z", "max_date": "2019-07-21T10:56:00Z", "count_points": 34, "latitude": 46.6818, "longitude": 34.38327, "city": "Nyzhni Sirohozy", "images": []}, {"id": 421032, "min_date": "2019-07-16T09:54:00Z", "max_date": "2019-07-16T09:54:00Z", "count_points": 1, "latitude": 47.95485, "longitude": 32.92308, "city": "Kazanka", "images": []}, {"id": 421033, "min_date": "2019-07-16T09:54:00Z", "max_date": "2019-07-16T09:54:00Z", "count_points": 2, "latitude": 47.73183, "longitude": 33.15911, "city": "Shyroke", "images": []}, {"id": 421034, "min_date": "2019-07-16T09:54:00Z", "max_date": "2019-07-16T10:38:00Z", "count_points": 4, "latitude": 48.21561, "longitude": 34.34649, "city": "Krynychky", "images": []}, {"id": 421035, "min_date": "2019-07-16T09:54:00Z", "max_date": "2019-07-16T10:39:00Z", "count_points": 8, "latitude": 48.48255, "longitude": 33.7254, "city": "Piatykhatky", "images": []}, {"id": 421036, "min_date": "2019-07-16T09:54:00Z", "max_date": "2019-07-18T10:54:00Z", "count_points": 2, "latitude": 46.7109, "longitude": 35.09651, "city": "Yakymivka", "images": []}, {"id": 421037, "min_date": "2019-07-16T09:54:00Z", "max_date": "2019-07-15T08:12:00Z", "count_points": 13, "latitude": 47.17576, "longitude": 34.72795, "city": "Velyka Bilozerka", "images": []}, {"id": 421038, "min_date": "2019-07-16T09:54:00Z", "max_date": "2019-07-16T09:54:00Z", "count_points": 1, "latitude": 45.96443, "longitude": 28.92549, "city": "Dmytrivka", "images": []}, {"id": 421039, "min_date": "2019-07-16T09:54:00Z", "max_date": "2019-07-16T09:54:00Z", "count_points": 2, "latitude": 48.9145, "longitude": 30.11233, "city": "Verkhnyachka", "images": []}, {"id": 421040, "min_date": "2019-07-16T09:54:00Z", "max_date": "2019-07-16T09:54:00Z", "count_points": 1, "latitude": 48.84391, "longitude": 31.72859, "city": "Kapitanivka", "images": []}, {"id": 421041, "min_date": "2019-07-16T09:54:00Z", "max_date": "2019-07-16T09:54:00Z", "count_points": 1, "latitude": 49.68202, "longitude": 31.86919, "city": "Zolotonosha", "images": []}, {"id": 421042, "min_date": "2019-07-16T09:54:00Z", "max_date": "2019-07-19T10:36:00Z", "count_points": 3, "latitude": 46.2342, "longitude": 32.98778, "city": "Vynohradove", "images": []}, {"id": 421043, "min_date": "2019-07-16T09:54:00Z", "max_date": "2019-07-18T10:54:00Z", "count_points": 5, "latitude": 46.99997, "longitude": 32.5271, "city": "Snihurivka", "images": []}, {"id": 421044, "min_date": "2019-07-16T09:54:00Z", "max_date": "2019-07-19T11:09:00Z", "count_points": 2, "latitude": 47.5605, "longitude": 33.09673, "city": "Shyroke", "images": []}, {"id": 421045, "min_date": "2019-07-16T09:54:00Z", "max_date": "2019-07-19T09:25:00Z", "count_points": 2, "latitude": 47.78885, "longitude": 30.70795, "city": "Vradiyivka", "images": []}, {"id": 421046, "min_date": "2019-07-16T09:54:00Z", "max_date": "2019-07-18T10:26:00Z", "count_points": 11, "latitude": 47.575, "longitude": 30.09966, "city": "Ananyiv Pershyi", "images": []}, {"id": 421047, "min_date": "2019-07-16T09:54:00Z", "max_date": "2019-07-19T18:56:00Z", "count_points": 3, "latitude": 46.9708, "longitude": 33.05318, "city": "Snihurivka", "images": []}, {"id": 421048, "min_date": "2019-07-16T09:54:00Z", "max_date": "2019-07-16T09:54:00Z", "count_points": 1, "latitude": 47.48702, "longitude": 29.34083, "city": "Okny", "images": []}, {"id": 421049, "min_date": "2019-07-16T09:54:00Z", "max_date": "2019-07-16T09:54:00Z", "count_points": 1, "latitude": 47.54272, "longitude": 29.67391, "city": "Okny", "images": []}, {"id": 421050, "min_date": "2019-07-16T09:54:00Z", "max_date": "2019-07-18T10:54:00Z", "count_points": 2, "latitude": 47.78333, "longitude": 29.781, "city": "Ananyiv Pershyi", "images": []}, {"id": 421051, "min_date": "2019-07-16T09:54:00Z", "max_date": "2019-07-16T10:38:00Z", "count_points": 14, "latitude": 47.3794, "longitude": 30.75302, "city": "Mykolayivka", "images": []}, {"id": 421052, "min_date": "2019-07-16T09:54:00Z", "max_date": "2019-07-16T11:36:00Z", "count_points": 2, "latitude": 48.08234, "longitude": 30.52745, "city": "Pobugskoye", "images": []}, {"id": 421053, "min_date": "2019-07-16T09:54:00Z", "max_date": "2019-07-16T09:54:00Z", "count_points": 1, "latitude": 47.60734, "longitude": 29.7234, "city": "Podil\u2019s\u2019k", "images": []}, {"id": 421054, "min_date": "2019-07-16T09:54:00Z", "max_date": "2019-07-19T09:25:00Z", "count_points": 3, "latitude": 47.32979, "longitude": 31.38069, "city": "Veselynove", "images": []}, {"id": 421055, "min_date": "2019-07-16T09:54:00Z", "max_date": "2019-07-16T09:54:00Z", "count_points": 1, "latitude": 46.37579, "longitude": 29.27496, "city": "Borodino", "images": []}, {"id": 421056, "min_date": "2019-07-16T09:54:00Z", "max_date": "2019-07-16T08:54:00Z", "count_points": 2, "latitude": 47.63746, "longitude": 33.33199, "city": "Shyroke", "images": []}, {"id": 421057, "min_date": "2019-07-16T09:54:00Z", "max_date": "2019-07-18T08:42:00Z", "count_points": 45, "latitude": 48.14407, "longitude": 34.34487, "city": "Novopokrovka", "images": []}, {"id": 421058, "min_date": "2019-07-16T09:54:00Z", "max_date": "2019-07-16T08:55:00Z", "count_points": 4, "latitude": 47.08639, "longitude": 34.31441, "city": "Verkhniy Rohachyk", "images": []}, {"id": 421059, "min_date": "2019-07-16T09:54:00Z", "max_date": "2019-07-20T19:39:00Z", "count_points": 20, "latitude": 47.04277, "longitude": 34.30526, "city": "Verkhniy Rohachyk", "images": []}, {"id": 421060, "min_date": "2019-07-16T09:54:00Z", "max_date": "2019-07-16T09:54:00Z", "count_points": 3, "latitude": 46.11745, "longitude": 33.32921, "city": "Kalanchak", "images": []}, {"id": 421061, "min_date": "2019-07-16T09:54:00Z", "max_date": "2019-07-16T09:54:00Z", "count_points": 1, "latitude": 47.76861, "longitude": 34.41679, "city": "Chervonohryhorivka", "images": []}, {"id": 421062, "min_date": "2019-07-16T09:54:00Z", "max_date": "2019-07-20T08:30:00Z", "count_points": 8, "latitude": 47.23573, "longitude": 34.3991, "city": "Verkhniy Rohachyk", "images": []}, {"id": 421063, "min_date": "2019-07-16T09:54:00Z", "max_date": "2019-07-16T09:54:00Z", "count_points": 1, "latitude": 48.41717, "longitude": 33.30763, "city": "Petrove", "images": []}, {"id": 421064, "min_date": "2019-07-16T09:54:00Z", "max_date": "2019-07-16T10:38:00Z", "count_points": 15, "latitude": 47.97301, "longitude": 34.27341, "city": "Novopokrovka", "images": []}, {"id": 421065, "min_date": "2019-07-16T09:54:00Z", "max_date": "2019-07-16T10:38:00Z", "count_points": 2, "latitude": 48.0059, "longitude": 34.29539, "city": "Novopokrovka", "images": []}, {"id": 421066, "min_date": "2019-07-16T09:54:00Z", "max_date": "2019-07-16T09:54:00Z", "count_points": 1, "latitude": 46.53406, "longitude": 34.51434, "city": "Ivanivka", "images": []}, {"id": 421067, "min_date": "2019-07-16T09:54:00Z", "max_date": "2019-07-19T11:09:00Z", "count_points": 21, "latitude": 47.2646, "longitude": 34.75892, "city": "Velyka Bilozerka", "images": []}, {"id": 421068, "min_date": "2019-07-16T09:54:00Z", "max_date": "2019-07-19T10:36:00Z", "count_points": 5, "latitude": 45.78276, "longitude": 28.78446, "city": "Kalcheva", "images": []}, {"id": 421069, "min_date": "2019-07-16T09:54:00Z", "max_date": "2019-07-17T11:12:00Z", "count_points": 2, "latitude": 46.15573, "longitude": 30.33488, "city": "Bilhorod-Dnistrovskyi", "images": []}, {"id": 421070, "min_date": "2019-07-16T09:54:00Z", "max_date": "2019-07-19T10:36:00Z", "count_points": 2, "latitude": 46.88409, "longitude": 32.47264, "city": "Chornobayivka", "images": []}, {"id": 421071, "min_date": "2019-07-16T09:54:00Z", "max_date": "2019-07-16T10:39:00Z", "count_points": 3, "latitude": 47.97353, "longitude": 29.0309, "city": "Kodyma", "images": []}, {"id": 421072, "min_date": "2019-07-16T09:54:00Z", "max_date": "2019-07-21T00:12:00Z", "count_points": 11, "latitude": 46.89167, "longitude": 34.17592, "city": "Nyzhni Sirohozy", "images": []}, {"id": 421073, "min_date": "2019-07-16T09:54:00Z", "max_date": "2019-07-17T09:37:00Z", "count_points": 3, "latitude": 47.85633, "longitude": 30.71644, "city": "Vradiyivka", "images": []}, {"id": 421074, "min_date": "2019-07-16T09:54:00Z", "max_date": "2019-07-16T09:54:00Z", "count_points": 1, "latitude": 47.74548, "longitude": 30.31622, "city": "Lyubashivka", "images": []}, {"id": 421075, "min_date": "2019-07-16T09:54:00Z", "max_date": "2019-07-16T08:55:00Z", "count_points": 7, "latitude": 47.26247, "longitude": 33.57024, "city": "Dudchany", "images": []}, {"id": 421076, "min_date": "2019-07-16T09:54:00Z", "max_date": "2019-07-16T09:54:00Z", "count_points": 1, "latitude": 47.62796, "longitude": 33.45417, "city": "Vysokopillya", "images": []}, {"id": 421077, "min_date": "2019-07-16T09:54:00Z", "max_date": "2019-07-16T09:54:00Z", "count_points": 2, "latitude": 47.76286, "longitude": 33.42011, "city": "Kryvyi Rih", "images": []}, {"id": 421078, "min_date": "2019-07-16T09:54:00Z", "max_date": "2019-07-16T09:54:00Z", "count_points": 2, "latitude": 48.17384, "longitude": 34.08853, "city": "Sofiyivka", "images": []}, {"id": 421079, "min_date": "2019-07-16T09:54:00Z", "max_date": "2019-07-16T10:38:00Z", "count_points": 3, "latitude": 47.87807, "longitude": 33.68274, "city": "Apostolove", "images": []}, {"id": 421080, "min_date": "2019-07-16T09:54:00Z", "max_date": "2019-07-21T09:13:00Z", "count_points": 3, "latitude": 47.42652, "longitude": 33.51761, "city": "Vysokopillya", "images": []}, {"id": 421081, "min_date": "2019-07-16T09:54:00Z", "max_date": "2019-07-19T00:48:00Z", "count_points": 5, "latitude": 47.5112, "longitude": 33.57636, "city": "Vysokopillya", "images": []}, {"id": 421082, "min_date": "2019-07-16T09:54:00Z", "max_date": "2019-07-16T09:54:00Z", "count_points": 1, "latitude": 47.48021, "longitude": 33.77537, "city": "Novovorontsovka", "images": []}, {"id": 421083, "min_date": "2019-07-16T09:54:00Z", "max_date": "2019-07-18T08:42:00Z", "count_points": 3, "latitude": 47.52222, "longitude": 33.81264, "city": "Novovorontsovka", "images": []}, {"id": 421084, "min_date": "2019-07-16T09:54:00Z", "max_date": "2019-07-21T20:22:00Z", "count_points": 10, "latitude": 47.28866, "longitude": 33.62099, "city": "Dudchany", "images": []}, {"id": 421085, "min_date": "2019-07-16T09:54:00Z", "max_date": "2019-07-16T09:54:00Z", "count_points": 1, "latitude": 47.20387, "longitude": 29.82272, "city": "Kuchurhan", "images": []}, {"id": 421086, "min_date": "2019-07-16T09:54:00Z", "max_date": "2019-07-16T08:55:00Z", "count_points": 2, "latitude": 47.23853, "longitude": 32.52688, "city": "Bashtanka", "images": []}, {"id": 421087, "min_date": "2019-07-16T09:54:00Z", "max_date": "2019-07-16T09:54:00Z", "count_points": 1, "latitude": 47.27164, "longitude": 32.56679, "city": "Bashtanka", "images": []}, {"id": 421088, "min_date": "2019-07-16T09:54:00Z", "max_date": "2019-07-16T09:54:00Z", "count_points": 2, "latitude": 45.95019, "longitude": 30.09323, "city": "Kulevcha", "images": []}, {"id": 421089, "min_date": "2019-07-16T09:54:00Z", "max_date": "2019-07-16T09:54:00Z", "count_points": 4, "latitude": 47.4932, "longitude": 30.95238, "city": "Domanivka", "images": []}, {"id": 421090, "min_date": "2019-07-16T09:54:00Z", "max_date": "2019-07-16T09:54:00Z", "count_points": 1, "latitude": 47.31101, "longitude": 29.8368, "city": "Zatyshshya", "images": []}, {"id": 421091, "min_date": "2019-07-16T09:54:00Z", "max_date": "2019-07-21T09:13:00Z", "count_points": 8, "latitude": 47.58547, "longitude": 29.91741, "city": "Ananyiv Pershyi", "images": []}, {"id": 421092, "min_date": "2019-07-16T09:54:00Z", "max_date": "2019-07-16T09:54:00Z", "count_points": 4, "latitude": 47.42226, "longitude": 29.97152, "city": "Zatyshshya", "images": []}, {"id": 421093, "min_date": "2019-07-16T09:54:00Z", "max_date": "2019-07-16T09:54:00Z", "count_points": 1, "latitude": 50.34332, "longitude": 34.18125, "city": "Hadyach", "images": []}, {"id": 421094, "min_date": "2019-07-16T09:54:00Z", "max_date": "2019-07-16T09:54:00Z", "count_points": 3, "latitude": 47.04786, "longitude": 30.15124, "city": "Rozdil\u2019na", "images": []}, {"id": 421095, "min_date": "2019-07-16T09:54:00Z", "max_date": "2019-07-16T09:54:00Z", "count_points": 3, "latitude": 47.16065, "longitude": 30.34878, "city": "Ivanivka", "images": []}, {"id": 421096, "min_date": "2019-07-16T09:54:00Z", "max_date": "2019-07-21T18:44:00Z", "count_points": 68, "latitude": 47.39195, "longitude": 35.28828, "city": "Mykhaylivka", "images": []}, {"id": 421097, "min_date": "2019-07-16T09:54:00Z", "max_date": "2019-07-16T09:54:00Z", "count_points": 6, "latitude": 49.91526, "longitude": 36.03516, "city": "Korotych", "images": []}, {"id": 421098, "min_date": "2019-07-16T09:54:00Z", "max_date": "2019-07-16T09:54:00Z", "count_points": 1, "latitude": 47.18943, "longitude": 29.97086, "city": "Velyka Mykhaylivka", "images": []}, {"id": 421099, "min_date": "2019-07-16T09:54:00Z", "max_date": "2019-07-16T09:54:00Z", "count_points": 1, "latitude": 47.89523, "longitude": 32.89306, "city": "Kazanka", "images": []}, {"id": 421100, "min_date": "2019-07-16T09:54:00Z", "max_date": "2019-07-16T10:38:00Z", "count_points": 3, "latitude": 47.88306, "longitude": 32.84197, "city": "Kazanka", "images": []}, {"id": 421101, "min_date": "2019-07-16T09:54:00Z", "max_date": "2019-07-16T09:54:00Z", "count_points": 1, "latitude": 47.396, "longitude": 29.44626, "city": "Okny", "images": []}, {"id": 421102, "min_date": "2019-07-16T11:30:00Z", "max_date": "2019-07-16T11:30:00Z", "count_points": 2, "latitude": 45.70209, "longitude": 34.48608, "city": "Zarechnoye", "images": []}, {"id": 421103, "min_date": "2019-07-16T11:30:00Z", "max_date": "2019-07-16T11:30:00Z", "count_points": 2, "latitude": 45.60873, "longitude": 34.53719, "city": "Mayskoye", "images": []}, {"id": 421104, "min_date": "2019-07-16T11:36:00Z", "max_date": "2019-07-15T08:12:00Z", "count_points": 11, "latitude": 46.35158, "longitude": 34.17645, "city": "Novotroyits\u2019ke", "images": []}, {"id": 421105, "min_date": "2019-07-16T11:36:00Z", "max_date": "2019-07-20T10:18:00Z", "count_points": 2, "latitude": 46.49305, "longitude": 34.88194, "city": "Partyzany", "images": []}, {"id": 421106, "min_date": "2019-07-16T11:36:00Z", "max_date": "2019-07-21T23:54:00Z", "count_points": 9, "latitude": 46.03301, "longitude": 34.5628, "city": "Medvedevka", "images": []}, {"id": 421107, "min_date": "2019-07-16T11:36:00Z", "max_date": "2019-07-21T20:22:00Z", "count_points": 25, "latitude": 46.53508, "longitude": 34.7629, "city": "Partyzany", "images": []}, {"id": 421108, "min_date": "2019-07-16T11:36:00Z", "max_date": "2019-07-16T11:36:00Z", "count_points": 2, "latitude": 47.92584, "longitude": 30.20088, "city": "Lyubashivka", "images": []}, {"id": 421109, "min_date": "2019-07-16T11:36:00Z", "max_date": "2019-07-16T11:36:00Z", "count_points": 5, "latitude": 46.6302, "longitude": 34.14628, "city": "Nyzhni Sirohozy", "images": []}, {"id": 421110, "min_date": "2019-07-16T11:36:00Z", "max_date": "2019-07-16T11:36:00Z", "count_points": 2, "latitude": 49.38293, "longitude": 24.89153, "city": "\u0411\u0435\u0440\u0435\u0436\u0430\u043d\u0438", "images": []}, {"id": 421111, "min_date": "2019-07-16T11:36:00Z", "max_date": "2019-07-16T11:36:00Z", "count_points": 1, "latitude": 48.46836, "longitude": 33.64675, "city": "Piatykhatky", "images": []}, {"id": 421112, "min_date": "2019-07-16T11:36:00Z", "max_date": "2019-07-16T11:36:00Z", "count_points": 7, "latitude": 48.22293, "longitude": 31.12456, "city": "Lysa Hora", "images": []}, {"id": 421113, "min_date": "2019-07-16T11:36:00Z", "max_date": "2019-07-16T11:36:00Z", "count_points": 1, "latitude": 47.84071, "longitude": 32.88212, "city": "Kazanka", "images": []}, {"id": 421114, "min_date": "2019-07-16T11:36:00Z", "max_date": "2019-07-20T00:30:00Z", "count_points": 8, "latitude": 47.92067, "longitude": 31.33645, "city": "Arbuzynka", "images": []}, {"id": 421115, "min_date": "2019-07-16T11:36:00Z", "max_date": "2019-07-16T08:54:00Z", "count_points": 3, "latitude": 48.17811, "longitude": 30.82789, "city": "Vil\u2019shanka", "images": []}, {"id": 421116, "min_date": "2019-07-16T11:36:00Z", "max_date": "2019-07-16T11:36:00Z", "count_points": 2, "latitude": 47.65875, "longitude": 30.99152, "city": "Domanivka", "images": []}, {"id": 421117, "min_date": "2019-07-16T11:36:00Z", "max_date": "2019-07-16T11:36:00Z", "count_points": 4, "latitude": 46.94446, "longitude": 33.0768, "city": "Kozachi Laheri", "images": []}, {"id": 421118, "min_date": "2019-07-16T11:36:00Z", "max_date": "2019-07-21T11:42:00Z", "count_points": 4, "latitude": 48.15691, "longitude": 29.73665, "city": "Peschana", "images": []}, {"id": 421119, "min_date": "2019-07-16T11:36:00Z", "max_date": "2019-07-19T00:48:00Z", "count_points": 5, "latitude": 47.68551, "longitude": 33.04062, "city": "Shyroke", "images": []}, {"id": 421120, "min_date": "2019-07-16T11:36:00Z", "max_date": "2019-07-16T11:36:00Z", "count_points": 2, "latitude": 47.66557, "longitude": 31.18765, "city": "Yuzhnoukrainsk", "images": []}, {"id": 421121, "min_date": "2019-07-16T11:36:00Z", "max_date": "2019-07-21T09:13:00Z", "count_points": 58, "latitude": 47.02523, "longitude": 31.39371, "city": "Berezanka", "images": []}, {"id": 421122, "min_date": "2019-07-16T11:36:00Z", "max_date": "2019-07-16T11:36:00Z", "count_points": 1, "latitude": 47.35265, "longitude": 30.83045, "city": "Berezivka", "images": []}, {"id": 421123, "min_date": "2019-07-16T11:36:00Z", "max_date": "2019-07-20T10:18:00Z", "count_points": 3, "latitude": 47.44262, "longitude": 30.82029, "city": "Mykolayivka", "images": []}, {"id": 421124, "min_date": "2019-07-16T11:36:00Z", "max_date": "2019-07-16T11:36:00Z", "count_points": 1, "latitude": 45.93894, "longitude": 29.8865, "city": "Kulevcha", "images": []}, {"id": 421125, "min_date": "2019-07-16T11:36:00Z", "max_date": "2019-07-16T11:36:00Z", "count_points": 5, "latitude": 48.40686, "longitude": 30.85945, "city": "Tyshkivka", "images": []}, {"id": 421126, "min_date": "2019-07-16T11:36:00Z", "max_date": "2019-07-21T11:42:00Z", "count_points": 5, "latitude": 47.78975, "longitude": 29.99657, "city": "Ananyiv Pershyi", "images": []}, {"id": 421127, "min_date": "2019-07-16T11:36:00Z", "max_date": "2019-07-16T11:36:00Z", "count_points": 2, "latitude": 47.63252, "longitude": 31.61184, "city": "Brats\u2019ke", "images": []}, {"id": 421128, "min_date": "2019-07-16T11:36:00Z", "max_date": "2019-07-18T10:26:00Z", "count_points": 8, "latitude": 47.53687, "longitude": 30.18688, "city": "Shyryayeve", "images": []}, {"id": 421129, "min_date": "2019-07-16T11:36:00Z", "max_date": "2019-07-16T11:36:00Z", "count_points": 2, "latitude": 46.73733, "longitude": 31.77249, "city": "Parutyne", "images": []}, {"id": 421130, "min_date": "2019-07-16T11:36:00Z", "max_date": "2019-07-16T20:04:00Z", "count_points": 6, "latitude": 48.51114, "longitude": 33.02332, "city": "Oleksandriys\u2019ke", "images": []}, {"id": 421131, "min_date": "2019-07-16T11:36:00Z", "max_date": "2019-07-16T11:36:00Z", "count_points": 4, "latitude": 46.92155, "longitude": 31.20848, "city": "Berezanka", "images": []}, {"id": 421132, "min_date": "2019-07-16T11:36:00Z", "max_date": "2019-07-16T11:36:00Z", "count_points": 1, "latitude": 46.77905, "longitude": 31.04931, "city": "Dobroslav", "images": []}, {"id": 421133, "min_date": "2019-07-16T11:36:00Z", "max_date": "2019-07-16T11:36:00Z", "count_points": 1, "latitude": 46.89848, "longitude": 31.32465, "city": "Berezanka", "images": []}, {"id": 421134, "min_date": "2019-07-16T11:36:00Z", "max_date": "2019-07-16T11:36:00Z", "count_points": 1, "latitude": 46.27668, "longitude": 30.61371, "city": "Chornomors\u2019k", "images": []}, {"id": 421135, "min_date": "2019-07-16T11:36:00Z", "max_date": "2019-07-16T10:38:00Z", "count_points": 2, "latitude": 47.4637, "longitude": 32.53222, "city": "Bashtanka", "images": []}, {"id": 421136, "min_date": "2019-07-16T11:36:00Z", "max_date": "2019-07-19T10:36:00Z", "count_points": 3, "latitude": 47.41244, "longitude": 32.5952, "city": "Bashtanka", "images": []}, {"id": 421137, "min_date": "2019-07-16T11:36:00Z", "max_date": "2019-07-16T11:36:00Z", "count_points": 1, "latitude": 47.37756, "longitude": 32.57457, "city": "Bashtanka", "images": []}, {"id": 421138, "min_date": "2019-07-16T11:36:00Z", "max_date": "2019-07-16T11:36:00Z", "count_points": 3, "latitude": 48.79578, "longitude": 30.45168, "city": "Babanka", "images": []}, {"id": 421139, "min_date": "2019-07-16T11:36:00Z", "max_date": "2019-07-19T10:36:00Z", "count_points": 3, "latitude": 48.66244, "longitude": 31.05555, "city": "Tyshkivka", "images": []}, {"id": 421140, "min_date": "2019-07-16T11:36:00Z", "max_date": "2019-07-16T11:36:00Z", "count_points": 2, "latitude": 48.91231, "longitude": 31.62701, "city": "Kapitanivka", "images": []}, {"id": 421141, "min_date": "2019-07-16T11:36:00Z", "max_date": "2019-07-16T11:36:00Z", "count_points": 1, "latitude": 50.08355, "longitude": 31.23574, "city": "Pereyaslav-Khmel\u2019nyts\u2019kyy", "images": []}, {"id": 421142, "min_date": "2019-07-16T11:36:00Z", "max_date": "2019-07-16T11:36:00Z", "count_points": 1, "latitude": 49.83012, "longitude": 30.31575, "city": "Uzyn", "images": []}, {"id": 421143, "min_date": "2019-07-16T11:36:00Z", "max_date": "2019-07-21T09:13:00Z", "count_points": 8, "latitude": 46.62765, "longitude": 30.20809, "city": "Bilyayivka", "images": []}, {"id": 421144, "min_date": "2019-07-16T11:36:00Z", "max_date": "2019-07-20T10:18:00Z", "count_points": 8, "latitude": 47.08164, "longitude": 31.11132, "city": "Kurisove", "images": []}, {"id": 421145, "min_date": "2019-07-16T11:36:00Z", "max_date": "2019-07-15T19:21:00Z", "count_points": 2, "latitude": 47.05032, "longitude": 31.21468, "city": "Berezanka", "images": []}, {"id": 421146, "min_date": "2019-07-16T11:36:00Z", "max_date": "2019-07-16T11:36:00Z", "count_points": 2, "latitude": 47.12671, "longitude": 29.74819, "city": "Kuchurhan", "images": []}, {"id": 421147, "min_date": "2019-07-16T11:36:00Z", "max_date": "2019-07-18T08:42:00Z", "count_points": 21, "latitude": 47.06361, "longitude": 29.66418, "city": "Velykoploske", "images": []}, {"id": 421148, "min_date": "2019-07-16T11:36:00Z", "max_date": "2019-07-16T11:36:00Z", "count_points": 1, "latitude": 47.17574, "longitude": 31.10217, "city": "Berezivka", "images": []}, {"id": 421149, "min_date": "2019-07-16T11:36:00Z", "max_date": "2019-07-16T08:55:00Z", "count_points": 3, "latitude": 46.90091, "longitude": 32.52921, "city": "Chornobayivka", "images": []}, {"id": 421150, "min_date": "2019-07-16T11:36:00Z", "max_date": "2019-07-21T11:42:00Z", "count_points": 4, "latitude": 47.38719, "longitude": 30.91897, "city": "Berezivka", "images": []}, {"id": 421151, "min_date": "2019-07-16T11:36:00Z", "max_date": "2019-07-16T11:36:00Z", "count_points": 1, "latitude": 49.66512, "longitude": 33.44589, "city": "Khorol", "images": []}, {"id": 421152, "min_date": "2019-07-16T11:36:00Z", "max_date": "2019-07-16T11:36:00Z", "count_points": 2, "latitude": 47.54931, "longitude": 31.60476, "city": "Voznesensk", "images": []}, {"id": 421153, "min_date": "2019-07-16T11:36:00Z", "max_date": "2019-07-16T11:36:00Z", "count_points": 2, "latitude": 47.18319, "longitude": 31.15467, "city": "Veselynove", "images": []}, {"id": 421154, "min_date": "2019-07-16T11:36:00Z", "max_date": "2019-07-16T11:36:00Z", "count_points": 1, "latitude": 46.1433, "longitude": 29.22147, "city": "Tarutyne", "images": []}, {"id": 421155, "min_date": "2019-07-16T11:36:00Z", "max_date": "2019-07-21T09:13:00Z", "count_points": 45, "latitude": 46.35591, "longitude": 34.07427, "city": "Novotroyits\u2019ke", "images": []}, {"id": 421156, "min_date": "2019-07-16T11:36:00Z", "max_date": "2019-07-16T11:36:00Z", "count_points": 1, "latitude": 49.77634, "longitude": 28.19945, "city": "Ulaniv", "images": []}, {"id": 421157, "min_date": "2019-07-16T11:36:00Z", "max_date": "2019-07-16T11:36:00Z", "count_points": 1, "latitude": 46.42471, "longitude": 33.44816, "city": "Chaplynka", "images": []}, {"id": 421158, "min_date": "2019-07-16T11:36:00Z", "max_date": "2019-07-16T11:36:00Z", "count_points": 1, "latitude": 47.05996, "longitude": 29.85447, "city": "Velyka Mykhaylivka", "images": []}, {"id": 421159, "min_date": "2019-07-16T11:36:00Z", "max_date": "2019-07-16T11:36:00Z", "count_points": 3, "latitude": 46.53153, "longitude": 30.1023, "city": "Bilyayivka", "images": []}, {"id": 421160, "min_date": "2019-07-16T11:36:00Z", "max_date": "2019-07-18T10:54:00Z", "count_points": 2, "latitude": 47.23406, "longitude": 32.94332, "city": "Bereznehuvate", "images": []}, {"id": 421161, "min_date": "2019-07-16T11:36:00Z", "max_date": "2019-07-16T11:36:00Z", "count_points": 1, "latitude": 47.00736, "longitude": 32.77345, "city": "Snihurivka", "images": []}, {"id": 421162, "min_date": "2019-07-16T11:36:00Z", "max_date": "2019-07-16T11:36:00Z", "count_points": 2, "latitude": 47.33441, "longitude": 30.50742, "city": "Shyryayeve", "images": []}, {"id": 421163, "min_date": "2019-07-16T11:36:00Z", "max_date": "2019-07-19T10:36:00Z", "count_points": 4, "latitude": 47.48412, "longitude": 31.60337, "city": "Nova Odesa", "images": []}, {"id": 421164, "min_date": "2019-07-16T11:36:00Z", "max_date": "2019-07-19T09:25:00Z", "count_points": 8, "latitude": 47.1481, "longitude": 32.46236, "city": "Bashtanka", "images": []}, {"id": 421165, "min_date": "2019-07-16T11:36:00Z", "max_date": "2019-07-16T11:36:00Z", "count_points": 1, "latitude": 47.24163, "longitude": 29.84201, "city": "Kuchurhan", "images": []}, {"id": 421166, "min_date": "2019-07-16T11:36:00Z", "max_date": "2019-07-16T11:36:00Z", "count_points": 2, "latitude": 47.42921, "longitude": 30.02954, "city": "Shyryayeve", "images": []}, {"id": 421167, "min_date": "2019-07-16T11:36:00Z", "max_date": "2019-07-16T11:36:00Z", "count_points": 1, "latitude": 46.00095, "longitude": 30.06448, "city": "Kulevcha", "images": []}, {"id": 421168, "min_date": "2019-07-16T11:36:00Z", "max_date": "2019-07-16T11:36:00Z", "count_points": 1, "latitude": 47.11155, "longitude": 29.85745, "city": "Velyka Mykhaylivka", "images": []}, {"id": 421169, "min_date": "2019-07-16T11:36:00Z", "max_date": "2019-07-16T11:36:00Z", "count_points": 1, "latitude": 47.89579, "longitude": 34.06659, "city": "Sholokhove", "images": []}, {"id": 421170, "min_date": "2019-07-16T23:48:00Z", "max_date": "2019-07-17T11:12:00Z", "count_points": 2, "latitude": 47.37188, "longitude": 30.99494, "city": "Berezivka", "images": []}, {"id": 421171, "min_date": "2019-07-16T23:48:00Z", "max_date": "2019-07-17T11:21:00Z", "count_points": 4, "latitude": 47.09664, "longitude": 32.46712, "city": "Bashtanka", "images": []}, {"id": 421172, "min_date": "2019-07-16T23:48:00Z", "max_date": "2019-07-16T23:48:00Z", "count_points": 1, "latitude": 47.68916, "longitude": 33.32416, "city": "Shyroke", "images": []}, {"id": 421173, "min_date": "2019-07-16T23:48:00Z", "max_date": "2019-07-16T23:48:00Z", "count_points": 4, "latitude": 46.99913, "longitude": 31.55196, "city": "Berezanka", "images": []}, {"id": 421174, "min_date": "2019-07-16T23:48:00Z", "max_date": "2019-07-16T23:48:00Z", "count_points": 1, "latitude": 47.24616, "longitude": 30.98857, "city": "Berezivka", "images": []}, {"id": 421175, "min_date": "2019-07-16T23:48:00Z", "max_date": "2019-07-16T23:48:00Z", "count_points": 1, "latitude": 47.2048, "longitude": 32.10516, "city": "Mykolayiv", "images": []}, {"id": 421176, "min_date": "2019-07-16T23:48:00Z", "max_date": "2019-07-21T10:57:00Z", "count_points": 44, "latitude": 47.5591, "longitude": 29.43078, "city": "Okny", "images": []}, {"id": 421177, "min_date": "2019-07-16T23:48:00Z", "max_date": "2019-07-16T23:48:00Z", "count_points": 3, "latitude": 48.07976, "longitude": 30.74983, "city": "Pervomays\u2019k", "images": []}, {"id": 421178, "min_date": "2019-07-16T23:48:00Z", "max_date": "2019-07-17T19:08:00Z", "count_points": 12, "latitude": 47.69103, "longitude": 35.99388, "city": "Zaliznychne", "images": []}, {"id": 421179, "min_date": "2019-07-16T23:48:00Z", "max_date": "2019-07-21T20:22:00Z", "count_points": 8, "latitude": 48.29044, "longitude": 30.32724, "city": "Blahovishchens\u2019ke", "images": []}, {"id": 421180, "min_date": "2019-07-16T23:48:00Z", "max_date": "2019-07-16T23:48:00Z", "count_points": 1, "latitude": 48.74667, "longitude": 35.0632, "city": "Spas\u2019ke", "images": []}, {"id": 421181, "min_date": "2019-07-16T23:48:00Z", "max_date": "2019-07-16T23:48:00Z", "count_points": 1, "latitude": 48.20164, "longitude": 36.33497, "city": "Pokrovs\u2019ke", "images": []}, {"id": 421182, "min_date": "2019-07-16T23:48:00Z", "max_date": "2019-07-16T23:48:00Z", "count_points": 1, "latitude": 47.68918, "longitude": 30.53662, "city": "Vradiyivka", "images": []}, {"id": 421183, "min_date": "2019-07-16T23:48:00Z", "max_date": "2019-07-16T23:48:00Z", "count_points": 1, "latitude": 46.55946, "longitude": 34.91013, "city": "Partyzany", "images": []}, {"id": 421184, "min_date": "2019-07-16T23:48:00Z", "max_date": "2019-07-21T23:54:00Z", "count_points": 3, "latitude": 49.38031, "longitude": 32.19718, "city": "Chervona Sloboda", "images": []}, {"id": 421185, "min_date": "2019-07-16T23:48:00Z", "max_date": "2019-07-16T23:48:00Z", "count_points": 1, "latitude": 49.35833, "longitude": 32.04394, "city": "Cherkasy", "images": []}, {"id": 421186, "min_date": "2019-07-16T23:48:00Z", "max_date": "2019-07-16T23:48:00Z", "count_points": 1, "latitude": 49.87049, "longitude": 30.91174, "city": "Kaharlyk", "images": []}, {"id": 421187, "min_date": "2019-07-16T23:48:00Z", "max_date": "2019-07-16T23:48:00Z", "count_points": 1, "latitude": 48.7442, "longitude": 30.16444, "city": "Uman\u2019", "images": []}, {"id": 421188, "min_date": "2019-07-16T23:48:00Z", "max_date": "2019-07-18T19:51:00Z", "count_points": 7, "latitude": 47.53028, "longitude": 30.09342, "city": "Shyryayeve", "images": []}, {"id": 421189, "min_date": "2019-07-16T23:48:00Z", "max_date": "2019-07-16T23:48:00Z", "count_points": 4, "latitude": 47.32055, "longitude": 32.48078, "city": "Bashtanka", "images": []}, {"id": 421190, "min_date": "2019-07-16T23:48:00Z", "max_date": "2019-07-16T23:48:00Z", "count_points": 1, "latitude": 47.4878, "longitude": 30.78259, "city": "Mykolayivka", "images": []}, {"id": 421191, "min_date": "2019-07-16T23:48:00Z", "max_date": "2019-07-18T23:12:00Z", "count_points": 8, "latitude": 47.81796, "longitude": 30.3012, "city": "Lyubashivka", "images": []}, {"id": 421192, "min_date": "2019-07-16T23:48:00Z", "max_date": "2019-07-16T23:48:00Z", "count_points": 1, "latitude": 47.79893, "longitude": 30.60365, "city": "Vradiyivka", "images": []}, {"id": 421193, "min_date": "2019-07-16T23:48:00Z", "max_date": "2019-07-18T23:12:00Z", "count_points": 3, "latitude": 46.66318, "longitude": 30.3505, "city": "Teplodar", "images": []}, {"id": 421194, "min_date": "2019-07-16T23:48:00Z", "max_date": "2019-07-16T20:03:00Z", "count_points": 3, "latitude": 46.69722, "longitude": 30.34166, "city": "Teplodar", "images": []}, {"id": 421195, "min_date": "2019-07-16T23:48:00Z", "max_date": "2019-07-20T11:52:00Z", "count_points": 17, "latitude": 46.81827, "longitude": 31.75329, "city": "Parutyne", "images": []}, {"id": 421196, "min_date": "2019-07-16T23:48:00Z", "max_date": "2019-07-16T23:48:00Z", "count_points": 1, "latitude": 47.38823, "longitude": 31.85601, "city": "Nova Odesa", "images": []}, {"id": 421197, "min_date": "2019-07-16T23:48:00Z", "max_date": "2019-07-16T23:48:00Z", "count_points": 1, "latitude": 47.37953, "longitude": 31.8211, "city": "Nova Odesa", "images": []}, {"id": 421198, "min_date": "2019-07-16T23:48:00Z", "max_date": "2019-07-19T22:54:00Z", "count_points": 4, "latitude": 47.32948, "longitude": 33.71193, "city": "Dudchany", "images": []}, {"id": 421199, "min_date": "2019-07-16T23:48:00Z", "max_date": "2019-07-16T23:48:00Z", "count_points": 2, "latitude": 47.21562, "longitude": 33.67522, "city": "Dudchany", "images": []}, {"id": 421200, "min_date": "2019-07-16T23:48:00Z", "max_date": "2019-07-16T23:48:00Z", "count_points": 1, "latitude": 46.57734, "longitude": 33.53905, "city": "Chornyanka", "images": []}, {"id": 421201, "min_date": "2019-07-16T23:48:00Z", "max_date": "2019-07-17T11:12:00Z", "count_points": 3, "latitude": 47.38591, "longitude": 34.11576, "city": "Novovorontsovka", "images": []}, {"id": 421202, "min_date": "2019-07-16T23:48:00Z", "max_date": "2019-07-16T23:48:00Z", "count_points": 1, "latitude": 47.10518, "longitude": 33.74259, "city": "Dudchany", "images": []}, {"id": 421203, "min_date": "2019-07-16T23:48:00Z", "max_date": "2019-07-16T23:48:00Z", "count_points": 1, "latitude": 47.42366, "longitude": 33.61589, "city": "Vysokopillya", "images": []}, {"id": 421204, "min_date": "2019-07-16T23:48:00Z", "max_date": "2019-07-16T23:48:00Z", "count_points": 1, "latitude": 47.96897, "longitude": 33.79673, "city": "Sofiyivka", "images": []}, {"id": 421205, "min_date": "2019-07-16T23:48:00Z", "max_date": "2019-07-18T10:26:00Z", "count_points": 3, "latitude": 47.01811, "longitude": 33.82454, "city": "Hornostayivka", "images": []}, {"id": 421206, "min_date": "2019-07-16T23:48:00Z", "max_date": "2019-07-16T23:48:00Z", "count_points": 1, "latitude": 47.02549, "longitude": 30.50752, "city": "Ivanivka", "images": []}, {"id": 421207, "min_date": "2019-07-16T23:48:00Z", "max_date": "2019-07-16T23:48:00Z", "count_points": 2, "latitude": 47.02033, "longitude": 31.22385, "city": "Berezanka", "images": []}, {"id": 421208, "min_date": "2019-07-16T23:48:00Z", "max_date": "2019-07-17T09:36:00Z", "count_points": 3, "latitude": 47.51586, "longitude": 31.26897, "city": "Voznesensk", "images": []}, {"id": 421209, "min_date": "2019-07-17T09:36:00Z", "max_date": "2019-07-17T09:36:00Z", "count_points": 1, "latitude": 49.25381, "longitude": 34.04049, "city": "Lutovynivka", "images": []}, {"id": 421210, "min_date": "2019-07-17T09:36:00Z", "max_date": "2019-07-17T09:37:00Z", "count_points": 2, "latitude": 49.0188, "longitude": 35.13895, "city": "Zachepylivka", "images": []}, {"id": 421211, "min_date": "2019-07-17T09:36:00Z", "max_date": "2019-07-17T09:36:00Z", "count_points": 2, "latitude": 48.33273, "longitude": 36.32352, "city": "Petropavlivka", "images": []}, {"id": 421212, "min_date": "2019-07-17T09:36:00Z", "max_date": "2019-07-17T09:37:00Z", "count_points": 6, "latitude": 48.07596, "longitude": 35.83783, "city": "Novomykolayivka", "images": []}, {"id": 421213, "min_date": "2019-07-17T09:36:00Z", "max_date": "2019-07-17T09:36:00Z", "count_points": 3, "latitude": 48.23396, "longitude": 36.27682, "city": "Vasyl\u2019kivka", "images": []}, {"id": 421214, "min_date": "2019-07-17T09:36:00Z", "max_date": "2019-07-20T10:18:00Z", "count_points": 2, "latitude": 48.16795, "longitude": 36.44978, "city": "Pokrovs\u2019ke", "images": []}, {"id": 421215, "min_date": "2019-07-17T09:36:00Z", "max_date": "2019-07-17T09:36:00Z", "count_points": 2, "latitude": 48.32207, "longitude": 36.28245, "city": "Petropavlivka", "images": []}, {"id": 421216, "min_date": "2019-07-17T09:36:00Z", "max_date": "2019-07-18T08:42:00Z", "count_points": 14, "latitude": 47.75685, "longitude": 36.47042, "city": "Hulyaypole", "images": []}, {"id": 421217, "min_date": "2019-07-17T09:36:00Z", "max_date": "2019-07-17T09:36:00Z", "count_points": 2, "latitude": 47.89548, "longitude": 36.38678, "city": "Pokrovs\u2019ke", "images": []}, {"id": 421218, "min_date": "2019-07-17T09:36:00Z", "max_date": "2019-07-17T09:36:00Z", "count_points": 1, "latitude": 47.64894, "longitude": 36.85829, "city": "Velyka Novosilka", "images": []}, {"id": 421219, "min_date": "2019-07-17T09:36:00Z", "max_date": "2019-07-17T09:36:00Z", "count_points": 1, "latitude": 45.48019, "longitude": 29.23338, "city": "Kiliya", "images": []}, {"id": 421220, "min_date": "2019-07-17T09:36:00Z", "max_date": "2019-07-17T09:36:00Z", "count_points": 1, "latitude": 49.35046, "longitude": 34.1741, "city": "Novi Sanzhary", "images": []}, {"id": 421221, "min_date": "2019-07-17T09:36:00Z", "max_date": "2019-07-17T09:36:00Z", "count_points": 1, "latitude": 47.07561, "longitude": 31.04507, "city": "Kurisove", "images": []}, {"id": 421222, "min_date": "2019-07-17T09:36:00Z", "max_date": "2019-07-17T09:36:00Z", "count_points": 8, "latitude": 46.21742, "longitude": 29.04838, "city": "Serpneve", "images": []}, {"id": 421223, "min_date": "2019-07-17T09:36:00Z", "max_date": "2019-07-17T09:36:00Z", "count_points": 1, "latitude": 46.38744, "longitude": 32.40685, "city": "Chulakivka", "images": []}, {"id": 421224, "min_date": "2019-07-17T09:36:00Z", "max_date": "2019-07-20T10:18:00Z", "count_points": 3, "latitude": 47.60299, "longitude": 31.40996, "city": "Voznesensk", "images": []}, {"id": 421225, "min_date": "2019-07-17T09:36:00Z", "max_date": "2019-07-18T10:54:00Z", "count_points": 3, "latitude": 47.18682, "longitude": 30.41022, "city": "Ivanivka", "images": []}, {"id": 421226, "min_date": "2019-07-17T09:36:00Z", "max_date": "2019-07-20T10:14:00Z", "count_points": 10, "latitude": 47.65585, "longitude": 30.39697, "city": "Lyubashivka", "images": []}, {"id": 421227, "min_date": "2019-07-17T09:36:00Z", "max_date": "2019-07-17T09:36:00Z", "count_points": 1, "latitude": 47.06627, "longitude": 30.19439, "city": "Rozdil\u2019na", "images": []}, {"id": 421228, "min_date": "2019-07-17T09:36:00Z", "max_date": "2019-07-17T09:36:00Z", "count_points": 1, "latitude": 47.40933, "longitude": 31.93849, "city": "Nova Odesa", "images": []}, {"id": 421229, "min_date": "2019-07-17T09:36:00Z", "max_date": "2019-07-18T08:43:00Z", "count_points": 7, "latitude": 46.40661, "longitude": 29.38183, "city": "Borodino", "images": []}, {"id": 421230, "min_date": "2019-07-17T09:36:00Z", "max_date": "2019-07-17T11:21:00Z", "count_points": 9, "latitude": 48.33016, "longitude": 33.57401, "city": "Zhovti Vody", "images": []}, {"id": 421231, "min_date": "2019-07-17T09:36:00Z", "max_date": "2019-07-17T09:36:00Z", "count_points": 1, "latitude": 47.71314, "longitude": 33.37965, "city": "Shyroke", "images": []}, {"id": 421232, "min_date": "2019-07-17T09:36:00Z", "max_date": "2019-07-20T08:30:00Z", "count_points": 7, "latitude": 46.24597, "longitude": 34.28083, "city": "Novotroyits\u2019ke", "images": []}, {"id": 421233, "min_date": "2019-07-17T09:36:00Z", "max_date": "2019-07-17T09:36:00Z", "count_points": 2, "latitude": 47.51156, "longitude": 30.67239, "city": "Mykolayivka", "images": []}, {"id": 421234, "min_date": "2019-07-17T09:36:00Z", "max_date": "2019-07-17T09:36:00Z", "count_points": 1, "latitude": 48.11172, "longitude": 34.1613, "city": "Sofiyivka", "images": []}, {"id": 421235, "min_date": "2019-07-17T09:36:00Z", "max_date": "2019-07-17T09:36:00Z", "count_points": 2, "latitude": 49.60267, "longitude": 38.1029, "city": "Nyzhnya Duvanka", "images": []}, {"id": 421236, "min_date": "2019-07-17T09:36:00Z", "max_date": "2019-07-17T09:36:00Z", "count_points": 9, "latitude": 47.02888, "longitude": 34.4991, "city": "Nyzhni Sirohozy", "images": []}, {"id": 421237, "min_date": "2019-07-17T09:36:00Z", "max_date": "2019-07-21T10:00:00Z", "count_points": 7, "latitude": 46.8893, "longitude": 34.97906, "city": "Vesele", "images": []}, {"id": 421238, "min_date": "2019-07-17T09:36:00Z", "max_date": "2019-07-17T09:38:00Z", "count_points": 6, "latitude": 45.66191, "longitude": 28.56064, "city": "Vynohradivka", "images": []}, {"id": 421239, "min_date": "2019-07-17T09:36:00Z", "max_date": "2019-07-19T09:25:00Z", "count_points": 23, "latitude": 47.35844, "longitude": 35.1311, "city": "Mykhaylivka", "images": []}, {"id": 421240, "min_date": "2019-07-17T09:36:00Z", "max_date": "2019-07-20T10:18:00Z", "count_points": 4, "latitude": 48.38964, "longitude": 34.20051, "city": "Novomykolayivka", "images": []}, {"id": 421241, "min_date": "2019-07-17T09:36:00Z", "max_date": "2019-07-17T09:38:00Z", "count_points": 8, "latitude": 45.6829, "longitude": 28.74213, "city": "Kalcheva", "images": []}, {"id": 421242, "min_date": "2019-07-17T09:36:00Z", "max_date": "2019-07-20T08:30:00Z", "count_points": 10, "latitude": 47.22072, "longitude": 34.45743, "city": "Verkhniy Rohachyk", "images": []}, {"id": 421243, "min_date": "2019-07-17T09:36:00Z", "max_date": "2019-07-17T09:36:00Z", "count_points": 2, "latitude": 46.67197, "longitude": 34.80243, "city": "Ivanivka", "images": []}, {"id": 421244, "min_date": "2019-07-17T09:36:00Z", "max_date": "2019-07-17T09:36:00Z", "count_points": 3, "latitude": 46.28222, "longitude": 34.70317, "city": "Partyzany", "images": []}, {"id": 421245, "min_date": "2019-07-17T09:36:00Z", "max_date": "2019-07-17T09:36:00Z", "count_points": 2, "latitude": 48.65082, "longitude": 32.04551, "city": "Kropyvnytskyi", "images": []}, {"id": 421246, "min_date": "2019-07-17T09:36:00Z", "max_date": "2019-07-17T09:36:00Z", "count_points": 2, "latitude": 48.88647, "longitude": 35.92221, "city": "Yur\u201dyivka", "images": []}, {"id": 421247, "min_date": "2019-07-17T09:36:00Z", "max_date": "2019-07-18T10:26:00Z", "count_points": 26, "latitude": 48.546, "longitude": 36.79381, "city": "Oleksandrivka", "images": []}, {"id": 421248, "min_date": "2019-07-17T09:36:00Z", "max_date": "2019-07-17T09:36:00Z", "count_points": 1, "latitude": 49.91397, "longitude": 29.11952, "city": "Chornorudka", "images": []}, {"id": 421249, "min_date": "2019-07-17T09:36:00Z", "max_date": "2019-07-17T09:36:00Z", "count_points": 1, "latitude": 49.03047, "longitude": 36.55174, "city": "Blyznyuky", "images": []}, {"id": 421250, "min_date": "2019-07-17T09:36:00Z", "max_date": "2019-07-21T23:54:00Z", "count_points": 12, "latitude": 49.71147, "longitude": 37.38058, "city": "Shevchenkove", "images": []}, {"id": 421251, "min_date": "2019-07-17T09:36:00Z", "max_date": "2019-07-19T22:54:00Z", "count_points": 2, "latitude": 48.21491, "longitude": 31.54152, "city": "Novoukrayinka", "images": []}, {"id": 421252, "min_date": "2019-07-17T09:36:00Z", "max_date": "2019-07-21T10:00:00Z", "count_points": 20, "latitude": 47.47252, "longitude": 35.56058, "city": "Kirove", "images": []}, {"id": 421253, "min_date": "2019-07-17T09:36:00Z", "max_date": "2019-07-17T09:43:00Z", "count_points": 5, "latitude": 46.58826, "longitude": 35.12127, "city": "Yakymivka", "images": []}, {"id": 421254, "min_date": "2019-07-17T09:36:00Z", "max_date": "2019-07-17T09:36:00Z", "count_points": 3, "latitude": 48.25469, "longitude": 31.5157, "city": "Novoukrayinka", "images": []}, {"id": 421255, "min_date": "2019-07-17T09:36:00Z", "max_date": "2019-07-17T23:30:00Z", "count_points": 3, "latitude": 48.31189, "longitude": 31.66523, "city": "Rivne", "images": []}, {"id": 421256, "min_date": "2019-07-17T09:36:00Z", "max_date": "2019-07-17T09:36:00Z", "count_points": 1, "latitude": 48.8922, "longitude": 34.3793, "city": "Tsarychanka", "images": []}, {"id": 421257, "min_date": "2019-07-17T09:36:00Z", "max_date": "2019-07-17T09:36:00Z", "count_points": 1, "latitude": 47.33146, "longitude": 35.06576, "city": "Dniprorudne", "images": []}, {"id": 421258, "min_date": "2019-07-17T09:36:00Z", "max_date": "2019-07-17T09:36:00Z", "count_points": 4, "latitude": 47.17963, "longitude": 34.60029, "city": "Velyka Bilozerka", "images": []}, {"id": 421259, "min_date": "2019-07-17T09:36:00Z", "max_date": "2019-07-20T19:39:00Z", "count_points": 5, "latitude": 46.36062, "longitude": 34.46416, "city": "Novotroyits\u2019ke", "images": []}, {"id": 421260, "min_date": "2019-07-17T09:36:00Z", "max_date": "2019-07-19T10:36:00Z", "count_points": 17, "latitude": 47.29911, "longitude": 33.03029, "city": "Bereznehuvate", "images": []}, {"id": 421261, "min_date": "2019-07-17T09:36:00Z", "max_date": "2019-07-17T09:38:00Z", "count_points": 3, "latitude": 46.70269, "longitude": 32.06495, "city": "Stanislav", "images": []}, {"id": 421262, "min_date": "2019-07-17T09:36:00Z", "max_date": "2019-07-17T09:36:00Z", "count_points": 1, "latitude": 46.25295, "longitude": 32.68148, "city": "Krasne", "images": []}, {"id": 421263, "min_date": "2019-07-17T09:36:00Z", "max_date": "2019-07-18T09:18:00Z", "count_points": 4, "latitude": 46.8941, "longitude": 32.4139, "city": "Shevchenkove", "images": []}, {"id": 421264, "min_date": "2019-07-17T09:36:00Z", "max_date": "2019-07-17T09:36:00Z", "count_points": 1, "latitude": 47.52705, "longitude": 31.34216, "city": "Voznesensk", "images": []}, {"id": 421265, "min_date": "2019-07-17T09:36:00Z", "max_date": "2019-07-17T09:36:00Z", "count_points": 1, "latitude": 47.17408, "longitude": 29.71652, "city": "Kuchurhan", "images": []}, {"id": 421266, "min_date": "2019-07-17T09:36:00Z", "max_date": "2019-07-17T09:36:00Z", "count_points": 1, "latitude": 47.41752, "longitude": 30.61399, "city": "Mykolayivka", "images": []}, {"id": 421267, "min_date": "2019-07-17T09:36:00Z", "max_date": "2019-07-17T09:37:00Z", "count_points": 9, "latitude": 48.63939, "longitude": 36.41877, "city": "Petropavlivka", "images": []}, {"id": 421268, "min_date": "2019-07-17T09:36:00Z", "max_date": "2019-07-19T09:31:00Z", "count_points": 18, "latitude": 48.74343, "longitude": 36.95079, "city": "Oleksandrivka", "images": []}, {"id": 421269, "min_date": "2019-07-17T09:36:00Z", "max_date": "2019-07-17T09:36:00Z", "count_points": 2, "latitude": 47.39456, "longitude": 32.47477, "city": "Bashtanka", "images": []}, {"id": 421270, "min_date": "2019-07-17T09:36:00Z", "max_date": "2019-07-17T11:12:00Z", "count_points": 8, "latitude": 46.97586, "longitude": 31.20465, "city": "Berezanka", "images": []}, {"id": 421271, "min_date": "2019-07-17T09:36:00Z", "max_date": "2019-07-21T09:13:00Z", "count_points": 7, "latitude": 46.9492, "longitude": 31.2377, "city": "Berezanka", "images": []}, {"id": 421272, "min_date": "2019-07-17T09:36:00Z", "max_date": "2019-07-18T10:26:00Z", "count_points": 17, "latitude": 46.88395, "longitude": 31.22041, "city": "Berezanka", "images": []}, {"id": 421273, "min_date": "2019-07-17T09:36:00Z", "max_date": "2019-07-17T09:36:00Z", "count_points": 2, "latitude": 45.82727, "longitude": 29.81909, "city": "Zorya", "images": []}, {"id": 421274, "min_date": "2019-07-17T09:36:00Z", "max_date": "2019-07-17T09:36:00Z", "count_points": 1, "latitude": 47.66027, "longitude": 32.9689, "city": "Kazanka", "images": []}, {"id": 421275, "min_date": "2019-07-17T09:36:00Z", "max_date": "2019-07-17T09:36:00Z", "count_points": 1, "latitude": 48.07202, "longitude": 33.24609, "city": "Lozuvatka", "images": []}, {"id": 421276, "min_date": "2019-07-17T09:36:00Z", "max_date": "2019-07-17T09:36:00Z", "count_points": 2, "latitude": 47.58103, "longitude": 32.28446, "city": "Bashtanka", "images": []}, {"id": 421277, "min_date": "2019-07-17T09:36:00Z", "max_date": "2019-07-17T09:36:00Z", "count_points": 1, "latitude": 47.47654, "longitude": 32.32116, "city": "Bashtanka", "images": []}, {"id": 421278, "min_date": "2019-07-17T09:36:00Z", "max_date": "2019-07-15T08:12:00Z", "count_points": 3, "latitude": 47.44327, "longitude": 32.66564, "city": "Bashtanka", "images": []}, {"id": 421279, "min_date": "2019-07-17T09:36:00Z", "max_date": "2019-07-17T11:12:00Z", "count_points": 3, "latitude": 46.2797, "longitude": 29.96232, "city": "Starokozache", "images": []}, {"id": 421280, "min_date": "2019-07-17T09:36:00Z", "max_date": "2019-07-17T09:36:00Z", "count_points": 2, "latitude": 47.24443, "longitude": 36.54044, "city": "Kuybysheve", "images": []}, {"id": 421281, "min_date": "2019-07-17T09:36:00Z", "max_date": "2019-07-21T00:12:00Z", "count_points": 4, "latitude": 47.25455, "longitude": 36.46449, "city": "Kuybysheve", "images": []}, {"id": 421282, "min_date": "2019-07-17T09:36:00Z", "max_date": "2019-07-17T09:36:00Z", "count_points": 3, "latitude": 47.08352, "longitude": 33.96347, "city": "Velyka Lepetykha", "images": []}, {"id": 421283, "min_date": "2019-07-17T09:36:00Z", "max_date": "2019-07-17T09:36:00Z", "count_points": 1, "latitude": 47.94087, "longitude": 34.09302, "city": "Sofiyivka", "images": []}, {"id": 421284, "min_date": "2019-07-17T09:36:00Z", "max_date": "2019-07-17T09:36:00Z", "count_points": 1, "latitude": 47.82194, "longitude": 33.97462, "city": "Sholokhove", "images": []}, {"id": 421285, "min_date": "2019-07-17T09:36:00Z", "max_date": "2019-07-17T09:36:00Z", "count_points": 1, "latitude": 46.5372, "longitude": 33.48976, "city": "Chornyanka", "images": []}, {"id": 421286, "min_date": "2019-07-17T09:36:00Z", "max_date": "2019-07-17T09:36:00Z", "count_points": 1, "latitude": 47.25536, "longitude": 33.90876, "city": "Velyka Lepetykha", "images": []}, {"id": 421287, "min_date": "2019-07-17T09:36:00Z", "max_date": "2019-07-17T11:21:00Z", "count_points": 10, "latitude": 47.88859, "longitude": 31.03489, "city": "Kostyantynivka", "images": []}, {"id": 421288, "min_date": "2019-07-17T09:36:00Z", "max_date": "2019-07-17T09:36:00Z", "count_points": 6, "latitude": 47.02547, "longitude": 30.63072, "city": "Ivanivka", "images": []}, {"id": 421289, "min_date": "2019-07-17T09:36:00Z", "max_date": "2019-07-17T09:37:00Z", "count_points": 7, "latitude": 47.61187, "longitude": 29.61018, "city": "Podil\u2019s\u2019k", "images": []}, {"id": 421290, "min_date": "2019-07-17T09:36:00Z", "max_date": "2019-07-19T22:54:00Z", "count_points": 2, "latitude": 47.90439, "longitude": 35.88566, "city": "Novomykolayivka", "images": []}, {"id": 421291, "min_date": "2019-07-17T11:12:00Z", "max_date": "2019-07-17T11:21:00Z", "count_points": 4, "latitude": 47.53727, "longitude": 36.80327, "city": "Komysh-Zorya", "images": []}, {"id": 421292, "min_date": "2019-07-17T11:12:00Z", "max_date": "2019-07-17T11:12:00Z", "count_points": 1, "latitude": 48.22094, "longitude": 29.34436, "city": "Chechelnyk", "images": []}, {"id": 421293, "min_date": "2019-07-17T11:12:00Z", "max_date": "2019-07-20T22:30:00Z", "count_points": 5, "latitude": 47.47795, "longitude": 35.67138, "city": "Orikhiv", "images": []}, {"id": 421294, "min_date": "2019-07-17T11:12:00Z", "max_date": "2019-07-17T11:12:00Z", "count_points": 2, "latitude": 47.39254, "longitude": 32.87467, "city": "Bereznehuvate", "images": []}, {"id": 421295, "min_date": "2019-07-17T11:12:00Z", "max_date": "2019-07-17T11:12:00Z", "count_points": 1, "latitude": 47.13887, "longitude": 31.05601, "city": "Berezivka", "images": []}, {"id": 421296, "min_date": "2019-07-17T11:12:00Z", "max_date": "2019-07-17T11:12:00Z", "count_points": 4, "latitude": 47.2279, "longitude": 30.09473, "city": "Shyryayeve", "images": []}, {"id": 421297, "min_date": "2019-07-17T11:12:00Z", "max_date": "2019-07-18T10:54:00Z", "count_points": 2, "latitude": 47.3537, "longitude": 30.05667, "city": "Shyryayeve", "images": []}, {"id": 421298, "min_date": "2019-07-17T11:12:00Z", "max_date": "2019-07-17T11:21:00Z", "count_points": 3, "latitude": 47.13444, "longitude": 30.33576, "city": "Ivanivka", "images": []}, {"id": 421299, "min_date": "2019-07-17T11:12:00Z", "max_date": "2019-07-16T08:55:00Z", "count_points": 8, "latitude": 47.11881, "longitude": 32.79669, "city": "Snihurivka", "images": []}, {"id": 421300, "min_date": "2019-07-17T11:12:00Z", "max_date": "2019-07-15T09:50:00Z", "count_points": 3, "latitude": 47.40207, "longitude": 29.936, "city": "Zatyshshya", "images": []}, {"id": 421301, "min_date": "2019-07-17T11:12:00Z", "max_date": "2019-07-19T10:36:00Z", "count_points": 4, "latitude": 47.13558, "longitude": 32.40789, "city": "Bashtanka", "images": []}, {"id": 421302, "min_date": "2019-07-17T11:12:00Z", "max_date": "2019-07-17T11:12:00Z", "count_points": 2, "latitude": 47.54428, "longitude": 33.04871, "city": "Shyroke", "images": []}, {"id": 421303, "min_date": "2019-07-17T11:12:00Z", "max_date": "2019-07-17T11:12:00Z", "count_points": 1, "latitude": 46.19535, "longitude": 29.20735, "city": "Berezyne", "images": []}, {"id": 421304, "min_date": "2019-07-17T11:12:00Z", "max_date": "2019-07-17T11:12:00Z", "count_points": 4, "latitude": 48.28703, "longitude": 33.59425, "city": "Zhovti Vody", "images": []}, {"id": 421305, "min_date": "2019-07-17T11:12:00Z", "max_date": "2019-07-17T11:12:00Z", "count_points": 1, "latitude": 47.54915, "longitude": 32.92802, "city": "Bereznehuvate", "images": []}, {"id": 421306, "min_date": "2019-07-17T11:12:00Z", "max_date": "2019-07-17T11:21:00Z", "count_points": 4, "latitude": 47.55446, "longitude": 33.1716, "city": "Shyroke", "images": []}, {"id": 421307, "min_date": "2019-07-17T11:12:00Z", "max_date": "2019-07-17T11:21:00Z", "count_points": 5, "latitude": 46.6556, "longitude": 30.07268, "city": "Stepove", "images": []}, {"id": 421308, "min_date": "2019-07-17T11:12:00Z", "max_date": "2019-07-18T10:54:00Z", "count_points": 4, "latitude": 47.001, "longitude": 32.46892, "city": "Shevchenkove", "images": []}, {"id": 421309, "min_date": "2019-07-17T11:12:00Z", "max_date": "2019-07-17T11:12:00Z", "count_points": 1, "latitude": 47.24131, "longitude": 29.88794, "city": "Zatyshshya", "images": []}, {"id": 421310, "min_date": "2019-07-17T11:12:00Z", "max_date": "2019-07-17T11:21:00Z", "count_points": 7, "latitude": 47.36783, "longitude": 31.04939, "city": "Veselynove", "images": []}, {"id": 421311, "min_date": "2019-07-17T11:12:00Z", "max_date": "2019-07-17T11:12:00Z", "count_points": 1, "latitude": 47.56089, "longitude": 31.44194, "city": "Voznesensk", "images": []}, {"id": 421312, "min_date": "2019-07-17T11:12:00Z", "max_date": "2019-07-18T10:54:00Z", "count_points": 3, "latitude": 47.32138, "longitude": 33.18187, "city": "Velyka Oleksandrivka", "images": []}, {"id": 421313, "min_date": "2019-07-17T11:12:00Z", "max_date": "2019-07-17T11:12:00Z", "count_points": 2, "latitude": 47.515, "longitude": 36.61351, "city": "Kuybysheve", "images": []}, {"id": 421314, "min_date": "2019-07-17T11:12:00Z", "max_date": "2019-07-20T10:18:00Z", "count_points": 2, "latitude": 48.30625, "longitude": 35.86352, "city": "Vasyl\u2019kivka", "images": []}, {"id": 421315, "min_date": "2019-07-17T11:12:00Z", "max_date": "2019-07-17T11:12:00Z", "count_points": 1, "latitude": 49.37577, "longitude": 37.78077, "city": "Borova", "images": []}, {"id": 421316, "min_date": "2019-07-17T11:12:00Z", "max_date": "2019-07-17T11:21:00Z", "count_points": 4, "latitude": 48.28757, "longitude": 35.80249, "city": "Vasyl\u2019kivka", "images": []}, {"id": 421317, "min_date": "2019-07-17T11:12:00Z", "max_date": "2019-07-17T11:12:00Z", "count_points": 1, "latitude": 48.15958, "longitude": 37.07056, "city": "Krasnoarmiys\u2019k", "images": []}, {"id": 421318, "min_date": "2019-07-17T11:12:00Z", "max_date": "2019-07-17T11:12:00Z", "count_points": 1, "latitude": 48.22023, "longitude": 36.48602, "city": "Petropavlivka", "images": []}, {"id": 421319, "min_date": "2019-07-17T11:12:00Z", "max_date": "2019-07-15T09:56:00Z", "count_points": 13, "latitude": 48.27661, "longitude": 36.0394, "city": "Vasyl\u2019kivka", "images": []}, {"id": 421320, "min_date": "2019-07-17T11:12:00Z", "max_date": "2019-07-17T11:12:00Z", "count_points": 1, "latitude": 49.09671, "longitude": 34.72604, "city": "Hupalivka", "images": []}, {"id": 421321, "min_date": "2019-07-17T11:12:00Z", "max_date": "2019-07-17T11:12:00Z", "count_points": 1, "latitude": 48.5894, "longitude": 33.93654, "city": "Lykhivka", "images": []}, {"id": 421322, "min_date": "2019-07-17T11:12:00Z", "max_date": "2019-07-17T11:12:00Z", "count_points": 1, "latitude": 48.34781, "longitude": 29.77778, "city": "Hayvoron", "images": []}, {"id": 421323, "min_date": "2019-07-17T11:12:00Z", "max_date": "2019-07-17T11:12:00Z", "count_points": 4, "latitude": 48.49368, "longitude": 29.82877, "city": "Hayvoron", "images": []}, {"id": 421324, "min_date": "2019-07-17T11:12:00Z", "max_date": "2019-07-21T10:57:00Z", "count_points": 18, "latitude": 47.3806, "longitude": 35.70241, "city": "Tokmak", "images": []}, {"id": 421325, "min_date": "2019-07-17T11:12:00Z", "max_date": "2019-07-17T11:12:00Z", "count_points": 1, "latitude": 48.55083, "longitude": 34.30988, "city": "Novomykolayivka", "images": []}, {"id": 421326, "min_date": "2019-07-17T11:12:00Z", "max_date": "2019-07-21T09:12:00Z", "count_points": 22, "latitude": 48.73551, "longitude": 36.41836, "city": "Lozova", "images": []}, {"id": 421327, "min_date": "2019-07-17T11:12:00Z", "max_date": "2019-07-17T11:12:00Z", "count_points": 1, "latitude": 48.62083, "longitude": 32.9214, "city": "Nova Praha", "images": []}, {"id": 421328, "min_date": "2019-07-17T11:12:00Z", "max_date": "2019-07-17T11:12:00Z", "count_points": 1, "latitude": 48.51307, "longitude": 36.60582, "city": "Petropavlivka", "images": []}, {"id": 421329, "min_date": "2019-07-17T11:12:00Z", "max_date": "2019-07-18T10:26:00Z", "count_points": 14, "latitude": 48.79754, "longitude": 36.68834, "city": "Blyznyuky", "images": []}, {"id": 421330, "min_date": "2019-07-17T11:12:00Z", "max_date": "2019-07-21T09:12:00Z", "count_points": 17, "latitude": 48.5217, "longitude": 36.90661, "city": "Novodonets\u2019ke", "images": []}, {"id": 421331, "min_date": "2019-07-17T11:12:00Z", "max_date": "2019-07-17T11:12:00Z", "count_points": 1, "latitude": 47.51933, "longitude": 35.53145, "city": "Komyshuvakha", "images": []}, {"id": 421332, "min_date": "2019-07-17T11:12:00Z", "max_date": "2019-07-17T11:21:00Z", "count_points": 16, "latitude": 46.728, "longitude": 30.19854, "city": "Stepove", "images": []}, {"id": 421333, "min_date": "2019-07-17T11:12:00Z", "max_date": "2019-07-17T11:22:00Z", "count_points": 5, "latitude": 48.51844, "longitude": 35.26636, "city": "Novomoskovs\u2019k", "images": []}, {"id": 421334, "min_date": "2019-07-17T11:12:00Z", "max_date": "2019-07-17T11:12:00Z", "count_points": 1, "latitude": 46.65162, "longitude": 30.25476, "city": "Teplodar", "images": []}, {"id": 421335, "min_date": "2019-07-17T11:12:00Z", "max_date": "2019-07-20T00:30:00Z", "count_points": 6, "latitude": 46.77311, "longitude": 34.44106, "city": "Nyzhni Sirohozy", "images": []}, {"id": 421336, "min_date": "2019-07-17T11:12:00Z", "max_date": "2019-07-17T11:12:00Z", "count_points": 1, "latitude": 47.35902, "longitude": 33.36447, "city": "Velyka Oleksandrivka", "images": []}, {"id": 421337, "min_date": "2019-07-17T11:12:00Z", "max_date": "2019-07-17T11:12:00Z", "count_points": 1, "latitude": 46.29642, "longitude": 29.02766, "city": "Serpneve", "images": []}, {"id": 421338, "min_date": "2019-07-17T11:12:00Z", "max_date": "2019-07-18T08:42:00Z", "count_points": 11, "latitude": 47.88231, "longitude": 31.97224, "city": "Yelanets\u2019", "images": []}, {"id": 421339, "min_date": "2019-07-17T11:12:00Z", "max_date": "2019-07-17T08:00:00Z", "count_points": 4, "latitude": 46.45506, "longitude": 34.2671, "city": "Novotroyits\u2019ke", "images": []}, {"id": 421340, "min_date": "2019-07-17T11:12:00Z", "max_date": "2019-07-17T11:12:00Z", "count_points": 3, "latitude": 48.22614, "longitude": 32.35711, "city": "Kompaniyivka", "images": []}, {"id": 421341, "min_date": "2019-07-17T11:12:00Z", "max_date": "2019-07-19T09:25:00Z", "count_points": 27, "latitude": 47.53107, "longitude": 31.52066, "city": "Voznesensk", "images": []}, {"id": 421342, "min_date": "2019-07-17T11:12:00Z", "max_date": "2019-07-17T11:12:00Z", "count_points": 3, "latitude": 47.56872, "longitude": 31.76416, "city": "Yelanets\u2019", "images": []}, {"id": 421343, "min_date": "2019-07-17T11:12:00Z", "max_date": "2019-07-18T10:26:00Z", "count_points": 3, "latitude": 47.12859, "longitude": 35.22241, "city": "Matviyivka", "images": []}, {"id": 421344, "min_date": "2019-07-17T11:12:00Z", "max_date": "2019-07-20T10:18:00Z", "count_points": 6, "latitude": 46.81195, "longitude": 30.05064, "city": "Rozdil\u2019na", "images": []}, {"id": 421345, "min_date": "2019-07-17T11:12:00Z", "max_date": "2019-07-21T00:12:00Z", "count_points": 8, "latitude": 48.71133, "longitude": 36.86894, "city": "Oleksandrivka", "images": []}, {"id": 421346, "min_date": "2019-07-17T11:12:00Z", "max_date": "2019-07-18T08:42:00Z", "count_points": 22, "latitude": 46.60285, "longitude": 34.96383, "city": "Yakymivka", "images": []}, {"id": 421347, "min_date": "2019-07-17T11:12:00Z", "max_date": "2019-07-17T11:12:00Z", "count_points": 2, "latitude": 46.28121, "longitude": 34.40584, "city": "Novotroyits\u2019ke", "images": []}, {"id": 421348, "min_date": "2019-07-17T11:12:00Z", "max_date": "2019-07-17T11:12:00Z", "count_points": 3, "latitude": 48.1302, "longitude": 34.76187, "city": "Solone", "images": []}, {"id": 421349, "min_date": "2019-07-17T11:12:00Z", "max_date": "2019-07-17T19:09:00Z", "count_points": 6, "latitude": 48.00673, "longitude": 34.3838, "city": "Novopokrovka", "images": []}, {"id": 421350, "min_date": "2019-07-17T11:12:00Z", "max_date": "2019-07-17T11:12:00Z", "count_points": 1, "latitude": 48.50002, "longitude": 34.36273, "city": "Novomykolayivka", "images": []}, {"id": 421351, "min_date": "2019-07-17T11:12:00Z", "max_date": "2019-07-17T11:12:00Z", "count_points": 2, "latitude": 47.31976, "longitude": 30.69155, "city": "Mykolayivka", "images": []}, {"id": 421352, "min_date": "2019-07-17T11:12:00Z", "max_date": "2019-07-17T11:12:00Z", "count_points": 1, "latitude": 47.2882, "longitude": 30.70016, "city": "Berezivka", "images": []}, {"id": 421353, "min_date": "2019-07-17T11:12:00Z", "max_date": "2019-07-18T08:43:00Z", "count_points": 4, "latitude": 46.70549, "longitude": 30.09436, "city": "Stepove", "images": []}, {"id": 421354, "min_date": "2019-07-17T11:12:00Z", "max_date": "2019-07-17T11:12:00Z", "count_points": 2, "latitude": 46.85305, "longitude": 32.36174, "city": "Shevchenkove", "images": []}, {"id": 421355, "min_date": "2019-07-17T11:12:00Z", "max_date": "2019-07-17T11:21:00Z", "count_points": 3, "latitude": 46.64399, "longitude": 31.558, "city": "Ochakiv", "images": []}, {"id": 421356, "min_date": "2019-07-17T11:12:00Z", "max_date": "2019-07-17T11:12:00Z", "count_points": 2, "latitude": 47.49376, "longitude": 31.18792, "city": "Veselynove", "images": []}, {"id": 422416, "min_date": "2019-07-21T10:00:00Z", "max_date": "2019-07-21T10:00:00Z", "count_points": 1, "latitude": 48.51107, "longitude": 31.58927, "city": "Zlynka", "images": []}, {"id": 421357, "min_date": "2019-07-17T11:12:00Z", "max_date": "2019-07-18T08:42:00Z", "count_points": 4, "latitude": 47.23348, "longitude": 32.01223, "city": "Olshanskoye", "images": []}, {"id": 421358, "min_date": "2019-07-17T11:12:00Z", "max_date": "2019-07-20T00:30:00Z", "count_points": 8, "latitude": 47.14837, "longitude": 31.21407, "city": "Veselynove", "images": []}, {"id": 421359, "min_date": "2019-07-17T11:12:00Z", "max_date": "2019-07-16T08:55:00Z", "count_points": 2, "latitude": 47.07645, "longitude": 31.25454, "city": "Berezanka", "images": []}, {"id": 421360, "min_date": "2019-07-17T11:12:00Z", "max_date": "2019-07-17T11:12:00Z", "count_points": 1, "latitude": 47.28289, "longitude": 33.45143, "city": "Velyka Oleksandrivka", "images": []}, {"id": 421361, "min_date": "2019-07-17T11:12:00Z", "max_date": "2019-07-17T11:12:00Z", "count_points": 2, "latitude": 48.2903, "longitude": 33.95671, "city": "Vyshneve", "images": []}, {"id": 421362, "min_date": "2019-07-17T11:12:00Z", "max_date": "2019-07-17T11:12:00Z", "count_points": 1, "latitude": 48.22351, "longitude": 22.9687, "city": "Oleshnyk", "images": []}, {"id": 421363, "min_date": "2019-07-17T11:12:00Z", "max_date": "2019-07-17T11:12:00Z", "count_points": 2, "latitude": 48.30295, "longitude": 33.70927, "city": "Piatykhatky", "images": []}, {"id": 421364, "min_date": "2019-07-17T11:12:00Z", "max_date": "2019-07-17T11:12:00Z", "count_points": 1, "latitude": 46.88969, "longitude": 34.04058, "city": "Velyka Lepetykha", "images": []}, {"id": 421365, "min_date": "2019-07-17T11:12:00Z", "max_date": "2019-07-17T11:21:00Z", "count_points": 6, "latitude": 47.79094, "longitude": 31.05012, "city": "Kostyantynivka", "images": []}, {"id": 421366, "min_date": "2019-07-17T11:12:00Z", "max_date": "2019-07-17T11:12:00Z", "count_points": 2, "latitude": 46.37687, "longitude": 29.16203, "city": "Borodino", "images": []}, {"id": 421367, "min_date": "2019-07-17T11:12:00Z", "max_date": "2019-07-17T11:21:00Z", "count_points": 5, "latitude": 47.33791, "longitude": 30.86445, "city": "Berezivka", "images": []}, {"id": 421368, "min_date": "2019-07-17T11:12:00Z", "max_date": "2019-07-20T08:30:00Z", "count_points": 5, "latitude": 48.24387, "longitude": 29.18108, "city": "Torkanivka", "images": []}, {"id": 421369, "min_date": "2019-07-17T11:12:00Z", "max_date": "2019-07-17T11:12:00Z", "count_points": 1, "latitude": 47.21738, "longitude": 36.46361, "city": "Kuybysheve", "images": []}, {"id": 421370, "min_date": "2019-07-17T11:12:00Z", "max_date": "2019-07-17T11:12:00Z", "count_points": 1, "latitude": 47.15165, "longitude": 32.56248, "city": "Snihurivka", "images": []}, {"id": 421371, "min_date": "2019-07-17T11:12:00Z", "max_date": "2019-07-17T11:22:00Z", "count_points": 3, "latitude": 48.38812, "longitude": 29.69042, "city": "Viytivka", "images": []}, {"id": 421372, "min_date": "2019-07-17T11:18:00Z", "max_date": "2019-07-17T11:18:00Z", "count_points": 1, "latitude": 49.5286, "longitude": 35.10352, "city": "Karlivka", "images": []}, {"id": 421373, "min_date": "2019-07-17T11:18:00Z", "max_date": "2019-07-17T11:18:00Z", "count_points": 1, "latitude": 49.50773, "longitude": 35.12031, "city": "Karlivka", "images": []}, {"id": 421374, "min_date": "2019-07-17T11:18:00Z", "max_date": "2019-07-17T11:18:00Z", "count_points": 1, "latitude": 49.79336, "longitude": 37.12849, "city": "Shevchenkove", "images": []}, {"id": 421375, "min_date": "2019-07-17T23:30:00Z", "max_date": "2019-07-19T18:56:00Z", "count_points": 6, "latitude": 48.50848, "longitude": 36.34681, "city": "Petropavlivka", "images": []}, {"id": 421376, "min_date": "2019-07-17T23:30:00Z", "max_date": "2019-07-17T23:30:00Z", "count_points": 1, "latitude": 49.41934, "longitude": 36.20652, "city": "Pervomays\u2019kyy", "images": []}, {"id": 421377, "min_date": "2019-07-17T23:30:00Z", "max_date": "2019-07-18T09:18:00Z", "count_points": 3, "latitude": 49.36323, "longitude": 36.28788, "city": "Pervomays\u2019kyy", "images": []}, {"id": 421378, "min_date": "2019-07-17T23:30:00Z", "max_date": "2019-07-19T09:31:00Z", "count_points": 19, "latitude": 48.72219, "longitude": 36.56866, "city": "Blyznyuky", "images": []}, {"id": 421379, "min_date": "2019-07-17T23:30:00Z", "max_date": "2019-07-17T23:30:00Z", "count_points": 1, "latitude": 49.53118, "longitude": 37.06827, "city": "Savyntsi", "images": []}, {"id": 421380, "min_date": "2019-07-17T23:30:00Z", "max_date": "2019-07-19T20:35:00Z", "count_points": 14, "latitude": 48.86882, "longitude": 32.36579, "city": "Yelyzavethradka", "images": []}, {"id": 421381, "min_date": "2019-07-17T23:30:00Z", "max_date": "2019-07-17T23:30:00Z", "count_points": 2, "latitude": 49.21991, "longitude": 29.7358, "city": "Tetiiv", "images": []}, {"id": 421382, "min_date": "2019-07-17T23:30:00Z", "max_date": "2019-07-17T23:30:00Z", "count_points": 1, "latitude": 46.66074, "longitude": 30.79609, "city": "Krasnosilka", "images": []}, {"id": 421383, "min_date": "2019-07-17T23:30:00Z", "max_date": "2019-07-17T23:30:00Z", "count_points": 3, "latitude": 47.76937, "longitude": 35.28694, "city": "Kushuhum", "images": []}, {"id": 421384, "min_date": "2019-07-17T23:30:00Z", "max_date": "2019-07-17T23:30:00Z", "count_points": 1, "latitude": 47.28889, "longitude": 31.4398, "city": "Veselynove", "images": []}, {"id": 421385, "min_date": "2019-07-17T23:30:00Z", "max_date": "2019-07-20T08:30:00Z", "count_points": 3, "latitude": 47.86609, "longitude": 30.33146, "city": "Kryve Ozero", "images": []}, {"id": 421386, "min_date": "2019-07-17T23:30:00Z", "max_date": "2019-07-17T23:30:00Z", "count_points": 1, "latitude": 47.63936, "longitude": 29.44562, "city": "Okny", "images": []}, {"id": 421387, "min_date": "2019-07-17T23:30:00Z", "max_date": "2019-07-18T10:54:00Z", "count_points": 4, "latitude": 48.41245, "longitude": 31.02927, "city": "Lypnyazhka", "images": []}, {"id": 421388, "min_date": "2019-07-17T23:30:00Z", "max_date": "2019-07-17T23:30:00Z", "count_points": 1, "latitude": 47.57846, "longitude": 32.66271, "city": "Novyy Buh", "images": []}, {"id": 421389, "min_date": "2019-07-17T23:30:00Z", "max_date": "2019-07-18T01:12:00Z", "count_points": 9, "latitude": 47.68472, "longitude": 29.36182, "city": "Okny", "images": []}, {"id": 421390, "min_date": "2019-07-17T23:30:00Z", "max_date": "2019-07-20T10:18:00Z", "count_points": 2, "latitude": 47.90171, "longitude": 29.25978, "city": "Slobidka", "images": []}, {"id": 421391, "min_date": "2019-07-17T23:30:00Z", "max_date": "2019-07-17T23:30:00Z", "count_points": 1, "latitude": 48.71017, "longitude": 33.27978, "city": "Oleksandriya", "images": []}, {"id": 421392, "min_date": "2019-07-17T23:30:00Z", "max_date": "2019-07-17T23:30:00Z", "count_points": 1, "latitude": 47.68164, "longitude": 36.72015, "city": "Velyka Novosilka", "images": []}, {"id": 421393, "min_date": "2019-07-17T23:30:00Z", "max_date": "2019-07-17T23:30:00Z", "count_points": 1, "latitude": 49.81157, "longitude": 33.3738, "city": "Khorol", "images": []}, {"id": 421394, "min_date": "2019-07-17T23:30:00Z", "max_date": "2019-07-17T23:30:00Z", "count_points": 1, "latitude": 47.85128, "longitude": 35.69675, "city": "Kirove", "images": []}, {"id": 421395, "min_date": "2019-07-17T23:30:00Z", "max_date": "2019-07-17T23:30:00Z", "count_points": 1, "latitude": 48.28574, "longitude": 35.53766, "city": "Synel\u2019nykove", "images": []}, {"id": 421396, "min_date": "2019-07-17T23:30:00Z", "max_date": "2019-07-21T18:44:00Z", "count_points": 26, "latitude": 47.83234, "longitude": 36.41171, "city": "Hulyaypole", "images": []}, {"id": 421397, "min_date": "2019-07-17T23:30:00Z", "max_date": "2019-07-19T18:56:00Z", "count_points": 9, "latitude": 48.05386, "longitude": 36.04386, "city": "Pokrovs\u2019ke", "images": []}, {"id": 421398, "min_date": "2019-07-17T23:30:00Z", "max_date": "2019-07-17T23:30:00Z", "count_points": 2, "latitude": 48.15821, "longitude": 36.11181, "city": "Vasyl\u2019kivka", "images": []}, {"id": 421399, "min_date": "2019-07-17T23:30:00Z", "max_date": "2019-07-17T23:30:00Z", "count_points": 2, "latitude": 47.53855, "longitude": 35.9728, "city": "Mala Tokmachka", "images": []}, {"id": 421400, "min_date": "2019-07-17T23:30:00Z", "max_date": "2019-07-21T09:13:00Z", "count_points": 25, "latitude": 47.73884, "longitude": 36.69814, "city": "Velyka Novosilka", "images": []}, {"id": 421401, "min_date": "2019-07-17T23:30:00Z", "max_date": "2019-07-17T23:30:00Z", "count_points": 1, "latitude": 48.25923, "longitude": 36.41143, "city": "Petropavlivka", "images": []}, {"id": 421402, "min_date": "2019-07-17T23:30:00Z", "max_date": "2019-07-17T23:30:00Z", "count_points": 1, "latitude": 48.28651, "longitude": 30.42395, "city": "Holovanivs\u2019k", "images": []}, {"id": 421403, "min_date": "2019-07-17T23:30:00Z", "max_date": "2019-07-17T23:30:00Z", "count_points": 2, "latitude": 47.20965, "longitude": 35.72085, "city": "Tokmak", "images": []}, {"id": 421404, "min_date": "2019-07-17T23:30:00Z", "max_date": "2019-07-17T23:30:00Z", "count_points": 1, "latitude": 48.43883, "longitude": 35.64383, "city": "Synel\u2019nykove", "images": []}, {"id": 421405, "min_date": "2019-07-17T23:30:00Z", "max_date": "2019-07-17T23:30:00Z", "count_points": 1, "latitude": 48.46186, "longitude": 35.70782, "city": "Pavlohrad", "images": []}, {"id": 421406, "min_date": "2019-07-17T23:30:00Z", "max_date": "2019-07-20T08:30:00Z", "count_points": 5, "latitude": 48.25261, "longitude": 30.50818, "city": "Pobugskoye", "images": []}, {"id": 421407, "min_date": "2019-07-17T23:30:00Z", "max_date": "2019-07-17T19:08:00Z", "count_points": 4, "latitude": 46.6446, "longitude": 34.08305, "city": "Askaniya-Nova", "images": []}, {"id": 421408, "min_date": "2019-07-17T23:30:00Z", "max_date": "2019-07-17T19:08:00Z", "count_points": 3, "latitude": 46.94033, "longitude": 34.06991, "city": "Velyka Lepetykha", "images": []}, {"id": 421409, "min_date": "2019-07-17T23:30:00Z", "max_date": "2019-07-17T23:30:00Z", "count_points": 1, "latitude": 47.16962, "longitude": 34.00163, "city": "Velyka Lepetykha", "images": []}, {"id": 421410, "min_date": "2019-07-17T23:30:00Z", "max_date": "2019-07-18T10:54:00Z", "count_points": 5, "latitude": 47.46087, "longitude": 33.82106, "city": "Novovorontsovka", "images": []}, {"id": 421411, "min_date": "2019-07-17T23:30:00Z", "max_date": "2019-07-18T23:12:00Z", "count_points": 4, "latitude": 46.89034, "longitude": 33.5558, "city": "Lyubymivka", "images": []}, {"id": 421412, "min_date": "2019-07-17T23:30:00Z", "max_date": "2019-07-20T23:48:00Z", "count_points": 17, "latitude": 46.29293, "longitude": 34.11706, "city": "Novotroyits\u2019ke", "images": []}, {"id": 421413, "min_date": "2019-07-17T23:30:00Z", "max_date": "2019-07-17T23:30:00Z", "count_points": 2, "latitude": 46.6816, "longitude": 33.87701, "city": "Askaniya-Nova", "images": []}, {"id": 421414, "min_date": "2019-07-17T23:30:00Z", "max_date": "2019-07-18T09:18:00Z", "count_points": 3, "latitude": 49.16227, "longitude": 36.41475, "city": "Krasnopavlivka", "images": []}, {"id": 421415, "min_date": "2019-07-17T23:30:00Z", "max_date": "2019-07-17T23:30:00Z", "count_points": 1, "latitude": 46.76329, "longitude": 34.74955, "city": "Ivanivka", "images": []}, {"id": 421416, "min_date": "2019-07-17T23:30:00Z", "max_date": "2019-07-21T10:00:00Z", "count_points": 5, "latitude": 46.91526, "longitude": 34.50866, "city": "Nyzhni Sirohozy", "images": []}, {"id": 421417, "min_date": "2019-07-17T23:30:00Z", "max_date": "2019-07-17T23:30:00Z", "count_points": 2, "latitude": 46.53752, "longitude": 34.89346, "city": "Partyzany", "images": []}, {"id": 421418, "min_date": "2019-07-17T23:30:00Z", "max_date": "2019-07-20T08:30:00Z", "count_points": 11, "latitude": 46.22826, "longitude": 34.71601, "city": "Novooleksiyivka", "images": []}, {"id": 421419, "min_date": "2019-07-17T23:30:00Z", "max_date": "2019-07-18T01:12:00Z", "count_points": 3, "latitude": 46.87431, "longitude": 33.40906, "city": "Beryslav", "images": []}, {"id": 421420, "min_date": "2019-07-17T23:30:00Z", "max_date": "2019-07-19T10:36:00Z", "count_points": 4, "latitude": 47.23304, "longitude": 34.30752, "city": "Verkhniy Rohachyk", "images": []}, {"id": 421421, "min_date": "2019-07-17T23:30:00Z", "max_date": "2019-07-20T19:39:00Z", "count_points": 12, "latitude": 46.6451, "longitude": 35.51905, "city": "Pryazovs\u2019ke", "images": []},