[{"id": 408274, "min_date": "2019-03-11T09:36:00Z", "max_date": "2019-03-11T09:36:00Z", "count_points": 2, "latitude": 45.35484, "longitude": 28.67988, "city": "Ozerne", "images": []}, {"id": 408275, "min_date": "2019-03-11T09:36:00Z", "max_date": "2019-03-11T09:38:00Z", "count_points": 3, "latitude": 45.50946, "longitude": 28.30248, "city": "Reni", "images": []}, {"id": 408276, "min_date": "2019-03-11T09:36:00Z", "max_date": "2019-03-11T09:36:00Z", "count_points": 1, "latitude": 45.57283, "longitude": 28.60708, "city": "Bolhrad", "images": []}, {"id": 408277, "min_date": "2019-03-11T09:36:00Z", "max_date": "2019-03-11T09:36:00Z", "count_points": 1, "latitude": 46.84235, "longitude": 33.34673, "city": "Beryslav", "images": []}, {"id": 408278, "min_date": "2019-03-11T09:36:00Z", "max_date": "2019-03-11T09:36:00Z", "count_points": 1, "latitude": 46.6262, "longitude": 31.38911, "city": "Rybakivka", "images": []}, {"id": 408279, "min_date": "2019-03-11T09:36:00Z", "max_date": "2019-03-11T09:36:00Z", "count_points": 1, "latitude": 46.20741, "longitude": 32.20678, "city": "Bekhtery", "images": []}, {"id": 408280, "min_date": "2019-03-11T09:36:00Z", "max_date": "2019-03-11T09:36:00Z", "count_points": 1, "latitude": 45.50619, "longitude": 29.61444, "city": "Vylkove", "images": []}, {"id": 408281, "min_date": "2019-03-11T09:36:00Z", "max_date": "2019-03-11T09:36:00Z", "count_points": 1, "latitude": 46.20531, "longitude": 32.24172, "city": "Bekhtery", "images": []}, {"id": 408282, "min_date": "2019-03-11T09:36:00Z", "max_date": "2019-03-11T09:38:00Z", "count_points": 3, "latitude": 45.90832, "longitude": 28.9805, "city": "Dmytrivka", "images": []}, {"id": 408283, "min_date": "2019-03-11T09:36:00Z", "max_date": "2019-03-11T09:36:00Z", "count_points": 2, "latitude": 46.18519, "longitude": 33.44548, "city": "Kalanchak", "images": []}, {"id": 408284, "min_date": "2019-03-11T09:36:00Z", "max_date": "2019-03-11T09:36:00Z", "count_points": 2, "latitude": 47.24428, "longitude": 30.74911, "city": "Berezivka", "images": []}, {"id": 408285, "min_date": "2019-03-11T09:36:00Z", "max_date": "2019-03-11T09:36:00Z", "count_points": 6, "latitude": 46.01309, "longitude": 30.36155, "city": "Serhiyivka", "images": []}, {"id": 408286, "min_date": "2019-03-11T09:36:00Z", "max_date": "2019-03-11T09:36:00Z", "count_points": 2, "latitude": 46.49615, "longitude": 33.02351, "city": "Velyki Kopani", "images": []}, {"id": 408287, "min_date": "2019-03-11T09:36:00Z", "max_date": "2019-03-11T09:36:00Z", "count_points": 1, "latitude": 46.50876, "longitude": 32.84698, "city": "Radens\u2019k", "images": []}, {"id": 408288, "min_date": "2019-03-11T11:12:00Z", "max_date": "2019-03-11T11:21:00Z", "count_points": 2, "latitude": 46.06534, "longitude": 29.64802, "city": "Sarata", "images": []}, {"id": 408289, "min_date": "2019-03-11T11:12:00Z", "max_date": "2019-03-11T11:21:00Z", "count_points": 4, "latitude": 46.19121, "longitude": 32.37538, "city": "Novofedorivka", "images": []}, {"id": 408290, "min_date": "2019-03-11T11:12:00Z", "max_date": "2019-03-17T11:00:00Z", "count_points": 3, "latitude": 48.87395, "longitude": 24.56157, "city": "Stari Bohorodchany", "images": []}, {"id": 408291, "min_date": "2019-03-11T11:12:00Z", "max_date": "2019-03-11T11:12:00Z", "count_points": 1, "latitude": 48.80082, "longitude": 26.04656, "city": "Borshchiv", "images": []}, {"id": 408292, "min_date": "2019-03-11T11:12:00Z", "max_date": "2019-03-11T11:21:00Z", "count_points": 3, "latitude": 45.38119, "longitude": 28.55397, "city": "Ozerne", "images": []}, {"id": 408293, "min_date": "2019-03-11T11:12:00Z", "max_date": "2019-03-11T11:12:00Z", "count_points": 1, "latitude": 45.524, "longitude": 28.91895, "city": "Izmayil", "images": []}, {"id": 408294, "min_date": "2019-03-11T11:12:00Z", "max_date": "2019-03-11T11:12:00Z", "count_points": 1, "latitude": 45.62522, "longitude": 29.74954, "city": "Tatarbunary", "images": []}, {"id": 408295, "min_date": "2019-03-11T11:12:00Z", "max_date": "2019-03-11T11:12:00Z", "count_points": 1, "latitude": 45.40549, "longitude": 29.59425, "city": "Vylkove", "images": []}, {"id": 408296, "min_date": "2019-03-11T11:12:00Z", "max_date": "2019-03-11T11:22:00Z", "count_points": 3, "latitude": 47.04365, "longitude": 29.69495, "city": "Velykoploske", "images": []}, {"id": 408297, "min_date": "2019-03-11T11:12:00Z", "max_date": "2019-03-11T11:22:00Z", "count_points": 5, "latitude": 46.48895, "longitude": 30.16491, "city": "Bilyayivka", "images": []}, {"id": 408298, "min_date": "2019-03-11T11:12:00Z", "max_date": "2019-03-11T11:12:00Z", "count_points": 1, "latitude": 46.25872, "longitude": 30.52257, "city": "Ovidiopol", "images": []}, {"id": 408299, "min_date": "2019-03-11T11:12:00Z", "max_date": "2019-03-11T11:21:00Z", "count_points": 4, "latitude": 45.41223, "longitude": 28.77357, "city": "Broska", "images": []}, {"id": 408300, "min_date": "2019-03-11T11:12:00Z", "max_date": "2019-03-11T11:21:00Z", "count_points": 3, "latitude": 46.31434, "longitude": 29.66816, "city": "Kamyshevka Vtoraya", "images": []}, {"id": 408301, "min_date": "2019-03-11T11:12:00Z", "max_date": "2019-03-11T11:12:00Z", "count_points": 3, "latitude": 47.36698, "longitude": 35.23331, "city": "Vasylivka", "images": []}, {"id": 408302, "min_date": "2019-03-11T11:12:00Z", "max_date": "2019-03-11T11:12:00Z", "count_points": 1, "latitude": 49.14661, "longitude": 26.58493, "city": "Horodok", "images": []}, {"id": 408303, "min_date": "2019-03-11T11:12:00Z", "max_date": "2019-03-11T11:12:00Z", "count_points": 1, "latitude": 46.42658, "longitude": 30.24368, "city": "Mayaky", "images": []}, {"id": 408304, "min_date": "2019-03-11T11:12:00Z", "max_date": "2019-03-13T09:25:00Z", "count_points": 2, "latitude": 48.17779, "longitude": 25.97747, "city": "Molodiya", "images": []}, {"id": 408305, "min_date": "2019-03-11T11:18:00Z", "max_date": "2019-03-11T11:23:00Z", "count_points": 2, "latitude": 49.98345, "longitude": 23.51007, "city": "Shklo", "images": []}, {"id": 408306, "min_date": "2019-03-12T10:54:00Z", "max_date": "2019-03-12T10:54:00Z", "count_points": 1, "latitude": 48.59368, "longitude": 34.59351, "city": "Kamianske", "images": []}, {"id": 408307, "min_date": "2019-03-12T10:54:00Z", "max_date": "2019-03-12T10:54:00Z", "count_points": 1, "latitude": 48.58411, "longitude": 35.61566, "city": "Melioratyvne", "images": []}, {"id": 408308, "min_date": "2019-03-12T10:54:00Z", "max_date": "2019-03-12T10:54:00Z", "count_points": 2, "latitude": 47.95432, "longitude": 29.38006, "city": "Slobidka", "images": []}, {"id": 408309, "min_date": "2019-03-12T10:54:00Z", "max_date": "2019-03-12T10:54:00Z", "count_points": 1, "latitude": 50.69112, "longitude": 25.12361, "city": "Lutsk", "images": []}, {"id": 408310, "min_date": "2019-03-12T10:54:00Z", "max_date": "2019-03-12T10:54:00Z", "count_points": 1, "latitude": 48.50284, "longitude": 35.26304, "city": "Novomoskovs\u2019k", "images": []}, {"id": 408311, "min_date": "2019-03-12T10:54:00Z", "max_date": "2019-03-12T10:54:00Z", "count_points": 1, "latitude": 48.60967, "longitude": 22.48584, "city": "Serednye", "images": []}, {"id": 408312, "min_date": "2019-03-12T10:54:00Z", "max_date": "2019-03-12T10:54:00Z", "count_points": 1, "latitude": 48.33134, "longitude": 22.33026, "city": "Batiovo", "images": []}, {"id": 408313, "min_date": "2019-03-12T10:54:00Z", "max_date": "2019-03-12T10:54:00Z", "count_points": 1, "latitude": 48.61149, "longitude": 22.22363, "city": "Storozhnytsya", "images": []}, {"id": 408314, "min_date": "2019-03-12T10:54:00Z", "max_date": "2019-03-12T10:54:00Z", "count_points": 2, "latitude": 47.58721, "longitude": 29.33868, "city": "Okny", "images": []}, {"id": 408315, "min_date": "2019-03-12T10:54:00Z", "max_date": "2019-03-12T10:54:00Z", "count_points": 1, "latitude": 51.03773, "longitude": 28.02085, "city": "Novi Bilokorovychi", "images": []}, {"id": 408316, "min_date": "2019-03-12T10:54:00Z", "max_date": "2019-03-12T10:54:00Z", "count_points": 2, "latitude": 48.39248, "longitude": 33.51807, "city": "Zhovti Vody", "images": []}, {"id": 408317, "min_date": "2019-03-12T10:54:00Z", "max_date": "2019-03-12T10:54:00Z", "count_points": 1, "latitude": 48.53285, "longitude": 25.63415, "city": "Stetseva", "images": []}, {"id": 408318, "min_date": "2019-03-12T10:54:00Z", "max_date": "2019-03-12T10:54:00Z", "count_points": 1, "latitude": 49.33791, "longitude": 33.72511, "city": "Kozel\u2019shchyna", "images": []}, {"id": 408319, "min_date": "2019-03-12T10:54:00Z", "max_date": "2019-03-12T10:54:00Z", "count_points": 1, "latitude": 50.60951, "longitude": 32.10999, "city": "Lisovi Sorochyntsi", "images": []}, {"id": 408320, "min_date": "2019-03-12T10:54:00Z", "max_date": "2019-03-12T10:54:00Z", "count_points": 1, "latitude": 48.77362, "longitude": 34.67296, "city": "Petrykivka", "images": []}, {"id": 408321, "min_date": "2019-03-12T10:54:00Z", "max_date": "2019-03-12T10:54:00Z", "count_points": 1, "latitude": 47.84328, "longitude": 29.61765, "city": "Balta", "images": []}, {"id": 408322, "min_date": "2019-03-12T10:54:00Z", "max_date": "2019-03-12T10:54:00Z", "count_points": 2, "latitude": 50.26498, "longitude": 30.73476, "city": "Hnidyn", "images": []}, {"id": 408323, "min_date": "2019-03-12T10:54:00Z", "max_date": "2019-03-12T10:27:00Z", "count_points": 5, "latitude": 48.34954, "longitude": 33.46404, "city": "Zhovti Vody", "images": []}, {"id": 408324, "min_date": "2019-03-12T23:06:00Z", "max_date": "2019-03-12T23:06:00Z", "count_points": 1, "latitude": 51.57489, "longitude": 31.13468, "city": "Chernihiv", "images": []}, {"id": 408325, "min_date": "2019-03-12T23:12:00Z", "max_date": "2019-03-12T23:12:00Z", "count_points": 1, "latitude": 48.62465, "longitude": 33.66877, "city": "Piatykhatky", "images": []}, {"id": 408326, "min_date": "2019-03-13T00:48:00Z", "max_date": "2019-03-13T00:48:00Z", "count_points": 1, "latitude": 48.4784, "longitude": 34.04528, "city": "Vyshneve", "images": []}, {"id": 408327, "min_date": "2019-03-13T00:48:00Z", "max_date": "2019-03-13T00:48:00Z", "count_points": 2, "latitude": 46.45068, "longitude": 30.0689, "city": "Starokozache", "images": []}, {"id": 408328, "min_date": "2019-03-13T08:54:00Z", "max_date": "2019-03-13T08:54:00Z", "count_points": 1, "latitude": 49.34838, "longitude": 35.40709, "city": "Krasnohrad", "images": []}, {"id": 408329, "min_date": "2019-03-13T08:54:00Z", "max_date": "2019-03-13T09:25:00Z", "count_points": 2, "latitude": 47.58134, "longitude": 35.49231, "city": "Komyshuvakha", "images": []}, {"id": 408330, "min_date": "2019-03-13T09:00:00Z", "max_date": "2019-03-13T10:36:00Z", "count_points": 2, "latitude": 51.41538, "longitude": 32.37781, "city": "Sosnytsya", "images": []}, {"id": 408331, "min_date": "2019-03-13T10:36:00Z", "max_date": "2019-03-13T10:36:00Z", "count_points": 3, "latitude": 48.62947, "longitude": 34.34598, "city": "Verkhn\u2019odniprovs\u2019k", "images": []}, {"id": 408332, "min_date": "2019-03-13T10:36:00Z", "max_date": "2019-03-13T10:36:00Z", "count_points": 1, "latitude": 51.42235, "longitude": 31.27236, "city": "Chernihiv", "images": []}, {"id": 408333, "min_date": "2019-03-13T10:36:00Z", "max_date": "2019-03-13T10:36:00Z", "count_points": 1, "latitude": 51.32431, "longitude": 31.10791, "city": "Olyshivka", "images": []}, {"id": 408334, "min_date": "2019-03-13T10:36:00Z", "max_date": "2019-03-13T10:36:00Z", "count_points": 2, "latitude": 51.53501, "longitude": 32.60478, "city": "Sosnytsya", "images": []}, {"id": 408335, "min_date": "2019-03-13T10:36:00Z", "max_date": "2019-03-13T10:36:00Z", "count_points": 1, "latitude": 49.2428, "longitude": 35.17613, "city": "Zachepylivka", "images": []}, {"id": 408336, "min_date": "2019-03-13T10:36:00Z", "max_date": "2019-03-13T10:36:00Z", "count_points": 1, "latitude": 49.70974, "longitude": 35.17473, "city": "Chutove", "images": []}, {"id": 408337, "min_date": "2019-03-13T10:36:00Z", "max_date": "2019-03-13T11:10:00Z", "count_points": 2, "latitude": 50.24886, "longitude": 28.33657, "city": "Denyshi", "images": []}, {"id": 408338, "min_date": "2019-03-13T10:36:00Z", "max_date": "2019-03-13T10:36:00Z", "count_points": 1, "latitude": 50.34476, "longitude": 28.38952, "city": "Denyshi", "images": []}, {"id": 408339, "min_date": "2019-03-13T10:36:00Z", "max_date": "2019-03-13T10:36:00Z", "count_points": 1, "latitude": 47.58852, "longitude": 29.84499, "city": "Ananyiv Pershyi", "images": []}, {"id": 408340, "min_date": "2019-03-13T10:36:00Z", "max_date": "2019-03-15T11:42:00Z", "count_points": 2, "latitude": 49.99306, "longitude": 28.43106, "city": "Hryshkivtsi", "images": []}, {"id": 408341, "min_date": "2019-03-13T10:36:00Z", "max_date": "2019-03-13T10:36:00Z", "count_points": 1, "latitude": 51.14938, "longitude": 26.95882, "city": "Berezne", "images": []}, {"id": 408342, "min_date": "2019-03-13T10:36:00Z", "max_date": "2019-03-15T10:58:00Z", "count_points": 9, "latitude": 49.87085, "longitude": 27.54435, "city": "Liubar", "images": []}, {"id": 408343, "min_date": "2019-03-13T10:36:00Z", "max_date": "2019-03-13T10:36:00Z", "count_points": 1, "latitude": 48.14118, "longitude": 35.24347, "city": "Kaydaki", "images": []}, {"id": 408344, "min_date": "2019-03-13T10:36:00Z", "max_date": "2019-03-13T10:36:00Z", "count_points": 1, "latitude": 49.21518, "longitude": 26.53803, "city": "Horodok", "images": []}, {"id": 408345, "min_date": "2019-03-13T10:36:00Z", "max_date": "2019-03-13T10:36:00Z", "count_points": 1, "latitude": 48.71034, "longitude": 34.51425, "city": "Petrykivka", "images": []}, {"id": 408346, "min_date": "2019-03-13T10:36:00Z", "max_date": "2019-03-13T10:36:00Z", "count_points": 1, "latitude": 50.80463, "longitude": 31.26251, "city": "Bobrovytsya", "images": []}, {"id": 408347, "min_date": "2019-03-13T10:36:00Z", "max_date": "2019-03-13T10:36:00Z", "count_points": 1, "latitude": 48.07379, "longitude": 25.87218, "city": "Hlyboka", "images": []}, {"id": 408348, "min_date": "2019-03-13T10:36:00Z", "max_date": "2019-03-13T10:36:00Z", "count_points": 2, "latitude": 48.68791, "longitude": 36.9163, "city": "Oleksandrivka", "images": []}, {"id": 408349, "min_date": "2019-03-13T10:36:00Z", "max_date": "2019-03-13T10:36:00Z", "count_points": 1, "latitude": 51.84757, "longitude": 33.10164, "city": "Novhorod-Sivers\u2019kyy", "images": []}, {"id": 408350, "min_date": "2019-03-13T10:36:00Z", "max_date": "2019-03-13T10:36:00Z", "count_points": 1, "latitude": 49.36418, "longitude": 36.47778, "city": "Lyman", "images": []}, {"id": 408351, "min_date": "2019-03-13T10:36:00Z", "max_date": "2019-03-13T10:36:00Z", "count_points": 1, "latitude": 47.97392, "longitude": 28.92664, "city": "Zagnitkiv", "images": []}, {"id": 408352, "min_date": "2019-03-13T10:36:00Z", "max_date": "2019-03-13T11:10:00Z", "count_points": 2, "latitude": 47.95272, "longitude": 34.28938, "city": "Novopokrovka", "images": []}, {"id": 408353, "min_date": "2019-03-13T10:36:00Z", "max_date": "2019-03-13T10:36:00Z", "count_points": 1, "latitude": 48.12998, "longitude": 31.48288, "city": "Pomichna", "images": []}, {"id": 408354, "min_date": "2019-03-13T10:36:00Z", "max_date": "2019-03-13T09:26:00Z", "count_points": 4, "latitude": 47.39373, "longitude": 29.59825, "city": "Zakharivka", "images": []}, {"id": 408355, "min_date": "2019-03-13T10:36:00Z", "max_date": "2019-03-13T11:10:00Z", "count_points": 2, "latitude": 48.8757, "longitude": 25.68276, "city": "Tovste", "images": []}, {"id": 408356, "min_date": "2019-03-13T10:36:00Z", "max_date": "2019-03-13T11:09:00Z", "count_points": 2, "latitude": 46.51513, "longitude": 33.1674, "city": "Brylivka", "images": []}, {"id": 408357, "min_date": "2019-03-13T10:36:00Z", "max_date": "2019-03-13T10:36:00Z", "count_points": 1, "latitude": 47.32338, "longitude": 31.17485, "city": "Veselynove", "images": []}, {"id": 408358, "min_date": "2019-03-13T10:36:00Z", "max_date": "2019-03-17T10:46:00Z", "count_points": 6, "latitude": 49.0591, "longitude": 24.30459, "city": "Kalush", "images": []}, {"id": 408359, "min_date": "2019-03-13T10:36:00Z", "max_date": "2019-03-13T10:36:00Z", "count_points": 1, "latitude": 46.82492, "longitude": 31.84737, "city": "Parutyne", "images": []}, {"id": 408360, "min_date": "2019-03-13T10:36:00Z", "max_date": "2019-03-13T10:36:00Z", "count_points": 1, "latitude": 47.25882, "longitude": 30.38577, "city": "Shyryayeve", "images": []}, {"id": 408361, "min_date": "2019-03-13T10:36:00Z", "max_date": "2019-03-13T10:36:00Z", "count_points": 1, "latitude": 46.66539, "longitude": 32.51798, "city": "Komyshany", "images": []}, {"id": 408362, "min_date": "2019-03-13T10:36:00Z", "max_date": "2019-03-13T11:10:00Z", "count_points": 2, "latitude": 48.05962, "longitude": 29.01328, "city": "Kodyma", "images": []}, {"id": 408363, "min_date": "2019-03-13T10:36:00Z", "max_date": "2019-03-13T10:36:00Z", "count_points": 1, "latitude": 47.51656, "longitude": 29.53608, "city": "Okny", "images": []}, {"id": 408364, "min_date": "2019-03-13T10:36:00Z", "max_date": "2019-03-13T11:11:00Z", "count_points": 4, "latitude": 51.21708, "longitude": 26.12586, "city": "Volodymyrets\u2019", "images": []}, {"id": 408365, "min_date": "2019-03-13T10:36:00Z", "max_date": "2019-03-13T10:36:00Z", "count_points": 1, "latitude": 48.39587, "longitude": 25.56267, "city": "Sniatyn", "images": []}, {"id": 408366, "min_date": "2019-03-13T10:36:00Z", "max_date": "2019-03-13T10:36:00Z", "count_points": 1, "latitude": 50.25775, "longitude": 31.18336, "city": "Kirove", "images": []}, {"id": 408367, "min_date": "2019-03-13T10:36:00Z", "max_date": "2019-03-13T11:10:00Z", "count_points": 2, "latitude": 48.08168, "longitude": 29.47786, "city": "Chechelnyk", "images": []}, {"id": 408368, "min_date": "2019-03-13T10:36:00Z", "max_date": "2019-03-13T10:36:00Z", "count_points": 1, "latitude": 51.33292, "longitude": 26.27168, "city": "Volodymyrets\u2019", "images": []}, {"id": 408369, "min_date": "2019-03-13T10:36:00Z", "max_date": "2019-03-13T10:36:00Z", "count_points": 1, "latitude": 51.39869, "longitude": 26.18601, "city": "Volodymyrets\u2019", "images": []}, {"id": 408370, "min_date": "2019-03-13T10:36:00Z", "max_date": "2019-03-13T10:36:00Z", "count_points": 1, "latitude": 48.90868, "longitude": 27.46538, "city": "Murovani Kurylivtsi", "images": []}, {"id": 408371, "min_date": "2019-03-13T10:36:00Z", "max_date": "2019-03-13T10:36:00Z", "count_points": 1, "latitude": 51.15412, "longitude": 27.04431, "city": "Rokytne", "images": []}, {"id": 408372, "min_date": "2019-03-13T10:36:00Z", "max_date": "2019-03-13T10:36:00Z", "count_points": 1, "latitude": 49.25954, "longitude": 26.72646, "city": "Yarmolyntsi", "images": []}, {"id": 408373, "min_date": "2019-03-13T10:36:00Z", "max_date": "2019-03-13T10:36:00Z", "count_points": 1, "latitude": 48.10504, "longitude": 32.43487, "city": "Ustynivka", "images": []}, {"id": 408374, "min_date": "2019-03-13T10:36:00Z", "max_date": "2019-03-13T10:36:00Z", "count_points": 1, "latitude": 47.77056, "longitude": 29.54458, "city": "Podil\u2019s\u2019k", "images": []}, {"id": 408375, "min_date": "2019-03-13T10:36:00Z", "max_date": "2019-03-15T10:00:00Z", "count_points": 4, "latitude": 49.70192, "longitude": 27.60348, "city": "Stara Syniava", "images": []}, {"id": 408376, "min_date": "2019-03-13T10:36:00Z", "max_date": "2019-03-13T11:10:00Z", "count_points": 2, "latitude": 50.03794, "longitude": 27.90042, "city": "Romaniv", "images": []}, {"id": 408377, "min_date": "2019-03-13T10:36:00Z", "max_date": "2019-03-13T10:36:00Z", "count_points": 2, "latitude": 50.67333, "longitude": 28.43517, "city": "Khoroshiv", "images": []}, {"id": 408378, "min_date": "2019-03-13T10:36:00Z", "max_date": "2019-03-15T10:58:00Z", "count_points": 8, "latitude": 50.05528, "longitude": 28.15205, "city": "Chudniv", "images": []}, {"id": 408379, "min_date": "2019-03-13T10:36:00Z", "max_date": "2019-03-13T10:36:00Z", "count_points": 1, "latitude": 47.18741, "longitude": 35.23183, "city": "Mykhaylivka", "images": []}, {"id": 408380, "min_date": "2019-03-13T10:36:00Z", "max_date": "2019-03-13T11:10:00Z", "count_points": 3, "latitude": 51.00221, "longitude": 31.76676, "city": "Nizhyn", "images": []}, {"id": 408381, "min_date": "2019-03-13T10:36:00Z", "max_date": "2019-03-13T10:36:00Z", "count_points": 1, "latitude": 50.60229, "longitude": 31.11343, "city": "Velyka Dymerka", "images": []}, {"id": 408382, "min_date": "2019-03-13T10:36:00Z", "max_date": "2019-03-13T10:36:00Z", "count_points": 2, "latitude": 50.05261, "longitude": 29.38526, "city": "Popilnya", "images": []}, {"id": 408383, "min_date": "2019-03-13T10:36:00Z", "max_date": "2019-03-13T10:36:00Z", "count_points": 2, "latitude": 50.8929, "longitude": 30.18124, "city": "Katyuzhanka", "images": []}, {"id": 408384, "min_date": "2019-03-13T10:36:00Z", "max_date": "2019-03-13T11:10:00Z", "count_points": 9, "latitude": 50.72876, "longitude": 30.21874, "city": "Dymer", "images": []}, {"id": 408385, "min_date": "2019-03-13T10:36:00Z", "max_date": "2019-03-13T10:36:00Z", "count_points": 1, "latitude": 50.17225, "longitude": 29.73274, "city": "Kozhanka", "images": []}, {"id": 408386, "min_date": "2019-03-13T10:36:00Z", "max_date": "2019-03-15T10:58:00Z", "count_points": 2, "latitude": 48.50698, "longitude": 27.26085, "city": "Novodnistrovs\u2019k", "images": []}, {"id": 408387, "min_date": "2019-03-13T10:36:00Z", "max_date": "2019-03-13T10:36:00Z", "count_points": 1, "latitude": 51.05103, "longitude": 30.59848, "city": "Desna", "images": []}, {"id": 408388, "min_date": "2019-03-13T10:36:00Z", "max_date": "2019-03-13T10:36:00Z", "count_points": 1, "latitude": 50.7593, "longitude": 29.37555, "city": "Malyn", "images": []}, {"id": 408389, "min_date": "2019-03-13T10:36:00Z", "max_date": "2019-03-17T11:00:00Z", "count_points": 2, "latitude": 48.26353, "longitude": 26.05834, "city": "Boyany", "images": []}, {"id": 408390, "min_date": "2019-03-13T10:36:00Z", "max_date": "2019-03-13T09:25:00Z", "count_points": 4, "latitude": 50.99925, "longitude": 28.53298, "city": "Korosten\u2019", "images": []}, {"id": 408391, "min_date": "2019-03-13T10:36:00Z", "max_date": "2019-03-13T10:36:00Z", "count_points": 1, "latitude": 50.74548, "longitude": 30.25808, "city": "Dymer", "images": []}, {"id": 408392, "min_date": "2019-03-13T10:36:00Z", "max_date": "2019-03-13T10:36:00Z", "count_points": 1, "latitude": 50.73737, "longitude": 28.91417, "city": "Chopovychi", "images": []}, {"id": 408393, "min_date": "2019-03-13T10:36:00Z", "max_date": "2019-03-13T10:36:00Z", "count_points": 1, "latitude": 50.77201, "longitude": 28.87069, "city": "Chopovychi", "images": []}, {"id": 408394, "min_date": "2019-03-13T10:36:00Z", "max_date": "2019-03-13T11:10:00Z", "count_points": 2, "latitude": 50.89647, "longitude": 29.34353, "city": "Malyn", "images": []}, {"id": 408395, "min_date": "2019-03-13T10:36:00Z", "max_date": "2019-03-13T10:36:00Z", "count_points": 1, "latitude": 50.36927, "longitude": 29.1785, "city": "Korostyshiv", "images": []}, {"id": 408396, "min_date": "2019-03-13T10:36:00Z", "max_date": "2019-03-13T10:36:00Z", "count_points": 1, "latitude": 50.23914, "longitude": 29.51065, "city": "Brusyliv", "images": []}, {"id": 408397, "min_date": "2019-03-13T10:36:00Z", "max_date": "2019-03-13T10:36:00Z", "count_points": 1, "latitude": 50.59172, "longitude": 30.41205, "city": "Novi Petrivtsi", "images": []}, {"id": 408398, "min_date": "2019-03-13T10:36:00Z", "max_date": "2019-03-13T10:36:00Z", "count_points": 1, "latitude": 48.0432, "longitude": 35.84198, "city": "Novomykolayivka", "images": []}, {"id": 408399, "min_date": "2019-03-13T10:36:00Z", "max_date": "2019-03-13T10:36:00Z", "count_points": 1, "latitude": 50.57901, "longitude": 30.68884, "city": "Pukhivka", "images": []}, {"id": 408400, "min_date": "2019-03-13T10:36:00Z", "max_date": "2019-03-13T10:36:00Z", "count_points": 1, "latitude": 50.66737, "longitude": 30.28392, "city": "Hostomel", "images": []}, {"id": 408401, "min_date": "2019-03-13T10:36:00Z", "max_date": "2019-03-13T09:25:00Z", "count_points": 2, "latitude": 51.27011, "longitude": 29.08183, "city": "Narodychi", "images": []}, {"id": 408402, "min_date": "2019-03-13T10:36:00Z", "max_date": "2019-03-13T10:36:00Z", "count_points": 2, "latitude": 50.37538, "longitude": 29.83494, "city": "Makariv", "images": []}, {"id": 408403, "min_date": "2019-03-13T10:36:00Z", "max_date": "2019-03-13T10:36:00Z", "count_points": 1, "latitude": 50.16386, "longitude": 30.17647, "city": "Borova", "images": []}, {"id": 408404, "min_date": "2019-03-13T10:36:00Z", "max_date": "2019-03-13T10:36:00Z", "count_points": 1, "latitude": 51.02273, "longitude": 30.06275, "city": "Ivankiv", "images": []}, {"id": 408405, "min_date": "2019-03-13T10:36:00Z", "max_date": "2019-03-13T11:10:00Z", "count_points": 3, "latitude": 48.40135, "longitude": 26.23939, "city": "Klishkivtsi", "images": []}, {"id": 408406, "min_date": "2019-03-13T10:36:00Z", "max_date": "2019-03-15T10:58:00Z", "count_points": 4, "latitude": 51.08513, "longitude": 29.55438, "city": "Krasyatychi", "images": []}, {"id": 408407, "min_date": "2019-03-13T10:36:00Z", "max_date": "2019-03-13T11:11:00Z", "count_points": 5, "latitude": 51.87247, "longitude": 25.9686, "city": "Zarichne", "images": []}, {"id": 408408, "min_date": "2019-03-13T10:36:00Z", "max_date": "2019-03-13T10:36:00Z", "count_points": 1, "latitude": 50.38915, "longitude": 29.63055, "city": "Stavyshche", "images": []}, {"id": 408409, "min_date": "2019-03-13T10:36:00Z", "max_date": "2019-03-13T11:11:00Z", "count_points": 3, "latitude": 51.18466, "longitude": 29.06925, "city": "Narodychi", "images": []}, {"id": 408410, "min_date": "2019-03-13T10:36:00Z", "max_date": "2019-03-13T10:36:00Z", "count_points": 1, "latitude": 50.26693, "longitude": 30.5481, "city": "Khotiv", "images": []}, {"id": 408411, "min_date": "2019-03-13T10:36:00Z", "max_date": "2019-03-13T10:36:00Z", "count_points": 1, "latitude": 50.4168, "longitude": 30.21521, "city": "Irpin", "images": []}, {"id": 408412, "min_date": "2019-03-13T10:36:00Z", "max_date": "2019-03-13T10:36:00Z", "count_points": 1, "latitude": 50.65735, "longitude": 29.4654, "city": "Bila Krynytsya", "images": []}, {"id": 408413, "min_date": "2019-03-13T10:36:00Z", "max_date": "2019-03-13T10:36:00Z", "count_points": 2, "latitude": 50.55691, "longitude": 29.84662, "city": "Makariv", "images": []}, {"id": 408414, "min_date": "2019-03-13T10:36:00Z", "max_date": "2019-03-13T10:36:00Z", "count_points": 1, "latitude": 50.3747, "longitude": 29.27396, "city": "Radomyshl", "images": []}, {"id": 408415, "min_date": "2019-03-13T10:36:00Z", "max_date": "2019-03-13T10:36:00Z", "count_points": 1, "latitude": 47.93742, "longitude": 32.35397, "city": "Ustynivka", "images": []}, {"id": 408416, "min_date": "2019-03-13T10:36:00Z", "max_date": "2019-03-13T11:09:00Z", "count_points": 4, "latitude": 46.42596, "longitude": 32.7668, "city": "Vynohradove", "images": []}, {"id": 408417, "min_date": "2019-03-13T10:36:00Z", "max_date": "2019-03-13T10:36:00Z", "count_points": 1, "latitude": 46.44306, "longitude": 33.22221, "city": "Brylivka", "images": []}, {"id": 408418, "min_date": "2019-03-13T10:36:00Z", "max_date": "2019-03-13T10:36:00Z", "count_points": 1, "latitude": 48.18304, "longitude": 30.03012, "city": "Zavallya", "images": []}, {"id": 408419, "min_date": "2019-03-13T10:36:00Z", "max_date": "2019-03-13T10:36:00Z", "count_points": 1, "latitude": 47.21346, "longitude": 32.61061, "city": "Snihurivka", "images": []}, {"id": 408420, "min_date": "2019-03-13T10:36:00Z", "max_date": "2019-03-13T10:36:00Z", "count_points": 1, "latitude": 47.11489, "longitude": 32.61191, "city": "Snihurivka", "images": []}, {"id": 408421, "min_date": "2019-03-13T10:36:00Z", "max_date": "2019-03-13T10:36:00Z", "count_points": 1, "latitude": 47.47014, "longitude": 36.1827, "city": "Polohy", "images": []}, {"id": 408422, "min_date": "2019-03-13T10:36:00Z", "max_date": "2019-03-13T10:36:00Z", "count_points": 1, "latitude": 50.52056, "longitude": 27.63125, "city": "Novohrad-Volynskyi", "images": []}, {"id": 408423, "min_date": "2019-03-13T10:36:00Z", "max_date": "2019-03-13T10:36:00Z", "count_points": 1, "latitude": 49.75949, "longitude": 27.27641, "city": "Starokostiantyniv", "images": []}, {"id": 408424, "min_date": "2019-03-13T10:36:00Z", "max_date": "2019-03-13T10:36:00Z", "count_points": 2, "latitude": 48.77909, "longitude": 25.6705, "city": "Nyrkiv", "images": []}, {"id": 408425, "min_date": "2019-03-13T10:36:00Z", "max_date": "2019-03-13T10:36:00Z", "count_points": 1, "latitude": 48.88443, "longitude": 24.12468, "city": "Spas", "images": []}, {"id": 408426, "min_date": "2019-03-13T10:36:00Z", "max_date": "2019-03-13T09:25:00Z", "count_points": 4, "latitude": 48.60302, "longitude": 25.18442, "city": "Obertyn", "images": []}, {"id": 408427, "min_date": "2019-03-13T10:36:00Z", "max_date": "2019-03-13T10:36:00Z", "count_points": 1, "latitude": 49.21948, "longitude": 30.09386, "city": "Zhashkiv", "images": []}, {"id": 408428, "min_date": "2019-03-13T10:36:00Z", "max_date": "2019-03-13T10:36:00Z", "count_points": 1, "latitude": 49.84066, "longitude": 28.60065, "city": "Berdychiv", "images": []}, {"id": 408429, "min_date": "2019-03-13T10:36:00Z", "max_date": "2019-03-13T10:36:00Z", "count_points": 1, "latitude": 48.95181, "longitude": 31.01197, "city": "Katerynopil", "images": []}, {"id": 408430, "min_date": "2019-03-13T10:36:00Z", "max_date": "2019-03-13T10:36:00Z", "count_points": 1, "latitude": 49.36225, "longitude": 32.22917, "city": "Chervona Sloboda", "images": []}, {"id": 408431, "min_date": "2019-03-13T10:36:00Z", "max_date": "2019-03-13T10:36:00Z", "count_points": 1, "latitude": 48.63606, "longitude": 36.91475, "city": "Novodonets\u2019ke", "images": []}, {"id": 408432, "min_date": "2019-03-13T10:36:00Z", "max_date": "2019-03-13T10:36:00Z", "count_points": 1, "latitude": 48.11776, "longitude": 39.53159, "city": "Klenovyy", "images": []}, {"id": 408433, "min_date": "2019-03-13T10:36:00Z", "max_date": "2019-03-13T10:36:00Z", "count_points": 2, "latitude": 48.58094, "longitude": 35.8285, "city": "Pavlohrad", "images": []}, {"id": 408434, "min_date": "2019-03-13T10:36:00Z", "max_date": "2019-03-13T10:36:00Z", "count_points": 1, "latitude": 49.62997, "longitude": 30.47595, "city": "Rokytne", "images": []}, {"id": 408435, "min_date": "2019-03-13T10:36:00Z", "max_date": "2019-03-16T11:18:00Z", "count_points": 3, "latitude": 48.6995, "longitude": 35.96866, "city": "Yur\u201dyivka", "images": []}, {"id": 408436, "min_date": "2019-03-13T10:36:00Z", "max_date": "2019-03-13T10:36:00Z", "count_points": 1, "latitude": 49.75917, "longitude": 28.66585, "city": "Berdychiv", "images": []}, {"id": 408437, "min_date": "2019-03-13T10:36:00Z", "max_date": "2019-03-13T10:36:00Z", "count_points": 2, "latitude": 48.71556, "longitude": 32.08284, "city": "Kropyvnytskyi", "images": []}, {"id": 408438, "min_date": "2019-03-13T10:36:00Z", "max_date": "2019-03-13T10:36:00Z", "count_points": 1, "latitude": 49.34065, "longitude": 30.51109, "city": "Kalynove", "images": []}, {"id": 408439, "min_date": "2019-03-13T10:36:00Z", "max_date": "2019-03-13T10:36:00Z", "count_points": 1, "latitude": 49.0181, "longitude": 31.67255, "city": "Kapitanivka", "images": []}, {"id": 408440, "min_date": "2019-03-13T10:36:00Z", "max_date": "2019-03-13T10:36:00Z", "count_points": 1, "latitude": 49.93556, "longitude": 31.91386, "city": "Drabiv", "images": []}, {"id": 408441, "min_date": "2019-03-13T10:36:00Z", "max_date": "2019-03-13T10:36:00Z", "count_points": 1, "latitude": 48.55217, "longitude": 32.27878, "city": "Kropyvnytskyi", "images": []}, {"id": 408442, "min_date": "2019-03-13T10:36:00Z", "max_date": "2019-03-13T10:36:00Z", "count_points": 1, "latitude": 49.24885, "longitude": 36.91898, "city": "Petrivs\u2019ke", "images": []}, {"id": 408443, "min_date": "2019-03-14T10:18:00Z", "max_date": "2019-03-14T10:18:00Z", "count_points": 2, "latitude": 45.61954, "longitude": 28.54311, "city": "Vynohradivka", "images": []}, {"id": 408444, "min_date": "2019-03-14T10:18:00Z", "max_date": "2019-03-14T10:18:00Z", "count_points": 1, "latitude": 47.66022, "longitude": 38.30417, "city": "Kuteynykove", "images": []}, {"id": 408445, "min_date": "2019-03-14T10:18:00Z", "max_date": "2019-03-14T10:14:00Z", "count_points": 3, "latitude": 47.33665, "longitude": 38.14905, "city": "Tel\u2019manove", "images": []}, {"id": 408446, "min_date": "2019-03-14T10:18:00Z", "max_date": "2019-03-14T10:18:00Z", "count_points": 3, "latitude": 48.58989, "longitude": 36.74037, "city": "Oleksandrivka", "images": []}, {"id": 408447, "min_date": "2019-03-14T10:18:00Z", "max_date": "2019-03-14T10:18:00Z", "count_points": 1, "latitude": 48.77424, "longitude": 35.79055, "city": "Yur\u201dyivka", "images": []}, {"id": 408448, "min_date": "2019-03-14T10:18:00Z", "max_date": "2019-03-14T10:18:00Z", "count_points": 1, "latitude": 48.79739, "longitude": 36.56965, "city": "Blyznyuky", "images": []}, {"id": 408449, "min_date": "2019-03-14T10:18:00Z", "max_date": "2019-03-14T10:14:00Z", "count_points": 2, "latitude": 48.37522, "longitude": 39.82606, "city": "Uralo-Kavkaz", "images": []}, {"id": 408450, "min_date": "2019-03-14T10:18:00Z", "max_date": "2019-03-14T10:18:00Z", "count_points": 2, "latitude": 48.63104, "longitude": 36.58165, "city": "Petropavlivka", "images": []}, {"id": 408451, "min_date": "2019-03-14T10:18:00Z", "max_date": "2019-03-14T10:18:00Z", "count_points": 2, "latitude": 48.7665, "longitude": 36.01381, "city": "Yur\u201dyivka", "images": []}, {"id": 408452, "min_date": "2019-03-14T10:18:00Z", "max_date": "2019-03-14T10:18:00Z", "count_points": 2, "latitude": 48.0472, "longitude": 29.23015, "city": "Kodyma", "images": []}, {"id": 408453, "min_date": "2019-03-14T10:18:00Z", "max_date": "2019-03-16T09:42:00Z", "count_points": 2, "latitude": 49.15389, "longitude": 35.16219, "city": "Zachepylivka", "images": []}, {"id": 408454, "min_date": "2019-03-14T10:18:00Z", "max_date": "2019-03-14T10:18:00Z", "count_points": 2, "latitude": 48.47043, "longitude": 35.69372, "city": "Pavlohrad", "images": []}, {"id": 408455, "min_date": "2019-03-14T10:18:00Z", "max_date": "2019-03-14T10:18:00Z", "count_points": 1, "latitude": 47.94117, "longitude": 37.95976, "city": "Makiyivka", "images": []}, {"id": 408456, "min_date": "2019-03-14T10:18:00Z", "max_date": "2019-03-14T10:18:00Z", "count_points": 1, "latitude": 48.64541, "longitude": 38.32303, "city": "Popasna", "images": []}, {"id": 408457, "min_date": "2019-03-14T10:18:00Z", "max_date": "2019-03-14T10:18:00Z", "count_points": 2, "latitude": 48.32431, "longitude": 38.26206, "city": "Vuhlehirs\u2019k", "images": []}, {"id": 408458, "min_date": "2019-03-14T10:18:00Z", "max_date": "2019-03-14T10:18:00Z", "count_points": 1, "latitude": 48.19677, "longitude": 38.1625, "city": "Yenakiyeve", "images": []}, {"id": 408459, "min_date": "2019-03-14T10:18:00Z", "max_date": "2019-03-14T10:18:00Z", "count_points": 1, "latitude": 48.12933, "longitude": 28.94651, "city": "Zagnitkiv", "images": []}, {"id": 408460, "min_date": "2019-03-14T10:18:00Z", "max_date": "2019-03-14T10:18:00Z", "count_points": 1, "latitude": 49.14966, "longitude": 33.38581, "city": "Kremenchuk", "images": []}, {"id": 408461, "min_date": "2019-03-14T10:18:00Z", "max_date": "2019-03-14T10:18:00Z", "count_points": 1, "latitude": 49.60486, "longitude": 37.65485, "city": "Kivsharivka", "images": []}, {"id": 408462, "min_date": "2019-03-14T10:18:00Z", "max_date": "2019-03-14T10:18:00Z", "count_points": 1, "latitude": 48.1466, "longitude": 22.79606, "city": "Vylok", "images": []}, {"id": 408463, "min_date": "2019-03-14T10:18:00Z", "max_date": "2019-03-14T10:18:00Z", "count_points": 1, "latitude": 47.47567, "longitude": 36.02826, "city": "Mala Tokmachka", "images": []}, {"id": 408464, "min_date": "2019-03-14T10:18:00Z", "max_date": "2019-03-14T10:18:00Z", "count_points": 1, "latitude": 49.08282, "longitude": 34.31492, "city": "Kobelyaky", "images": []}, {"id": 408465, "min_date": "2019-03-14T10:18:00Z", "max_date": "2019-03-14T10:18:00Z", "count_points": 2, "latitude": 48.98593, "longitude": 35.50369, "city": "Hubynykha", "images": []}, {"id": 408466, "min_date": "2019-03-14T10:18:00Z", "max_date": "2019-03-14T10:18:00Z", "count_points": 1, "latitude": 48.98782, "longitude": 33.4974, "city": "Kamennyye Potoki", "images": []}, {"id": 408467, "min_date": "2019-03-14T10:18:00Z", "max_date": "2019-03-14T10:18:00Z", "count_points": 1, "latitude": 48.49171, "longitude": 39.09755, "city": "Bile", "images": []}, {"id": 408468, "min_date": "2019-03-14T10:18:00Z", "max_date": "2019-03-14T10:18:00Z", "count_points": 1, "latitude": 48.65662, "longitude": 33.65521, "city": "Piatykhatky", "images": []}, {"id": 408469, "min_date": "2019-03-14T10:18:00Z", "max_date": "2019-03-14T10:14:00Z", "count_points": 2, "latitude": 48.40889, "longitude": 39.20979, "city": "Lutuhyne", "images": []}, {"id": 408470, "min_date": "2019-03-14T10:18:00Z", "max_date": "2019-03-14T10:18:00Z", "count_points": 1, "latitude": 46.04525, "longitude": 29.01229, "city": "Dmytrivka", "images": []}, {"id": 408471, "min_date": "2019-03-14T10:18:00Z", "max_date": "2019-03-14T10:18:00Z", "count_points": 1, "latitude": 49.62311, "longitude": 23.31189, "city": "Ralivka", "images": []}, {"id": 408472, "min_date": "2019-03-14T10:18:00Z", "max_date": "2019-03-14T10:18:00Z", "count_points": 2, "latitude": 48.81812, "longitude": 27.05886, "city": "Nova Ushytsya", "images": []}, {"id": 408473, "min_date": "2019-03-14T10:18:00Z", "max_date": "2019-03-14T10:14:00Z", "count_points": 3, "latitude": 48.28369, "longitude": 39.60703, "city": "Krasnodon", "images": []}, {"id": 408474, "min_date": "2019-03-14T10:18:00Z", "max_date": "2019-03-14T10:18:00Z", "count_points": 1, "latitude": 47.99107, "longitude": 29.35228, "city": "Slobidka", "images": []}, {"id": 408475, "min_date": "2019-03-14T10:18:00Z", "max_date": "2019-03-14T10:18:00Z", "count_points": 1, "latitude": 48.30193, "longitude": 35.35531, "city": "Synel\u2019nykove", "images": []}, {"id": 408476, "min_date": "2019-03-14T10:18:00Z", "max_date": "2019-03-14T08:30:00Z", "count_points": 3, "latitude": 48.25641, "longitude": 35.33461, "city": "Synel\u2019nykove", "images": []}, {"id": 408477, "min_date": "2019-03-14T10:18:00Z", "max_date": "2019-03-14T10:18:00Z", "count_points": 1, "latitude": 44.77405, "longitude": 33.6335, "city": "Solnechniy", "images": []}, {"id": 408478, "min_date": "2019-03-14T10:18:00Z", "max_date": "2019-03-14T10:18:00Z", "count_points": 2, "latitude": 47.50633, "longitude": 29.98252, "city": "Zatyshshya", "images": []}, {"id": 408479, "min_date": "2019-03-14T10:18:00Z", "max_date": "2019-03-14T10:18:00Z", "count_points": 1, "latitude": 45.91696, "longitude": 29.41251, "city": "Artsyz", "images": []}, {"id": 408480, "min_date": "2019-03-14T10:18:00Z", "max_date": "2019-03-14T10:18:00Z", "count_points": 1, "latitude": 46.1766, "longitude": 32.49273, "city": "Lazurne", "images": []}, {"id": 408481, "min_date": "2019-03-14T10:18:00Z", "max_date": "2019-03-14T10:18:00Z", "count_points": 1, "latitude": 47.03019, "longitude": 29.98201, "city": "Velyka Mykhaylivka", "images": []}, {"id": 408482, "min_date": "2019-03-14T10:18:00Z", "max_date": "2019-03-14T10:18:00Z", "count_points": 1, "latitude": 47.43623, "longitude": 29.52518, "city": "Okny", "images": []}, {"id": 408483, "min_date": "2019-03-14T10:18:00Z", "max_date": "2019-03-14T10:18:00Z", "count_points": 2, "latitude": 48.22709, "longitude": 22.9808, "city": "Oleshnyk", "images": []}, {"id": 408484, "min_date": "2019-03-14T10:18:00Z", "max_date": "2019-03-14T10:18:00Z", "count_points": 1, "latitude": 47.70782, "longitude": 35.5303, "city": "Komyshuvakha", "images": []}, {"id": 408485, "min_date": "2019-03-14T10:18:00Z", "max_date": "2019-03-14T10:18:00Z", "count_points": 1, "latitude": 47.46979, "longitude": 29.81328, "city": "Zakharivka", "images": []}, {"id": 408486, "min_date": "2019-03-14T10:18:00Z", "max_date": "2019-03-14T10:18:00Z", "count_points": 1, "latitude": 48.43851, "longitude": 36.35766, "city": "Petropavlivka", "images": []}, {"id": 408487, "min_date": "2019-03-14T10:18:00Z", "max_date": "2019-03-14T10:18:00Z", "count_points": 1, "latitude": 48.34393, "longitude": 26.18757, "city": "Boyany", "images": []}, {"id": 408488, "min_date": "2019-03-14T10:18:00Z", "max_date": "2019-03-14T10:18:00Z", "count_points": 1, "latitude": 48.44959, "longitude": 36.40794, "city": "Petropavlivka", "images": []}, {"id": 408489, "min_date": "2019-03-14T10:18:00Z", "max_date": "2019-03-14T10:18:00Z", "count_points": 1, "latitude": 47.91684, "longitude": 36.78854, "city": "Velyka Novosilka", "images": []}, {"id": 408490, "min_date": "2019-03-14T10:18:00Z", "max_date": "2019-03-14T10:18:00Z", "count_points": 1, "latitude": 48.14142, "longitude": 36.44474, "city": "Pokrovs\u2019ke", "images": []}, {"id": 408491, "min_date": "2019-03-14T10:18:00Z", "max_date": "2019-03-14T10:18:00Z", "count_points": 2, "latitude": 47.42015, "longitude": 36.95937, "city": "Rozivka", "images": []}, {"id": 408492, "min_date": "2019-03-14T12:00:00Z", "max_date": "2019-03-17T09:01:00Z", "count_points": 2, "latitude": 49.30946, "longitude": 23.41322, "city": "Boryslav", "images": []}, {"id": 408493, "min_date": "2019-03-14T12:00:00Z", "max_date": "2019-03-14T12:00:00Z", "count_points": 1, "latitude": 49.23864, "longitude": 23.82299, "city": "Duliby", "images": []}, {"id": 408494, "min_date": "2019-03-14T12:00:00Z", "max_date": "2019-03-14T11:53:00Z", "count_points": 5, "latitude": 48.97902, "longitude": 24.04038, "city": "Dolyna", "images": [{"image_url": "408494.jpg", "timestamp": "2019-03-14T11:53:00Z"}]}, {"id": 408495, "min_date": "2019-03-14T12:00:00Z", "max_date": "2019-03-14T12:00:00Z", "count_points": 1, "latitude": 46.25113, "longitude": 29.43204, "city": "Borodino", "images": []}, {"id": 408496, "min_date": "2019-03-14T12:00:00Z", "max_date": "2019-03-14T12:00:00Z", "count_points": 2, "latitude": 46.47511, "longitude": 30.03068, "city": "Starokozache", "images": []}, {"id": 408497, "min_date": "2019-03-14T12:00:00Z", "max_date": "2019-03-14T12:00:00Z", "count_points": 2, "latitude": 46.24096, "longitude": 29.53258, "city": "Plakhtiyivka", "images": []}, {"id": 408498, "min_date": "2019-03-14T12:00:00Z", "max_date": "2019-03-15T10:00:00Z", "count_points": 2, "latitude": 48.16317, "longitude": 30.88702, "city": "Pidhorodna", "images": []}, {"id": 408499, "min_date": "2019-03-14T12:00:00Z", "max_date": "2019-03-14T12:00:00Z", "count_points": 2, "latitude": 46.24774, "longitude": 29.48266, "city": "Borodino", "images": []}, {"id": 408500, "min_date": "2019-03-14T12:00:00Z", "max_date": "2019-03-14T12:00:00Z", "count_points": 1, "latitude": 49.06502, "longitude": 23.78507, "city": "Bolekhiv", "images": []}, {"id": 408501, "min_date": "2019-03-14T12:00:00Z", "max_date": "2019-03-14T12:00:00Z", "count_points": 2, "latitude": 47.756, "longitude": 30.01171, "city": "Ananyiv Pershyi", "images": []}, {"id": 408502, "min_date": "2019-03-14T12:00:00Z", "max_date": "2019-03-14T12:00:00Z", "count_points": 1, "latitude": 51.76481, "longitude": 24.85617, "city": "Rakiv Lis", "images": []}, {"id": 408503, "min_date": "2019-03-15T00:12:00Z", "max_date": "2019-03-15T00:12:00Z", "count_points": 1, "latitude": 50.72819, "longitude": 24.49852, "city": "Lokachi", "images": []}, {"id": 408504, "min_date": "2019-03-15T00:12:00Z", "max_date": "2019-03-15T00:12:00Z", "count_points": 1, "latitude": 50.66031, "longitude": 24.4332, "city": "Ivanychi", "images": []}, {"id": 408505, "min_date": "2019-03-15T00:12:00Z", "max_date": "2019-03-15T00:12:00Z", "count_points": 1, "latitude": 51.1717, "longitude": 25.78072, "city": "Manevychi", "images": []}, {"id": 408506, "min_date": "2019-03-15T00:12:00Z", "max_date": "2019-03-15T00:12:00Z", "count_points": 1, "latitude": 49.29707, "longitude": 24.77608, "city": "Bilshivtsi", "images": []}, {"id": 408507, "min_date": "2019-03-15T00:12:00Z", "max_date": "2019-03-15T00:12:00Z", "count_points": 1, "latitude": 48.95123, "longitude": 24.29761, "city": "Novytsya", "images": []}, {"id": 408508, "min_date": "2019-03-15T10:00:00Z", "max_date": "2019-03-15T10:00:00Z", "count_points": 3, "latitude": 49.92007, "longitude": 27.3547, "city": "Starokostiantyniv", "images": []}, {"id": 408509, "min_date": "2019-03-15T10:00:00Z", "max_date": "2019-03-15T10:00:00Z", "count_points": 1, "latitude": 48.67757, "longitude": 25.08644, "city": "Obertyn", "images": []}, {"id": 408510, "min_date": "2019-03-15T10:00:00Z", "max_date": "2019-03-15T10:00:00Z", "count_points": 1, "latitude": 47.34298, "longitude": 31.58216, "city": "Nova Odesa", "images": []}, {"id": 408511, "min_date": "2019-03-15T10:00:00Z", "max_date": "2019-03-15T09:13:00Z", "count_points": 5, "latitude": 49.5051, "longitude": 28.66996, "city": "Nova Pryluka", "images": []}, {"id": 408512, "min_date": "2019-03-15T10:00:00Z", "max_date": "2019-03-15T10:58:00Z", "count_points": 5, "latitude": 49.30745, "longitude": 28.92401, "city": "Lypovets", "images": []}, {"id": 408513, "min_date": "2019-03-15T10:00:00Z", "max_date": "2019-03-15T10:00:00Z", "count_points": 3, "latitude": 49.78359, "longitude": 29.46108, "city": "Popilnya", "images": []}, {"id": 408514, "min_date": "2019-03-15T10:00:00Z", "max_date": "2019-03-15T10:00:00Z", "count_points": 1, "latitude": 49.84533, "longitude": 29.43722, "city": "Popilnya", "images": []}, {"id": 408515, "min_date": "2019-03-15T10:00:00Z", "max_date": "2019-03-15T10:00:00Z", "count_points": 2, "latitude": 49.90735, "longitude": 29.41404, "city": "Popilnya", "images": []}, {"id": 408516, "min_date": "2019-03-15T10:00:00Z", "max_date": "2019-03-15T10:00:00Z", "count_points": 1, "latitude": 48.98854, "longitude": 30.97507, "city": "Yerky", "images": []}, {"id": 408517, "min_date": "2019-03-15T10:00:00Z", "max_date": "2019-03-15T09:13:00Z", "count_points": 2, "latitude": 48.53624, "longitude": 29.61596, "city": "Viytivka", "images": []}, {"id": 408518, "min_date": "2019-03-15T10:00:00Z", "max_date": "2019-03-15T11:42:00Z", "count_points": 2, "latitude": 50.06083, "longitude": 31.1869, "city": "Rzhyshchiv", "images": []}, {"id": 408519, "min_date": "2019-03-15T10:00:00Z", "max_date": "2019-03-15T09:13:00Z", "count_points": 2, "latitude": 48.54503, "longitude": 29.20499, "city": "Trostyanets\u2019", "images": []}, {"id": 408520, "min_date": "2019-03-15T10:00:00Z", "max_date": "2019-03-15T10:00:00Z", "count_points": 1, "latitude": 49.57982, "longitude": 29.16197, "city": "Pohrebyshche", "images": []}, {"id": 408521, "min_date": "2019-03-15T10:00:00Z", "max_date": "2019-03-15T10:00:00Z", "count_points": 1, "latitude": 49.44697, "longitude": 30.58841, "city": "Tarashcha", "images": []}, {"id": 408522, "min_date": "2019-03-15T10:00:00Z", "max_date": "2019-03-15T10:00:00Z", "count_points": 2, "latitude": 49.53121, "longitude": 29.79143, "city": "Volodarka", "images": []}, {"id": 408523, "min_date": "2019-03-15T10:00:00Z", "max_date": "2019-03-15T09:13:00Z", "count_points": 5, "latitude": 49.23291, "longitude": 30.495, "city": "Kalynove", "images": []}, {"id": 408524, "min_date": "2019-03-15T10:00:00Z", "max_date": "2019-03-15T10:00:00Z", "count_points": 1, "latitude": 49.03378, "longitude": 30.4168, "city": "Buky", "images": []}, {"id": 408525, "min_date": "2019-03-15T10:00:00Z", "max_date": "2019-03-15T10:00:00Z", "count_points": 1, "latitude": 49.71748, "longitude": 30.33896, "city": "Uzyn", "images": []}, {"id": 408526, "min_date": "2019-03-15T10:00:00Z", "max_date": "2019-03-15T09:13:00Z", "count_points": 2, "latitude": 49.93016, "longitude": 29.34493, "city": "Popilnya", "images": []}, {"id": 408527, "min_date": "2019-03-15T10:00:00Z", "max_date": "2019-03-15T10:00:00Z", "count_points": 1, "latitude": 50.96375, "longitude": 31.23464, "city": "Kozelets\u2019", "images": []}, {"id": 408528, "min_date": "2019-03-15T10:00:00Z", "max_date": "2019-03-15T10:00:00Z", "count_points": 1, "latitude": 50.53699, "longitude": 31.02382, "city": "Trebukhiv", "images": []}, {"id": 408529, "min_date": "2019-03-15T10:00:00Z", "max_date": "2019-03-15T09:13:00Z", "count_points": 2, "latitude": 48.36223, "longitude": 26.08131, "city": "Boyany", "images": []}, {"id": 408530, "min_date": "2019-03-15T10:00:00Z", "max_date": "2019-03-15T10:00:00Z", "count_points": 1, "latitude": 50.94713, "longitude": 28.56765, "city": "Korosten\u2019", "images": []}, {"id": 408531, "min_date": "2019-03-15T10:00:00Z", "max_date": "2019-03-15T10:58:00Z", "count_points": 10, "latitude": 51.00991, "longitude": 30.89129, "city": "Oster", "images": []}, {"id": 408532, "min_date": "2019-03-15T10:00:00Z", "max_date": "2019-03-15T10:00:00Z", "count_points": 1, "latitude": 50.09114, "longitude": 29.09616, "city": "Andrushivka", "images": []}, {"id": 408533, "min_date": "2019-03-15T10:00:00Z", "max_date": "2019-03-15T10:58:00Z", "count_points": 8, "latitude": 51.05059, "longitude": 30.93123, "city": "Oster", "images": []}, {"id": 408534, "min_date": "2019-03-15T10:00:00Z", "max_date": "2019-03-15T10:58:00Z", "count_points": 5, "latitude": 51.12149, "longitude": 31.03664, "city": "Kozelets\u2019", "images": []}, {"id": 408535, "min_date": "2019-03-15T10:00:00Z", "max_date": "2019-03-15T10:00:00Z", "count_points": 2, "latitude": 48.51089, "longitude": 25.74207, "city": "Verenchanka", "images": []}, {"id": 408536, "min_date": "2019-03-15T10:00:00Z", "max_date": "2019-03-15T10:58:00Z", "count_points": 3, "latitude": 50.47175, "longitude": 30.79476, "city": "Knyazhichi", "images": []}, {"id": 408537, "min_date": "2019-03-15T10:00:00Z", "max_date": "2019-03-15T10:00:00Z", "count_points": 1, "latitude": 50.12566, "longitude": 29.69441, "city": "Kozhanka", "images": []}, {"id": 408538, "min_date": "2019-03-15T10:00:00Z", "max_date": "2019-03-15T10:58:00Z", "count_points": 17, "latitude": 51.23707, "longitude": 31.01042, "city": "Oster", "images": []}, {"id": 408539, "min_date": "2019-03-15T10:00:00Z", "max_date": "2019-03-15T10:58:00Z", "count_points": 4, "latitude": 48.40622, "longitude": 26.46152, "city": "Khotyn", "images": [{"image_url": "408539.jpg", "timestamp": "2019-03-15T10:58:00Z"}]}, {"id": 408540, "min_date": "2019-03-15T10:00:00Z", "max_date": "2019-03-15T10:00:00Z", "count_points": 1, "latitude": 50.4976, "longitude": 28.7408, "city": "Cherniakhiv", "images": []}, {"id": 408541, "min_date": "2019-03-15T10:00:00Z", "max_date": "2019-03-15T10:00:00Z", "count_points": 2, "latitude": 51.52797, "longitude": 31.48189, "city": "Sedniv", "images": []}, {"id": 408542, "min_date": "2019-03-15T10:00:00Z", "max_date": "2019-03-15T10:58:00Z", "count_points": 6, "latitude": 51.35058, "longitude": 32.12454, "city": "Mena", "images": []}, {"id": 408543, "min_date": "2019-03-15T10:00:00Z", "max_date": "2019-03-15T10:58:00Z", "count_points": 2, "latitude": 51.36329, "longitude": 31.55107, "city": "Kulykivka", "images": []}, {"id": 408544, "min_date": "2019-03-15T10:00:00Z", "max_date": "2019-03-15T09:12:00Z", "count_points": 3, "latitude": 51.16771, "longitude": 31.49537, "city": "Olyshivka", "images": []}, {"id": 408545, "min_date": "2019-03-15T10:00:00Z", "max_date": "2019-03-15T10:00:00Z", "count_points": 1, "latitude": 51.67193, "longitude": 31.44289, "city": "Sedniv", "images": []}, {"id": 408546, "min_date": "2019-03-15T10:00:00Z", "max_date": "2019-03-15T10:00:00Z", "count_points": 2, "latitude": 51.63856, "longitude": 32.22145, "city": "Mena", "images": []}, {"id": 408547, "min_date": "2019-03-15T10:00:00Z", "max_date": "2019-03-15T09:12:00Z", "count_points": 3, "latitude": 51.29948, "longitude": 31.08488, "city": "Olyshivka", "images": []}, {"id": 408548, "min_date": "2019-03-15T10:00:00Z", "max_date": "2019-03-15T10:58:00Z", "count_points": 7, "latitude": 50.46845, "longitude": 31.19543, "city": "Kirove", "images": []}, {"id": 408549, "min_date": "2019-03-15T10:00:00Z", "max_date": "2019-03-15T10:00:00Z", "count_points": 1, "latitude": 50.28358, "longitude": 31.9641, "city": "Chernyakhivka", "images": []}, {"id": 408550, "min_date": "2019-03-15T10:00:00Z", "max_date": "2019-03-15T10:00:00Z", "count_points": 2, "latitude": 49.46918, "longitude": 26.79913, "city": "Narkevychi", "images": []}, {"id": 408551, "min_date": "2019-03-15T10:00:00Z", "max_date": "2019-03-15T10:00:00Z", "count_points": 1, "latitude": 49.6689, "longitude": 26.53215, "city": "Bazaliya", "images": []}, {"id": 408552, "min_date": "2019-03-15T10:00:00Z", "max_date": "2019-03-15T10:00:00Z", "count_points": 1, "latitude": 49.36306, "longitude": 26.04925, "city": "Hrymayliv", "images": []}, {"id": 408553, "min_date": "2019-03-15T10:00:00Z", "max_date": "2019-03-15T10:00:00Z", "count_points": 1, "latitude": 48.05439, "longitude": 29.76262, "city": "Peschana", "images": []}, {"id": 408554, "min_date": "2019-03-15T10:00:00Z", "max_date": "2019-03-15T10:00:00Z", "count_points": 1, "latitude": 49.50919, "longitude": 26.24682, "city": "Volochysk", "images": []}, {"id": 408555, "min_date": "2019-03-15T10:00:00Z", "max_date": "2019-03-15T10:00:00Z", "count_points": 1, "latitude": 49.18182, "longitude": 26.69686, "city": "Horodok", "images": []}, {"id": 408556, "min_date": "2019-03-15T10:00:00Z", "max_date": "2019-03-15T10:00:00Z", "count_points": 2, "latitude": 50.61136, "longitude": 31.1941, "city": "Bobrovytsya", "images": []}, {"id": 408557, "min_date": "2019-03-15T10:00:00Z", "max_date": "2019-03-15T10:58:00Z", "count_points": 3, "latitude": 50.62909, "longitude": 31.15045, "city": "Semypolky", "images": []}, {"id": 408558, "min_date": "2019-03-15T10:00:00Z", "max_date": "2019-03-15T10:58:00Z", "count_points": 4, "latitude": 50.04423, "longitude": 27.50031, "city": "Novoselytsya", "images": []}, {"id": 408559, "min_date": "2019-03-15T10:00:00Z", "max_date": "2019-03-15T10:00:00Z", "count_points": 2, "latitude": 49.48846, "longitude": 28.34461, "city": "Pavlovka", "images": []}, {"id": 408560, "min_date": "2019-03-15T10:00:00Z", "max_date": "2019-03-15T11:42:00Z", "count_points": 6, "latitude": 49.69439, "longitude": 27.77922, "city": "Stara Syniava", "images": []}, {"id": 408561, "min_date": "2019-03-15T10:00:00Z", "max_date": "2019-03-15T10:00:00Z", "count_points": 1, "latitude": 49.57423, "longitude": 28.43004, "city": "Pavlovka", "images": []}, {"id": 408562, "min_date": "2019-03-15T10:00:00Z", "max_date": "2019-03-15T10:58:00Z", "count_points": 3, "latitude": 49.71066, "longitude": 27.88091, "city": "Khmilnyk", "images": []}, {"id": 408563, "min_date": "2019-03-15T10:00:00Z", "max_date": "2019-03-15T09:13:00Z", "count_points": 4, "latitude": 50.05491, "longitude": 28.06288, "city": "Chudniv", "images": [{"image_url": "408563.jpg", "timestamp": "2019-03-15T09:13:00Z"}]}, {"id": 408564, "min_date": "2019-03-15T10:00:00Z", "max_date": "2019-03-15T10:00:00Z", "count_points": 2, "latitude": 48.90198, "longitude": 27.83992, "city": "Kopayhorod", "images": []}, {"id": 408565, "min_date": "2019-03-15T10:00:00Z", "max_date": "2019-03-15T10:00:00Z", "count_points": 1, "latitude": 49.75669, "longitude": 26.63859, "city": "Bazaliya", "images": []}, {"id": 408566, "min_date": "2019-03-15T10:00:00Z", "max_date": "2019-03-15T11:42:00Z", "count_points": 2, "latitude": 49.63617, "longitude": 27.67376, "city": "Stara Syniava", "images": []}, {"id": 408567, "min_date": "2019-03-15T10:00:00Z", "max_date": "2019-03-15T09:12:00Z", "count_points": 5, "latitude": 50.36707, "longitude": 31.83546, "city": "Yahotyn", "images": []}, {"id": 408568, "min_date": "2019-03-15T10:00:00Z", "max_date": "2019-03-15T10:00:00Z", "count_points": 2, "latitude": 49.35929, "longitude": 26.55812, "city": "Narkevychi", "images": []}, {"id": 408569, "min_date": "2019-03-15T10:00:00Z", "max_date": "2019-03-15T10:58:00Z", "count_points": 4, "latitude": 50.21419, "longitude": 31.92749, "city": "Chernyakhivka", "images": []}, {"id": 408570, "min_date": "2019-03-15T10:00:00Z", "max_date": "2019-03-15T10:00:00Z", "count_points": 1, "latitude": 47.40427, "longitude": 30.45342, "city": "Shyryayeve", "images": []}, {"id": 408571, "min_date": "2019-03-15T10:00:00Z", "max_date": "2019-03-15T10:00:00Z", "count_points": 1, "latitude": 48.97476, "longitude": 27.16554, "city": "Vinkivtsi", "images": []}, {"id": 408572, "min_date": "2019-03-15T10:00:00Z", "max_date": "2019-03-15T10:00:00Z", "count_points": 1, "latitude": 50.22654, "longitude": 31.44012, "city": "Pereyaslav-Khmel\u2019nyts\u2019kyy", "images": []}, {"id": 408573, "min_date": "2019-03-15T10:00:00Z", "max_date": "2019-03-15T10:00:00Z", "count_points": 1, "latitude": 49.07159, "longitude": 26.96001, "city": "Dunayivtsi", "images": []}, {"id": 408574, "min_date": "2019-03-15T10:00:00Z", "max_date": "2019-03-15T10:00:00Z", "count_points": 1, "latitude": 49.00029, "longitude": 26.93016, "city": "Dunayivtsi", "images": []}, {"id": 408575, "min_date": "2019-03-15T11:42:00Z", "max_date": "2019-03-15T11:42:00Z", "count_points": 1, "latitude": 48.96241, "longitude": 26.96279, "city": "Dunaivtsi", "images": []}, {"id": 408576, "min_date": "2019-03-15T11:42:00Z", "max_date": "2019-03-15T11:42:00Z", "count_points": 1, "latitude": 51.30662, "longitude": 31.49029, "city": "Kulykivka", "images": []}, {"id": 408577, "min_date": "2019-03-15T11:42:00Z", "max_date": "2019-03-15T11:42:00Z", "count_points": 4, "latitude": 51.18045, "longitude": 31.28972, "city": "Olyshivka", "images": []}, {"id": 408578, "min_date": "2019-03-15T11:42:00Z", "max_date": "2019-03-15T11:42:00Z", "count_points": 1, "latitude": 48.59781, "longitude": 29.01801, "city": "Tulchyn", "images": []}, {"id": 408579, "min_date": "2019-03-15T11:42:00Z", "max_date": "2019-03-15T10:58:00Z", "count_points": 5, "latitude": 48.59117, "longitude": 28.55186, "city": "Tomashpil\u2019", "images": []}, {"id": 408580, "min_date": "2019-03-15T11:42:00Z", "max_date": "2019-03-15T10:58:00Z", "count_points": 2, "latitude": 49.37026, "longitude": 29.47445, "city": "Orativ", "images": []}, {"id": 408581, "min_date": "2019-03-15T11:42:00Z", "max_date": "2019-03-15T11:42:00Z", "count_points": 1, "latitude": 49.22645, "longitude": 28.76995, "city": "Turbiv", "images": []}, {"id": 408582, "min_date": "2019-03-15T11:42:00Z", "max_date": "2019-03-15T11:42:00Z", "count_points": 2, "latitude": 49.1009, "longitude": 28.89758, "city": "Nemyriv", "images": []}, {"id": 408583, "min_date": "2019-03-15T11:42:00Z", "max_date": "2019-03-15T11:42:00Z", "count_points": 1, "latitude": 49.8487, "longitude": 30.34959, "city": "Uzyn", "images": []}, {"id": 408584, "min_date": "2019-03-15T11:42:00Z", "max_date": "2019-03-15T11:42:00Z", "count_points": 1, "latitude": 48.55689, "longitude": 27.33977, "city": "Novodnistrovs\u2019k", "images": []}, {"id": 408585, "min_date": "2019-03-15T11:42:00Z", "max_date": "2019-03-15T09:13:00Z", "count_points": 2, "latitude": 47.99363, "longitude": 29.73801, "city": "Balta", "images": []}, {"id": 408586, "min_date": "2019-03-15T11:42:00Z", "max_date": "2019-03-15T11:42:00Z", "count_points": 2, "latitude": 46.92668, "longitude": 29.80159, "city": "Velykoploske", "images": []}, {"id": 408587, "min_date": "2019-03-15T11:42:00Z", "max_date": "2019-03-15T10:58:00Z", "count_points": 5, "latitude": 50.32671, "longitude": 29.89153, "city": "Makariv", "images": []}, {"id": 408588, "min_date": "2019-03-15T11:42:00Z", "max_date": "2019-03-15T11:42:00Z", "count_points": 2, "latitude": 50.3032, "longitude": 28.94627, "city": "Korostyshiv", "images": []}, {"id": 408589, "min_date": "2019-03-15T11:42:00Z", "max_date": "2019-03-15T10:58:00Z", "count_points": 4, "latitude": 51.15311, "longitude": 30.95531, "city": "Oster", "images": []}, {"id": 408590, "min_date": "2019-03-15T11:42:00Z", "max_date": "2019-03-15T11:42:00Z", "count_points": 1, "latitude": 50.61908, "longitude": 29.89815, "city": "Borodianka", "images": []}, {"id": 408591, "min_date": "2019-03-15T11:42:00Z", "max_date": "2019-03-15T10:58:00Z", "count_points": 3, "latitude": 50.58215, "longitude": 30.6283, "city": "Pukhivka", "images": []}, {"id": 408592, "min_date": "2019-03-15T11:42:00Z", "max_date": "2019-03-15T11:42:00Z", "count_points": 2, "latitude": 50.80313, "longitude": 30.14698, "city": "Katyuzhanka", "images": []}, {"id": 408593, "min_date": "2019-03-15T11:42:00Z", "max_date": "2019-03-15T10:58:00Z", "count_points": 6, "latitude": 50.93297, "longitude": 31.21868, "city": "Kozelets\u2019", "images": []}, {"id": 408594, "min_date": "2019-03-15T11:42:00Z", "max_date": "2019-03-15T11:42:00Z", "count_points": 1, "latitude": 47.02403, "longitude": 30.82628, "city": "Kurisove", "images": []}, {"id": 408595, "min_date": "2019-03-15T11:42:00Z", "max_date": "2019-03-15T10:58:00Z", "count_points": 2, "latitude": 49.559, "longitude": 27.07357, "city": "Krasyliv", "images": []}, {"id": 408596, "min_date": "2019-03-15T11:42:00Z", "max_date": "2019-03-15T11:42:00Z", "count_points": 1, "latitude": 49.39017, "longitude": 26.8237, "city": "Khmelnytskyi", "images": []}, {"id": 408597, "min_date": "2019-03-15T11:42:00Z", "max_date": "2019-03-15T11:42:00Z", "count_points": 1, "latitude": 49.54324, "longitude": 27.27089, "city": "Medzhybizh", "images": []}, {"id": 408598, "min_date": "2019-03-15T11:42:00Z", "max_date": "2019-03-15T11:42:00Z", "count_points": 1, "latitude": 49.76151, "longitude": 28.13053, "city": "Ulaniv", "images": []}, {"id": 408599, "min_date": "2019-03-15T11:42:00Z", "max_date": "2019-03-15T11:42:00Z", "count_points": 1, "latitude": 49.69142, "longitude": 28.20411, "city": "Ulaniv", "images": []}, {"id": 408600, "min_date": "2019-03-15T11:42:00Z", "max_date": "2019-03-15T11:42:00Z", "count_points": 1, "latitude": 48.34827, "longitude": 28.2414, "city": "Yampil\u2019", "images": []}, {"id": 408601, "min_date": "2019-03-15T11:42:00Z", "max_date": "2019-03-15T11:42:00Z", "count_points": 1, "latitude": 50.23774, "longitude": 31.81323, "city": "Yahotyn", "images": []}, {"id": 408602, "min_date": "2019-03-15T11:42:00Z", "max_date": "2019-03-15T11:42:00Z", "count_points": 1, "latitude": 50.3764, "longitude": 31.13011, "city": "Kirove", "images": []}, {"id": 408603, "min_date": "2019-03-15T11:42:00Z", "max_date": "2019-03-15T11:42:00Z", "count_points": 1, "latitude": 50.91768, "longitude": 31.08346, "city": "Kozelets\u2019", "images": []}, {"id": 408604, "min_date": "2019-03-15T11:42:00Z", "max_date": "2019-03-15T23:54:00Z", "count_points": 3, "latitude": 50.72396, "longitude": 31.14004, "city": "Kozelets\u2019", "images": []}, {"id": 408605, "min_date": "2019-03-15T11:42:00Z", "max_date": "2019-03-15T11:42:00Z", "count_points": 1, "latitude": 51.04047, "longitude": 31.75833, "city": "Nizhyn", "images": []}, {"id": 408606, "min_date": "2019-03-15T11:42:00Z", "max_date": "2019-03-15T11:42:00Z", "count_points": 1, "latitude": 49.81082, "longitude": 27.78702, "city": "Liubar", "images": []}, {"id": 408607, "min_date": "2019-03-15T11:42:00Z", "max_date": "2019-03-15T11:42:00Z", "count_points": 1, "latitude": 50.11279, "longitude": 27.90558, "city": "Romaniv", "images": []}, {"id": 408608, "min_date": "2019-03-15T11:42:00Z", "max_date": "2019-03-15T11:42:00Z", "count_points": 1, "latitude": 49.69813, "longitude": 27.72474, "city": "Stara Syniava", "images": []}, {"id": 408609, "min_date": "2019-03-15T11:42:00Z", "max_date": "2019-03-15T11:42:00Z", "count_points": 1, "latitude": 49.31223, "longitude": 28.41129, "city": "Vinnytsia", "images": []}, {"id": 408610, "min_date": "2019-03-15T11:42:00Z", "max_date": "2019-03-15T11:42:00Z", "count_points": 1, "latitude": 49.55116, "longitude": 28.23353, "city": "Ulaniv", "images": []}, {"id": 408611, "min_date": "2019-03-15T23:54:00Z", "max_date": "2019-03-15T23:54:00Z", "count_points": 1, "latitude": 48.78603, "longitude": 28.17243, "city": "Sharhorod", "images": []}, {"id": 408612, "min_date": "2019-03-15T23:54:00Z", "max_date": "2019-03-15T23:54:00Z", "count_points": 1, "latitude": 48.13333, "longitude": 29.36344, "city": "Chechelnyk", "images": []}, {"id": 408613, "min_date": "2019-03-15T23:54:00Z", "max_date": "2019-03-15T23:54:00Z", "count_points": 1, "latitude": 50.43761, "longitude": 30.92198, "city": "Trebukhiv", "images": []}, {"id": 408614, "min_date": "2019-03-15T23:54:00Z", "max_date": "2019-03-15T23:54:00Z", "count_points": 4, "latitude": 50.72347, "longitude": 30.99473, "city": "Semypolky", "images": []}, {"id": 408615, "min_date": "2019-03-15T23:54:00Z", "max_date": "2019-03-15T23:54:00Z", "count_points": 1, "latitude": 50.28755, "longitude": 28.68798, "city": "Zhytomyr", "images": []}, {"id": 408616, "min_date": "2019-03-15T23:54:00Z", "max_date": "2019-03-15T23:54:00Z", "count_points": 2, "latitude": 51.13349, "longitude": 29.49487, "city": "Krasyatychi", "images": []}, {"id": 408617, "min_date": "2019-03-15T23:54:00Z", "max_date": "2019-03-17T11:00:00Z", "count_points": 4, "latitude": 50.49143, "longitude": 28.8997, "city": "Holovyne", "images": [{"image_url": "408617.jpg", "timestamp": "2019-03-17T11:00:00Z"}]}, {"id": 408618, "min_date": "2019-03-15T23:54:00Z", "max_date": "2019-03-15T23:54:00Z", "count_points": 1, "latitude": 51.15557, "longitude": 28.91926, "city": "Narodychi", "images": []}, {"id": 408619, "min_date": "2019-03-15T23:54:00Z", "max_date": "2019-03-15T23:54:00Z", "count_points": 2, "latitude": 50.95032, "longitude": 29.08527, "city": "Chopovychi", "images": []}, {"id": 408620, "min_date": "2019-03-15T23:54:00Z", "max_date": "2019-03-15T23:54:00Z", "count_points": 1, "latitude": 50.05367, "longitude": 30.24702, "city": "Vasylkiv", "images": []}, {"id": 408621, "min_date": "2019-03-15T23:54:00Z", "max_date": "2019-03-15T23:54:00Z", "count_points": 1, "latitude": 49.49093, "longitude": 29.35096, "city": "Pohrebyshche", "images": []}, {"id": 408622, "min_date": "2019-03-15T23:54:00Z", "max_date": "2019-03-15T23:54:00Z", "count_points": 1, "latitude": 48.32975, "longitude": 28.62162, "city": "Klembivka", "images": []}, {"id": 408623, "min_date": "2019-03-15T23:54:00Z", "max_date": "2019-03-15T23:54:00Z", "count_points": 1, "latitude": 48.14782, "longitude": 33.53469, "city": "Zhovti Vody", "images": []}, {"id": 408624, "min_date": "2019-03-16T01:30:00Z", "max_date": "2019-03-16T01:30:00Z", "count_points": 2, "latitude": 51.05208, "longitude": 30.28469, "city": "Dymer", "images": []}, {"id": 408625, "min_date": "2019-03-16T01:30:00Z", "max_date": "2019-03-16T01:30:00Z", "count_points": 1, "latitude": 51.04364, "longitude": 29.62285, "city": "Krasyatychi", "images": []}, {"id": 408626, "min_date": "2019-03-16T09:42:00Z", "max_date": "2019-03-16T09:42:00Z", "count_points": 1, "latitude": 47.92189, "longitude": 33.93869, "city": "Sofiyivka", "images": []}, {"id": 408627, "min_date": "2019-03-16T09:42:00Z", "max_date": "2019-03-16T09:42:00Z", "count_points": 1, "latitude": 47.79019, "longitude": 33.57358, "city": "Apostolove", "images": []}, {"id": 408628, "min_date": "2019-03-16T09:42:00Z", "max_date": "2019-03-16T09:42:00Z", "count_points": 1, "latitude": 48.34573, "longitude": 34.06338, "city": "Vyshneve", "images": []}, {"id": 408629, "min_date": "2019-03-16T09:42:00Z", "max_date": "2019-03-16T09:42:00Z", "count_points": 1, "latitude": 47.63493, "longitude": 33.84364, "city": "Apostolove", "images": []}, {"id": 408630, "min_date": "2019-03-16T09:42:00Z", "max_date": "2019-03-16T10:02:00Z", "count_points": 9, "latitude": 47.2999, "longitude": 34.05906, "city": "Velyka Lepetykha", "images": [{"image_url": "408630.jpg", "timestamp": "2019-03-16T10:02:00Z"}]}, {"id": 408631, "min_date": "2019-03-16T09:42:00Z", "max_date": "2019-03-16T09:42:00Z", "count_points": 2, "latitude": 47.97006, "longitude": 33.47424, "city": "Kryvyi Rih", "images": []}, {"id": 408632, "min_date": "2019-03-16T09:42:00Z", "max_date": "2019-03-16T09:42:00Z", "count_points": 1, "latitude": 46.19801, "longitude": 33.54033, "city": "Chaplynka", "images": []}, {"id": 408633, "min_date": "2019-03-16T09:42:00Z", "max_date": "2019-03-16T09:42:00Z", "count_points": 3, "latitude": 46.65893, "longitude": 32.55596, "city": "Chornobayivka", "images": []}, {"id": 408634, "min_date": "2019-03-16T09:42:00Z", "max_date": "2019-03-16T09:42:00Z", "count_points": 1, "latitude": 47.76071, "longitude": 35.36686, "city": "Malokaterynivka", "images": []}, {"id": 408635, "min_date": "2019-03-16T09:42:00Z", "max_date": "2019-03-16T09:42:00Z", "count_points": 1, "latitude": 49.5497, "longitude": 34.68265, "city": "Poltava", "images": []}, {"id": 408636, "min_date": "2019-03-16T09:42:00Z", "max_date": "2019-03-16T10:03:00Z", "count_points": 7, "latitude": 49.17845, "longitude": 34.93658, "city": "Hupalivka", "images": []}, {"id": 408637, "min_date": "2019-03-16T09:42:00Z", "max_date": "2019-03-16T09:42:00Z", "count_points": 1, "latitude": 48.66023, "longitude": 36.26864, "city": "Lozova", "images": []}, {"id": 408638, "min_date": "2019-03-16T09:42:00Z", "max_date": "2019-03-16T09:42:00Z", "count_points": 1, "latitude": 48.55546, "longitude": 32.91829, "city": "Nova Praha", "images": []}, {"id": 408639, "min_date": "2019-03-16T09:42:00Z", "max_date": "2019-03-16T09:42:00Z", "count_points": 2, "latitude": 48.78254, "longitude": 34.81074, "city": "Mahdalynivka", "images": []}, {"id": 408640, "min_date": "2019-03-16T09:42:00Z", "max_date": "2019-03-16T09:42:00Z", "count_points": 1, "latitude": 49.04271, "longitude": 33.74896, "city": "Horishni Plavni", "images": []}, {"id": 408641, "min_date": "2019-03-16T09:42:00Z", "max_date": "2019-03-16T09:42:00Z", "count_points": 1, "latitude": 49.27485, "longitude": 35.32191, "city": "Zachepylivka", "images": []}, {"id": 408642, "min_date": "2019-03-16T09:42:00Z", "max_date": "2019-03-16T09:42:00Z", "count_points": 1, "latitude": 46.72366, "longitude": 32.86684, "city": "Kozachi Laheri", "images": []}, {"id": 408643, "min_date": "2019-03-16T09:42:00Z", "max_date": "2019-03-16T09:42:00Z", "count_points": 3, "latitude": 48.45671, "longitude": 34.84908, "city": "Dnipro", "images": []}, {"id": 408644, "min_date": "2019-03-16T09:42:00Z", "max_date": "2019-03-16T09:42:00Z", "count_points": 1, "latitude": 49.61428, "longitude": 34.35535, "city": "Poltava", "images": []}, {"id": 408645, "min_date": "2019-03-16T09:42:00Z", "max_date": "2019-03-16T09:42:00Z", "count_points": 1, "latitude": 49.32804, "longitude": 34.96507, "city": "Mashivka", "images": []}, {"id": 408646, "min_date": "2019-03-16T09:42:00Z", "max_date": "2019-03-16T10:03:00Z", "count_points": 14, "latitude": 48.8951, "longitude": 34.38813, "city": "Tsarychanka", "images": []}, {"id": 408647, "min_date": "2019-03-16T09:42:00Z", "max_date": "2019-03-16T09:42:00Z", "count_points": 1, "latitude": 49.78881, "longitude": 34.10692, "city": "Shyshaky", "images": []}, {"id": 408648, "min_date": "2019-03-16T09:42:00Z", "max_date": "2019-03-16T09:42:00Z", "count_points": 1, "latitude": 47.86451, "longitude": 34.50329, "city": "Novopokrovka", "images": []}, {"id": 408649, "min_date": "2019-03-16T09:42:00Z", "max_date": "2019-03-16T09:42:00Z", "count_points": 1, "latitude": 47.40122, "longitude": 35.40928, "city": "Vasylivka", "images": []}, {"id": 408650, "min_date": "2019-03-16T09:42:00Z", "max_date": "2019-03-16T09:42:00Z", "count_points": 2, "latitude": 45.65973, "longitude": 34.35224, "city": "Novostepnoye", "images": []}, {"id": 408651, "min_date": "2019-03-16T09:42:00Z", "max_date": "2019-03-16T11:18:00Z", "count_points": 2, "latitude": 48.26586, "longitude": 34.89311, "city": "Solone", "images": []}, {"id": 408652, "min_date": "2019-03-16T09:42:00Z", "max_date": "2019-03-16T09:42:00Z", "count_points": 2, "latitude": 47.86434, "longitude": 34.40456, "city": "Chervonohryhorivka", "images": []}, {"id": 408653, "min_date": "2019-03-16T09:42:00Z", "max_date": "2019-03-16T09:42:00Z", "count_points": 1, "latitude": 48.18503, "longitude": 34.87724, "city": "Solone", "images": []}, {"id": 408654, "min_date": "2019-03-16T09:42:00Z", "max_date": "2019-03-16T09:42:00Z", "count_points": 1, "latitude": 47.80592, "longitude": 34.43815, "city": "Chervonohryhorivka", "images": []}, {"id": 408655, "min_date": "2019-03-16T09:42:00Z", "max_date": "2019-03-16T11:18:00Z", "count_points": 3, "latitude": 47.88624, "longitude": 34.88653, "city": "Tomakivka", "images": []}, {"id": 408656, "min_date": "2019-03-16T09:42:00Z", "max_date": "2019-03-16T11:18:00Z", "count_points": 2, "latitude": 47.38567, "longitude": 34.41401, "city": "Kamenka-Na-Dnepre", "images": []}, {"id": 408657, "min_date": "2019-03-16T09:42:00Z", "max_date": "2019-03-16T09:42:00Z", "count_points": 1, "latitude": 47.33033, "longitude": 35.03656, "city": "Dniprorudne", "images": []}, {"id": 408658, "min_date": "2019-03-16T09:42:00Z", "max_date": "2019-03-16T09:42:00Z", "count_points": 1, "latitude": 48.72737, "longitude": 33.75809, "city": "Lykhivka", "images": []}, {"id": 408659, "min_date": "2019-03-16T09:42:00Z", "max_date": "2019-03-16T11:18:00Z", "count_points": 5, "latitude": 49.24318, "longitude": 35.08088, "city": "Zachepylivka", "images": []}, {"id": 408660, "min_date": "2019-03-16T09:42:00Z", "max_date": "2019-03-16T09:42:00Z", "count_points": 1, "latitude": 47.66822, "longitude": 33.01668, "city": "Shyroke", "images": []}, {"id": 408661, "min_date": "2019-03-16T09:42:00Z", "max_date": "2019-03-16T09:42:00Z", "count_points": 2, "latitude": 47.0339, "longitude": 32.5174, "city": "Snihurivka", "images": []}, {"id": 408662, "min_date": "2019-03-16T09:42:00Z", "max_date": "2019-03-16T09:42:00Z", "count_points": 1, "latitude": 47.83002, "longitude": 33.08647, "city": "Shyroke", "images": []}, {"id": 408663, "min_date": "2019-03-16T09:42:00Z", "max_date": "2019-03-16T09:42:00Z", "count_points": 1, "latitude": 48.18774, "longitude": 33.2906, "city": "Lozuvatka", "images": []}, {"id": 408664, "min_date": "2019-03-16T09:42:00Z", "max_date": "2019-03-16T09:42:00Z", "count_points": 1, "latitude": 49.1384, "longitude": 33.75657, "city": "Kozel\u2019shchyna", "images": []}, {"id": 408665, "min_date": "2019-03-16T09:42:00Z", "max_date": "2019-03-16T09:42:00Z", "count_points": 1, "latitude": 48.60491, "longitude": 33.86468, "city": "Lykhivka", "images": []}, {"id": 408666, "min_date": "2019-03-16T09:42:00Z", "max_date": "2019-03-16T09:42:00Z", "count_points": 1, "latitude": 49.18471, "longitude": 34.00847, "city": "Lutovynivka", "images": []}, {"id": 408667, "min_date": "2019-03-16T09:42:00Z", "max_date": "2019-03-16T11:18:00Z", "count_points": 2, "latitude": 48.56508, "longitude": 34.92471, "city": "Dnipro", "images": []}, {"id": 408668, "min_date": "2019-03-16T11:18:00Z", "max_date": "2019-03-16T11:18:00Z", "count_points": 2, "latitude": 49.06944, "longitude": 35.26326, "city": "Zachepylivka", "images": []}, {"id": 408669, "min_date": "2019-03-16T11:18:00Z", "max_date": "2019-03-16T11:18:00Z", "count_points": 2, "latitude": 49.42445, "longitude": 34.98416, "city": "Mashivka", "images": []}, {"id": 408670, "min_date": "2019-03-16T11:18:00Z", "max_date": "2019-03-16T11:18:00Z", "count_points": 1, "latitude": 49.23956, "longitude": 34.73117, "city": "Hupalivka", "images": []}, {"id": 408671, "min_date": "2019-03-16T11:18:00Z", "max_date": "2019-03-16T11:18:00Z", "count_points": 5, "latitude": 49.49709, "longitude": 34.90262, "city": "Mashivka", "images": []}, {"id": 408672, "min_date": "2019-03-16T11:18:00Z", "max_date": "2019-03-16T11:18:00Z", "count_points": 1, "latitude": 48.89143, "longitude": 34.58151, "city": "Tsarychanka", "images": []}, {"id": 408673, "min_date": "2019-03-16T11:18:00Z", "max_date": "2019-03-16T11:18:00Z", "count_points": 1, "latitude": 46.91213, "longitude": 34.6649, "city": "Ivanivka", "images": []}, {"id": 408674, "min_date": "2019-03-16T11:18:00Z", "max_date": "2019-03-16T11:18:00Z", "count_points": 3, "latitude": 48.02317, "longitude": 34.99226, "city": "Solone", "images": []}, {"id": 408675, "min_date": "2019-03-16T11:18:00Z", "max_date": "2019-03-16T11:18:00Z", "count_points": 2, "latitude": 48.48573, "longitude": 34.9004, "city": "Dnipro", "images": []}, {"id": 408676, "min_date": "2019-03-16T11:18:00Z", "max_date": "2019-03-16T11:18:00Z", "count_points": 3, "latitude": 48.52736, "longitude": 35.67158, "city": "Pavlohrad", "images": []}, {"id": 408677, "min_date": "2019-03-16T11:18:00Z", "max_date": "2019-03-16T11:18:00Z", "count_points": 1, "latitude": 48.26794, "longitude": 35.01433, "city": "Aviatorske", "images": []}, {"id": 408678, "min_date": "2019-03-16T11:18:00Z", "max_date": "2019-03-16T11:18:00Z", "count_points": 2, "latitude": 47.41798, "longitude": 34.2849, "city": "Kamenka-Na-Dnepre", "images": []}, {"id": 408679, "min_date": "2019-03-16T11:18:00Z", "max_date": "2019-03-16T11:18:00Z", "count_points": 1, "latitude": 47.95813, "longitude": 34.40377, "city": "Novopokrovka", "images": []}, {"id": 408680, "min_date": "2019-03-16T11:18:00Z", "max_date": "2019-03-16T11:18:00Z", "count_points": 1, "latitude": 48.35966, "longitude": 34.41962, "city": "Krynychky", "images": []}, {"id": 408681, "min_date": "2019-03-16T11:18:00Z", "max_date": "2019-03-16T11:18:00Z", "count_points": 2, "latitude": 45.9258, "longitude": 33.92885, "city": "Vishnyovka", "images": []}, {"id": 408682, "min_date": "2019-03-16T11:18:00Z", "max_date": "2019-03-16T11:18:00Z", "count_points": 1, "latitude": 49.29964, "longitude": 35.35337, "city": "Krasnohrad", "images": []}, {"id": 408683, "min_date": "2019-03-16T11:18:00Z", "max_date": "2019-03-16T11:18:00Z", "count_points": 1, "latitude": 48.45364, "longitude": 36.09209, "city": "Pavlohrad", "images": []}, {"id": 408684, "min_date": "2019-03-16T11:18:00Z", "max_date": "2019-03-16T11:18:00Z", "count_points": 2, "latitude": 48.13859, "longitude": 36.20975, "city": "Pokrovs\u2019ke", "images": []}, {"id": 408685, "min_date": "2019-03-16T11:18:00Z", "max_date": "2019-03-16T11:18:00Z", "count_points": 1, "latitude": 48.88749, "longitude": 35.52401, "city": "Hubynykha", "images": []}, {"id": 408686, "min_date": "2019-03-16T11:18:00Z", "max_date": "2019-03-16T11:18:00Z", "count_points": 1, "latitude": 48.469, "longitude": 35.65694, "city": "Synel\u2019nykove", "images": []}, {"id": 408687, "min_date": "2019-03-16T11:18:00Z", "max_date": "2019-03-16T11:18:00Z", "count_points": 1, "latitude": 48.87651, "longitude": 35.55524, "city": "Melioratyvne", "images": []}, {"id": 408688, "min_date": "2019-03-16T11:18:00Z", "max_date": "2019-03-16T11:18:00Z", "count_points": 1, "latitude": 48.64858, "longitude": 35.17215, "city": "Novomoskovs\u2019k", "images": []}, {"id": 408689, "min_date": "2019-03-16T11:18:00Z", "max_date": "2019-03-16T11:18:00Z", "count_points": 1, "latitude": 48.75131, "longitude": 35.10901, "city": "Spas\u2019ke", "images": []}, {"id": 408690, "min_date": "2019-03-16T11:18:00Z", "max_date": "2019-03-16T11:18:00Z", "count_points": 1, "latitude": 47.61641, "longitude": 36.0315, "city": "Zaliznychne", "images": []}, {"id": 408691, "min_date": "2019-03-16T11:18:00Z", "max_date": "2019-03-16T11:18:00Z", "count_points": 1, "latitude": 48.66356, "longitude": 34.67565, "city": "Petrykivka", "images": []}, {"id": 408692, "min_date": "2019-03-16T11:18:00Z", "max_date": "2019-03-16T11:18:00Z", "count_points": 1, "latitude": 48.85416, "longitude": 35.07123, "city": "Mahdalynivka", "images": []}, {"id": 408693, "min_date": "2019-03-16T11:18:00Z", "max_date": "2019-03-16T11:18:00Z", "count_points": 1, "latitude": 48.56229, "longitude": 34.24129, "city": "Verkhn\u2019odniprovs\u2019k", "images": []}, {"id": 408694, "min_date": "2019-03-16T11:18:00Z", "max_date": "2019-03-16T11:18:00Z", "count_points": 1, "latitude": 48.80838, "longitude": 35.06178, "city": "Spas\u2019ke", "images": []}, {"id": 408695, "min_date": "2019-03-16T11:18:00Z", "max_date": "2019-03-16T11:18:00Z", "count_points": 1, "latitude": 46.94692, "longitude": 34.38981, "city": "Nyzhni Sirohozy", "images": []}, {"id": 408696, "min_date": "2019-03-16T11:18:00Z", "max_date": "2019-03-16T11:18:00Z", "count_points": 1, "latitude": 47.23946, "longitude": 35.66727, "city": "Tokmak", "images": []}, {"id": 408697, "min_date": "2019-03-16T11:18:00Z", "max_date": "2019-03-16T11:40:00Z", "count_points": 14, "latitude": 47.32721, "longitude": 34.51308, "city": "Dniprovka", "images": []}, {"id": 408698, "min_date": "2019-03-16T11:18:00Z", "max_date": "2019-03-16T11:18:00Z", "count_points": 1, "latitude": 47.68782, "longitude": 34.70803, "city": "Marhanets\u2019", "images": []}, {"id": 408699, "min_date": "2019-03-16T11:18:00Z", "max_date": "2019-03-16T11:18:00Z", "count_points": 1, "latitude": 47.15479, "longitude": 34.69442, "city": "Velyka Bilozerka", "images": []}, {"id": 408700, "min_date": "2019-03-16T11:18:00Z", "max_date": "2019-03-16T11:18:00Z", "count_points": 1, "latitude": 48.2224, "longitude": 34.611, "city": "Surs\u2019ko-Mykhaylivka", "images": []}, {"id": 408701, "min_date": "2019-03-16T11:18:00Z", "max_date": "2019-03-16T11:18:00Z", "count_points": 8, "latitude": 49.50556, "longitude": 35.01665, "city": "Karlivka", "images": []}, {"id": 408702, "min_date": "2019-03-16T11:18:00Z", "max_date": "2019-03-16T11:18:00Z", "count_points": 1, "latitude": 48.88668, "longitude": 35.23412, "city": "Hubynykha", "images": []}, {"id": 408703, "min_date": "2019-03-16T11:18:00Z", "max_date": "2019-03-16T11:18:00Z", "count_points": 1, "latitude": 48.9874, "longitude": 35.913, "city": "Sakhnovshchyna", "images": []}, {"id": 408704, "min_date": "2019-03-16T11:18:00Z", "max_date": "2019-03-16T11:18:00Z", "count_points": 1, "latitude": 48.51764, "longitude": 34.9913, "city": "Dnipro", "images": []}, {"id": 408705, "min_date": "2019-03-16T11:24:00Z", "max_date": "2019-03-16T11:24:00Z", "count_points": 1, "latitude": 50.53418, "longitude": 34.54185, "city": "Lebedyn", "images": []}, {"id": 408706, "min_date": "2019-03-16T23:36:00Z", "max_date": "2019-03-17T11:00:00Z", "count_points": 3, "latitude": 48.35926, "longitude": 25.50751, "city": "Vashkivtsi", "images": []}, {"id": 408707, "min_date": "2019-03-17T11:00:00Z", "max_date": "2019-03-17T11:00:00Z", "count_points": 1, "latitude": 49.43599, "longitude": 24.40379, "city": "Khodoriv", "images": []}, {"id": 408708, "min_date": "2019-03-17T11:00:00Z", "max_date": "2019-03-17T11:00:00Z", "count_points": 1, "latitude": 48.00077, "longitude": 25.73052, "city": "Nyzhni Petrivtsi", "images": []}, {"id": 408709, "min_date": "2019-03-17T11:00:00Z", "max_date": "2019-03-17T11:00:00Z", "count_points": 1, "latitude": 49.34316, "longitude": 30.0402, "city": "Zhashkiv", "images": []}, {"id": 408710, "min_date": "2019-03-17T11:00:00Z", "max_date": "2019-03-17T11:00:00Z", "count_points": 1, "latitude": 48.31111, "longitude": 25.66304, "city": "Shypyntsi", "images": []}, {"id": 408711, "min_date": "2019-03-17T11:00:00Z", "max_date": "2019-03-17T11:00:00Z", "count_points": 1, "latitude": 48.43724, "longitude": 25.25848, "city": "Zabolotiv", "images": []}, {"id": 408712, "min_date": "2019-03-17T11:00:00Z", "max_date": "2019-03-17T11:00:00Z", "count_points": 1, "latitude": 48.45789, "longitude": 25.21356, "city": "Zabolotiv", "images": []}, {"id": 408713, "min_date": "2019-03-17T11:00:00Z", "max_date": "2019-03-17T11:00:00Z", "count_points": 1, "latitude": 48.38202, "longitude": 26.1215, "city": "Boyany", "images": []}, {"id": 408714, "min_date": "2019-03-17T11:00:00Z", "max_date": "2019-03-17T10:46:00Z", "count_points": 4, "latitude": 48.41135, "longitude": 26.08113, "city": "Boyany", "images": []}, {"id": 408715, "min_date": "2019-03-17T11:00:00Z", "max_date": "2019-03-17T11:00:00Z", "count_points": 1, "latitude": 50.05956, "longitude": 29.43688, "city": "Popilnya", "images": []}, {"id": 408716, "min_date": "2019-03-17T11:00:00Z", "max_date": "2019-03-17T11:00:00Z", "count_points": 1, "latitude": 48.34969, "longitude": 26.32779, "city": "Klishkivtsi", "images": []}, {"id": 408717, "min_date": "2019-03-17T11:00:00Z", "max_date": "2019-03-13T11:10:00Z", "count_points": 2, "latitude": 48.23549, "longitude": 26.21493, "city": "Novoselytsya", "images": []}, {"id": 408718, "min_date": "2019-03-17T11:00:00Z", "max_date": "2019-03-17T11:00:00Z", "count_points": 1, "latitude": 48.13302, "longitude": 26.1904, "city": "Novoselytsya", "images": []}, {"id": 408719, "min_date": "2019-03-17T11:00:00Z", "max_date": "2019-03-17T11:00:00Z", "count_points": 1, "latitude": 48.41766, "longitude": 26.3933, "city": "Klishkivtsi", "images": []}, {"id": 408720, "min_date": "2019-03-17T11:00:00Z", "max_date": "2019-03-17T11:00:00Z", "count_points": 2, "latitude": 48.44713, "longitude": 26.38369, "city": "Khotyn", "images": []}, {"id": 408721, "min_date": "2019-03-17T11:00:00Z", "max_date": "2019-03-17T11:00:00Z", "count_points": 1, "latitude": 48.45417, "longitude": 26.32395, "city": "Klishkivtsi", "images": []}, {"id": 408722, "min_date": "2019-03-17T11:00:00Z", "max_date": "2019-03-17T11:00:00Z", "count_points": 1, "latitude": 48.33383, "longitude": 25.83926, "city": "Luzhany", "images": []}, {"id": 408723, "min_date": "2019-03-17T11:00:00Z", "max_date": "2019-03-17T11:00:00Z", "count_points": 1, "latitude": 48.21831, "longitude": 25.81953, "city": "Ropcha", "images": []}, {"id": 408724, "min_date": "2019-03-17T11:00:00Z", "max_date": "2019-03-17T11:00:00Z", "count_points": 1, "latitude": 48.21563, "longitude": 25.91768, "city": "Voloka", "images": []}, {"id": 408725, "min_date": "2019-03-17T11:00:00Z", "max_date": "2019-03-17T11:00:00Z", "count_points": 1, "latitude": 48.36644, "longitude": 26.51899, "city": "Khotyn", "images": []}, {"id": 408726, "min_date": "2019-03-17T11:00:00Z", "max_date": "2019-03-17T11:00:00Z", "count_points": 1, "latitude": 49.17645, "longitude": 24.16798, "city": "Broshniv-Osada", "images": []}, {"id": 408727, "min_date": "2019-03-17T11:00:00Z", "max_date": "2019-03-17T11:00:00Z", "count_points": 1, "latitude": 48.74095, "longitude": 25.44544, "city": "Chernelytsya", "images": []}, {"id": 408728, "min_date": "2019-03-17T11:00:00Z", "max_date": "2019-03-17T11:00:00Z", "count_points": 1, "latitude": 48.6093, "longitude": 25.49475, "city": "Horodenka", "images": []}, {"id": 408729, "min_date": "2019-03-17T11:00:00Z", "max_date": "2019-03-17T11:00:00Z", "count_points": 1, "latitude": 48.84034, "longitude": 25.55889, "city": "Nyrkiv", "images": []}, {"id": 408730, "min_date": "2019-03-17T11:00:00Z", "max_date": "2019-03-17T11:00:00Z", "count_points": 1, "latitude": 48.79174, "longitude": 24.2069, "city": "Nebyliv", "images": []}, {"id": 408731, "min_date": "2019-03-17T11:00:00Z", "max_date": "2019-03-17T11:00:00Z", "count_points": 1, "latitude": 48.91235, "longitude": 24.25325, "city": "Petranka", "images": []}, {"id": 408732, "min_date": "2019-03-17T11:00:00Z", "max_date": "2019-03-17T11:00:00Z", "count_points": 1, "latitude": 48.56241, "longitude": 24.8088, "city": "Sadzhavka", "images": []}, {"id": 408733, "min_date": "2019-03-17T11:00:00Z", "max_date": "2019-03-17T11:00:00Z", "count_points": 2, "latitude": 48.82646, "longitude": 24.84697, "city": "Chornoliztsi", "images": []}, {"id": 408734, "min_date": "2019-03-17T11:00:00Z", "max_date": "2019-03-17T11:00:00Z", "count_points": 2, "latitude": 48.73865, "longitude": 24.81121, "city": "Otyniya", "images": []}, {"id": 408735, "min_date": "2019-03-17T11:00:00Z", "max_date": "2019-03-17T11:00:00Z", "count_points": 1, "latitude": 49.1491, "longitude": 24.47521, "city": "Kalush", "images": []}, {"id": 408736, "min_date": "2019-03-17T11:00:00Z", "max_date": "2019-03-17T11:00:00Z", "count_points": 1, "latitude": 48.77585, "longitude": 25.95433, "city": "Borshchiv", "images": []}, {"id": 408737, "min_date": "2019-03-17T11:00:00Z", "max_date": "2019-03-17T11:00:00Z", "count_points": 1, "latitude": 48.60792, "longitude": 24.38319, "city": "Manyava", "images": []}, {"id": 408738, "min_date": "2019-03-17T11:00:00Z", "max_date": "2019-03-17T11:00:00Z", "count_points": 1, "latitude": 48.56921, "longitude": 24.67619, "city": "Krasna", "images": []}, {"id": 408739, "min_date": "2019-03-17T11:00:00Z", "max_date": "2019-03-17T10:46:00Z", "count_points": 4, "latitude": 48.51653, "longitude": 24.68099, "city": "Zarichchya", "images": []}, {"id": 408740, "min_date": "2019-03-17T11:00:00Z", "max_date": "2019-03-17T11:00:00Z", "count_points": 1, "latitude": 49.19271, "longitude": 25.59974, "city": "Terebovlya", "images": []}, {"id": 408741, "min_date": "2019-03-17T11:00:00Z", "max_date": "2019-03-13T11:10:00Z", "count_points": 5, "latitude": 48.62278, "longitude": 26.63904, "city": "Kamianets-Podilskyi", "images": []}, {"id": 408742, "min_date": "2019-03-17T11:00:00Z", "max_date": "2019-03-17T11:00:00Z", "count_points": 1, "latitude": 49.20279, "longitude": 24.21055, "city": "Zhydachiv", "images": []}, {"id": 408743, "min_date": "2019-03-17T11:00:00Z", "max_date": "2019-03-17T11:00:00Z", "count_points": 1, "latitude": 49.00373, "longitude": 24.65826, "city": "Yamnytsya", "images": []}, {"id": 408744, "min_date": "2019-03-17T11:00:00Z", "max_date": "2019-03-17T11:00:00Z", "count_points": 1, "latitude": 48.86455, "longitude": 24.29536, "city": "Petranka", "images": []}, {"id": 408745, "min_date": "2019-03-17T11:00:00Z", "max_date": "2019-03-17T23:18:00Z", "count_points": 3, "latitude": 48.89067, "longitude": 24.32114, "city": "Petranka", "images": []}, {"id": 408746, "min_date": "2019-03-17T11:00:00Z", "max_date": "2019-03-17T11:00:00Z", "count_points": 1, "latitude": 48.52162, "longitude": 25.07497, "city": "Kolomyia", "images": []}, {"id": 408747, "min_date": "2019-03-17T11:00:00Z", "max_date": "2019-03-17T11:00:00Z", "count_points": 1, "latitude": 48.90802, "longitude": 24.16149, "city": "Rozhnyativ", "images": []}, {"id": 408748, "min_date": "2019-03-17T11:00:00Z", "max_date": "2019-03-17T11:00:00Z", "count_points": 1, "latitude": 48.65131, "longitude": 25.29867, "city": "Obertyn", "images": []}, {"id": 408749, "min_date": "2019-03-17T11:00:00Z", "max_date": "2019-03-17T11:00:00Z", "count_points": 1, "latitude": 48.81497, "longitude": 25.73687, "city": "Tovste", "images": []}, {"id": 408750, "min_date": "2019-03-17T11:00:00Z", "max_date": "2019-03-17T11:00:00Z", "count_points": 2, "latitude": 48.68837, "longitude": 24.7514, "city": "Tysmenychany", "images": []}, {"id": 408751, "min_date": "2019-03-17T11:00:00Z", "max_date": "2019-03-17T11:00:00Z", "count_points": 1, "latitude": 49.00093, "longitude": 25.95792, "city": "Kopychyntsi", "images": []}, {"id": 408752, "min_date": "2019-03-17T11:00:00Z", "max_date": "2019-03-17T10:46:00Z", "count_points": 4, "latitude": 49.49761, "longitude": 23.71942, "city": "Medenychi", "images": []}, {"id": 408753, "min_date": "2019-03-17T11:00:00Z", "max_date": "2019-03-17T11:00:00Z", "count_points": 3, "latitude": 49.2342, "longitude": 23.59032, "city": "Ulychne", "images": []}, {"id": 408754, "min_date": "2019-03-17T11:00:00Z", "max_date": "2019-03-17T11:00:00Z", "count_points": 2, "latitude": 49.4693, "longitude": 23.35422, "city": "Dublyany", "images": []}, {"id": 408755, "min_date": "2019-03-17T11:00:00Z", "max_date": "2019-03-17T11:00:00Z", "count_points": 3, "latitude": 49.32642, "longitude": 24.52171, "city": "Rohatyn", "images": []}, {"id": 408756, "min_date": "2019-03-17T11:00:00Z", "max_date": "2019-03-17T11:00:00Z", "count_points": 1, "latitude": 49.44645, "longitude": 23.40527, "city": "Dublyany", "images": []}, {"id": 408757, "min_date": "2019-03-17T11:00:00Z", "max_date": "2019-03-17T11:00:00Z", "count_points": 1, "latitude": 49.23222, "longitude": 24.52198, "city": "Burshtyn", "images": []}, {"id": 408758, "min_date": "2019-03-17T11:00:00Z", "max_date": "2019-03-17T11:00:00Z", "count_points": 1, "latitude": 49.22644, "longitude": 24.20733, "city": "Zhydachiv", "images": []}, {"id": 408759, "min_date": "2019-03-17T11:00:00Z", "max_date": "2019-03-17T11:00:00Z", "count_points": 1, "latitude": 49.6741, "longitude": 25.04995, "city": "Zboriv", "images": []}, {"id": 408760, "min_date": "2019-03-17T11:00:00Z", "max_date": "2019-03-17T11:00:00Z", "count_points": 2, "latitude": 49.81917, "longitude": 24.41975, "city": "Verkhnyaya Belka", "images": []}, {"id": 408761, "min_date": "2019-03-17T11:00:00Z", "max_date": "2019-03-17T11:00:00Z", "count_points": 1, "latitude": 49.36955, "longitude": 24.13513, "city": "Zhydachiv", "images": []}, {"id": 408762, "min_date": "2019-03-17T11:00:00Z", "max_date": "2019-03-17T11:00:00Z", "count_points": 1, "latitude": 49.80924, "longitude": 24.94914, "city": "Zolochiv", "images": []}, {"id": 408763, "min_date": "2019-03-17T11:00:00Z", "max_date": "2019-03-17T11:00:00Z", "count_points": 1, "latitude": 49.49242, "longitude": 23.85703, "city": "Rozvadiv", "images": []}, {"id": 408764, "min_date": "2019-03-17T11:00:00Z", "max_date": "2019-03-17T23:18:00Z", "count_points": 3, "latitude": 49.31196, "longitude": 23.79735, "city": "Stryi", "images": []}, {"id": 408765, "min_date": "2019-03-17T11:00:00Z", "max_date": "2019-03-17T10:46:00Z", "count_points": 3, "latitude": 49.86464, "longitude": 24.14059, "city": "Dublyany", "images": []}, {"id": 408766, "min_date": "2019-03-17T11:00:00Z", "max_date": "2019-03-17T11:00:00Z", "count_points": 1, "latitude": 45.3333, "longitude": 28.60388, "city": "Ozerne", "images": []}, {"id": 408767, "min_date": "2019-03-17T11:00:00Z", "max_date": "2019-03-17T11:00:00Z", "count_points": 1, "latitude": 49.92531, "longitude": 24.4113, "city": "Novyy Yarychiv", "images": []}, {"id": 408768, "min_date": "2019-03-17T11:00:00Z", "max_date": "2019-03-17T11:00:00Z", "count_points": 1, "latitude": 49.94145, "longitude": 24.6064, "city": "Bus\u2019k", "images": []}, {"id": 408769, "min_date": "2019-03-17T11:00:00Z", "max_date": "2019-03-17T11:00:00Z", "count_points": 1, "latitude": 48.66523, "longitude": 26.20683, "city": "Skala-Podil\u2019s\u2019ka", "images": []}, {"id": 408770, "min_date": "2019-03-17T11:00:00Z", "max_date": "2019-03-17T11:00:00Z", "count_points": 1, "latitude": 48.67892, "longitude": 25.896, "city": "Kadubivtsi", "images": []}, {"id": 408771, "min_date": "2019-03-17T11:00:00Z", "max_date": "2019-03-17T10:46:00Z", "count_points": 4, "latitude": 48.72451, "longitude": 24.61751, "city": "Tysmenychany", "images": []}, {"id": 408772, "min_date": "2019-03-17T11:00:00Z", "max_date": "2019-03-17T11:00:00Z", "count_points": 2, "latitude": 48.51899, "longitude": 26.26382, "city": "Klishkivtsi", "images": []}, {"id": 408773, "min_date": "2019-03-17T11:00:00Z", "max_date": "2019-03-17T11:00:00Z", "count_points": 1, "latitude": 48.72684, "longitude": 25.25986, "city": "Obertyn", "images": []}, {"id": 408774, "min_date": "2019-03-17T11:00:00Z", "max_date": "2019-03-17T11:00:00Z", "count_points": 1, "latitude": 49.19087, "longitude": 24.83376, "city": "Bilshivtsi", "images": []}, {"id": 408775, "min_date": "2019-03-17T11:00:00Z", "max_date": "2019-03-17T11:00:00Z", "count_points": 1, "latitude": 48.7526, "longitude": 25.18024, "city": "Obertyn", "images": []}, {"id": 408776, "min_date": "2019-03-17T11:00:00Z", "max_date": "2019-03-17T11:00:00Z", "count_points": 1, "latitude": 48.65418, "longitude": 26.34772, "city": "Zhvanets", "images": []}, {"id": 408777, "min_date": "2019-03-17T11:00:00Z", "max_date": "2019-03-17T11:00:00Z", "count_points": 2, "latitude": 49.04708, "longitude": 24.90569, "city": "Tysmenytsya", "images": []}, {"id": 408778, "min_date": "2019-03-17T11:00:00Z", "max_date": "2019-03-17T11:00:00Z", "count_points": 2, "latitude": 48.98022, "longitude": 24.09161, "city": "Dolyna", "images": []}, {"id": 408779, "min_date": "2019-03-17T11:00:00Z", "max_date": "2019-03-17T11:00:00Z", "count_points": 1, "latitude": 48.94111, "longitude": 24.04479, "city": "Dolyna", "images": []}, {"id": 408780, "min_date": "2019-03-17T11:00:00Z", "max_date": "2019-03-17T11:00:00Z", "count_points": 1, "latitude": 48.95029, "longitude": 24.10194, "city": "Rozhnyativ", "images": []}, {"id": 408781, "min_date": "2019-03-17T11:00:00Z", "max_date": "2019-03-17T11:00:00Z", "count_points": 1, "latitude": 48.98664, "longitude": 24.18547, "city": "Broshniv-Osada", "images": []}, {"id": 408782, "min_date": "2019-03-17T11:00:00Z", "max_date": "2019-03-13T11:10:00Z", "count_points": 2, "latitude": 48.72278, "longitude": 26.0945, "city": "Borshchiv", "images": []}, {"id": 408783, "min_date": "2019-03-17T11:00:00Z", "max_date": "2019-03-17T11:00:00Z", "count_points": 1, "latitude": 48.82287, "longitude": 26.25771, "city": "Skala-Podil\u2019s\u2019ka", "images": []}, {"id": 408784, "min_date": "2019-03-17T11:00:00Z", "max_date": "2019-03-17T11:00:00Z", "count_points": 2, "latitude": 48.68857, "longitude": 24.49151, "city": "Hvizd", "images": []}, {"id": 408785, "min_date": "2019-03-17T11:00:00Z", "max_date": "2019-03-17T11:00:00Z", "count_points": 1, "latitude": 48.92803, "longitude": 24.37358, "city": "Novytsya", "images": []}, {"id": 408786, "min_date": "2019-03-17T11:00:00Z", "max_date": "2019-03-17T11:00:00Z", "count_points": 1, "latitude": 49.06939, "longitude": 24.53408, "city": "Kalush", "images": []}, {"id": 408787, "min_date": "2019-03-17T11:00:00Z", "max_date": "2019-03-17T11:00:00Z", "count_points": 1, "latitude": 49.04413, "longitude": 24.52679, "city": "Kalush", "images": []}, {"id": 408788, "min_date": "2019-03-17T11:00:00Z", "max_date": "2019-03-17T11:00:00Z", "count_points": 2, "latitude": 48.56467, "longitude": 25.41494, "city": "Chernyatyn", "images": []}, {"id": 408789, "min_date": "2019-03-17T23:18:00Z", "max_date": "2019-03-17T23:18:00Z", "count_points": 2, "latitude": 49.25418, "longitude": 23.70356, "city": "Ulychne", "images": []}, {"id": 408790, "min_date": "2019-03-17T23:18:00Z", "max_date": "2019-03-17T23:18:00Z", "count_points": 1, "latitude": 49.62159, "longitude": 23.93193, "city": "Demnya", "images": []}, {"id": 408791, "min_date": "2019-03-11T11:21:00Z", "max_date": "2019-03-11T11:21:00Z", "count_points": 1, "latitude": 45.3387, "longitude": 28.7524, "city": "Broska", "images": []}, {"id": 408792, "min_date": "2019-03-11T11:21:00Z", "max_date": "2019-03-11T11:21:00Z", "count_points": 2, "latitude": 46.5966, "longitude": 32.6694, "city": "Tsyurupyns\u2019k", "images": []}, {"id": 408793, "min_date": "2019-03-11T11:21:00Z", "max_date": "2019-03-11T11:21:00Z", "count_points": 2, "latitude": 46.1536, "longitude": 33.1198, "city": "Kalanchak", "images": []}, {"id": 408794, "min_date": "2019-03-11T11:21:00Z", "max_date": "2019-03-11T11:21:00Z", "count_points": 1, "latitude": 45.4851, "longitude": 29.3423, "city": "Shevchenkove", "images": []}, {"id": 408795, "min_date": "2019-03-12T10:27:00Z", "max_date": "2019-03-12T10:27:00Z", "count_points": 1, "latitude": 48.9136, "longitude": 35.5405, "city": "Hubynykha", "images": []}, {"id": 408796, "min_date": "2019-03-12T12:05:00Z", "max_date": "2019-03-12T12:05:00Z", "count_points": 1, "latitude": 48.2891, "longitude": 22.9471, "city": "Irshava", "images": []}, {"id": 408797, "min_date": "2019-03-12T12:05:00Z", "max_date": "2019-03-12T12:05:00Z", "count_points": 1, "latitude": 48.3447, "longitude": 22.3715, "city": "Batiovo", "images": []}, {"id": 408798, "min_date": "2019-03-13T09:25:00Z", "max_date": "2019-03-13T09:25:00Z", "count_points": 2, "latitude": 49.08075, "longitude": 27.7228, "city": "Bar", "images": []}, {"id": 408799, "min_date": "2019-03-13T09:25:00Z", "max_date": "2019-03-13T09:25:00Z", "count_points": 1, "latitude": 48.4471, "longitude": 36.1684, "city": "Petropavlivka", "images": []}, {"id": 408800, "min_date": "2019-03-13T09:25:00Z", "max_date": "2019-03-13T09:25:00Z", "count_points": 2, "latitude": 48.52165, "longitude": 25.1216, "city": "Kolomyia", "images": []}, {"id": 408801, "min_date": "2019-03-13T09:26:00Z", "max_date": "2019-03-13T09:26:00Z", "count_points": 1, "latitude": 46.3702, "longitude": 29.4101, "city": "Borodino", "images": []}, {"id": 408802, "min_date": "2019-03-13T09:26:00Z", "max_date": "2019-03-13T09:26:00Z", "count_points": 1, "latitude": 45.8421, "longitude": 29.6532, "city": "Tatarbunary", "images": []}, {"id": 408803, "min_date": "2019-03-13T11:09:00Z", "max_date": "2019-03-13T11:09:00Z", "count_points": 1, "latitude": 47.328, "longitude": 33.9037, "city": "Velyka Lepetykha", "images": []}, {"id": 408804, "min_date": "2019-03-13T11:10:00Z", "max_date": "2019-03-13T11:10:00Z", "count_points": 2, "latitude": 50.5444, "longitude": 30.94025, "city": "Velyka Dymerka", "images": []},