[{"id": 418521, "min_date": "2019-04-29T01:06:00Z", "max_date": "2019-04-29T10:28:00Z", "count_points": 4, "latitude": 52.11517, "longitude": 33.32051, "city": "Novhorod-Sivers\u2019kyy", "images": []}, {"id": 418522, "min_date": "2019-04-29T01:12:00Z", "max_date": "2019-04-29T01:12:00Z", "count_points": 1, "latitude": 45.3331, "longitude": 28.87923, "city": "Izmayil", "images": []}, {"id": 418523, "min_date": "2019-04-29T10:54:00Z", "max_date": "2019-04-29T10:28:00Z", "count_points": 4, "latitude": 52.0153, "longitude": 33.28563, "city": "Novhorod-Sivers\u2019kyy", "images": []}, {"id": 418524, "min_date": "2019-04-29T10:54:00Z", "max_date": "2019-04-29T10:54:00Z", "count_points": 1, "latitude": 52.24956, "longitude": 32.96935, "city": "Novhorod-Sivers\u2019kyy", "images": []}, {"id": 418525, "min_date": "2019-04-29T10:54:00Z", "max_date": "2019-04-29T10:54:00Z", "count_points": 1, "latitude": 51.87671, "longitude": 31.0863, "city": "Ripky", "images": []}, {"id": 418526, "min_date": "2019-04-29T10:54:00Z", "max_date": "2019-04-29T10:54:00Z", "count_points": 1, "latitude": 48.61408, "longitude": 29.9443, "city": "Teplyk", "images": []}, {"id": 418527, "min_date": "2019-04-29T10:54:00Z", "max_date": "2019-04-29T10:54:00Z", "count_points": 1, "latitude": 48.46046, "longitude": 33.22496, "city": "Novyy Starodub", "images": []}, {"id": 418528, "min_date": "2019-04-29T10:54:00Z", "max_date": "2019-04-29T10:54:00Z", "count_points": 1, "latitude": 46.11259, "longitude": 30.31079, "city": "Shabo", "images": []}, {"id": 418529, "min_date": "2019-04-30T10:36:00Z", "max_date": "2019-04-30T10:36:00Z", "count_points": 1, "latitude": 52.0077, "longitude": 33.10216, "city": "Novhorod-Sivers\u2019kyy", "images": []}, {"id": 418530, "min_date": "2019-04-30T10:36:00Z", "max_date": "2019-05-01T00:30:00Z", "count_points": 4, "latitude": 51.88931, "longitude": 33.14487, "city": "Novhorod-Sivers\u2019kyy", "images": []}, {"id": 418531, "min_date": "2019-04-30T10:36:00Z", "max_date": "2019-04-30T10:36:00Z", "count_points": 1, "latitude": 48.61963, "longitude": 28.93179, "city": "Tulchyn", "images": []}, {"id": 418532, "min_date": "2019-04-30T10:36:00Z", "max_date": "2019-04-30T10:36:00Z", "count_points": 1, "latitude": 48.90429, "longitude": 27.40684, "city": "Nova Ushytsya", "images": []}, {"id": 418533, "min_date": "2019-04-30T22:54:00Z", "max_date": "2019-04-30T09:26:00Z", "count_points": 2, "latitude": 45.21727, "longitude": 34.25361, "city": "Novozhilovka", "images": []}, {"id": 418534, "min_date": "2019-05-01T10:18:00Z", "max_date": "2019-05-01T10:18:00Z", "count_points": 1, "latitude": 51.81505, "longitude": 24.49602, "city": "Ratne", "images": []}, {"id": 418535, "min_date": "2019-05-01T10:18:00Z", "max_date": "2019-05-01T10:18:00Z", "count_points": 1, "latitude": 51.71996, "longitude": 25.40802, "city": "Lyubeshiv", "images": []}, {"id": 418536, "min_date": "2019-05-01T10:18:00Z", "max_date": "2019-05-01T10:18:00Z", "count_points": 1, "latitude": 51.86062, "longitude": 25.49724, "city": "Lyubeshiv", "images": []}, {"id": 418537, "min_date": "2019-05-02T00:12:00Z", "max_date": "2019-05-02T00:12:00Z", "count_points": 1, "latitude": 46.52308, "longitude": 33.7425, "city": "Askaniya-Nova", "images": []}, {"id": 418538, "min_date": "2019-05-02T11:42:00Z", "max_date": "2019-05-02T10:59:00Z", "count_points": 4, "latitude": 51.62447, "longitude": 24.62798, "city": "Ratne", "images": []}, {"id": 418539, "min_date": "2019-05-02T11:42:00Z", "max_date": "2019-05-02T11:42:00Z", "count_points": 3, "latitude": 51.55328, "longitude": 23.72328, "city": "Pishcha", "images": []}, {"id": 418540, "min_date": "2019-05-02T23:54:00Z", "max_date": "2019-05-02T23:54:00Z", "count_points": 1, "latitude": 49.53094, "longitude": 37.06941, "city": "Savyntsi", "images": []}, {"id": 418541, "min_date": "2019-05-02T23:54:00Z", "max_date": "2019-05-03T01:36:00Z", "count_points": 5, "latitude": 51.59256, "longitude": 24.26712, "city": "Stara Vyzhivka", "images": []}, {"id": 418542, "min_date": "2019-05-03T09:42:00Z", "max_date": "2019-05-03T11:24:00Z", "count_points": 3, "latitude": 52.25217, "longitude": 33.33521, "city": "Novhorod-Sivers\u2019kyy", "images": []}, {"id": 418543, "min_date": "2019-05-03T09:42:00Z", "max_date": "2019-05-03T11:24:00Z", "count_points": 2, "latitude": 51.15137, "longitude": 32.21562, "city": "Kruty", "images": []}, {"id": 418544, "min_date": "2019-05-03T09:42:00Z", "max_date": "2019-05-03T09:42:00Z", "count_points": 1, "latitude": 51.32681, "longitude": 31.91789, "city": "Kulykivka", "images": []}, {"id": 418545, "min_date": "2019-05-03T11:18:00Z", "max_date": "2019-05-03T11:18:00Z", "count_points": 2, "latitude": 48.34531, "longitude": 36.83061, "city": "Mezhova", "images": []}, {"id": 418546, "min_date": "2019-05-03T11:24:00Z", "max_date": "2019-05-03T11:24:00Z", "count_points": 1, "latitude": 51.65206, "longitude": 30.9464, "city": "Ripky", "images": []}, {"id": 418547, "min_date": "2019-05-03T11:24:00Z", "max_date": "2019-05-03T11:24:00Z", "count_points": 2, "latitude": 50.48998, "longitude": 34.26195, "city": "Lebedyn", "images": []}, {"id": 418548, "min_date": "2019-05-03T11:24:00Z", "max_date": "2019-05-03T11:24:00Z", "count_points": 1, "latitude": 50.28724, "longitude": 33.52443, "city": "Sencha", "images": []}, {"id": 418549, "min_date": "2019-05-03T23:36:00Z", "max_date": "2019-05-03T23:36:00Z", "count_points": 1, "latitude": 47.58705, "longitude": 32.47755, "city": "Novyy Buh", "images": []}, {"id": 418550, "min_date": "2019-05-03T23:36:00Z", "max_date": "2019-05-03T23:36:00Z", "count_points": 1, "latitude": 49.97601, "longitude": 37.69543, "city": "Dvorichna", "images": []}, {"id": 418551, "min_date": "2019-05-03T23:36:00Z", "max_date": "2019-05-04T23:18:00Z", "count_points": 2, "latitude": 49.00491, "longitude": 35.13757, "city": "Zachepylivka", "images": []}, {"id": 418552, "min_date": "2019-05-04T09:18:00Z", "max_date": "2019-05-04T09:18:00Z", "count_points": 2, "latitude": 47.8555, "longitude": 37.62446, "city": "Dokuchayevs\u2019k", "images": []}, {"id": 418553, "min_date": "2019-05-04T09:24:00Z", "max_date": "2019-05-04T09:24:00Z", "count_points": 1, "latitude": 50.05472, "longitude": 37.37396, "city": "Velykyy Burluk", "images": []}, {"id": 418554, "min_date": "2019-05-04T09:24:00Z", "max_date": "2019-05-04T09:24:00Z", "count_points": 2, "latitude": 47.85358, "longitude": 35.23053, "city": "Zaporizhia", "images": []}, {"id": 418555, "min_date": "2019-05-04T09:24:00Z", "max_date": "2019-05-04T09:24:00Z", "count_points": 2, "latitude": 48.71622, "longitude": 34.39596, "city": "Verkhn\u2019odniprovs\u2019k", "images": []}, {"id": 418556, "min_date": "2019-05-04T11:00:00Z", "max_date": "2019-05-04T11:00:00Z", "count_points": 1, "latitude": 45.87733, "longitude": 33.86917, "city": "Novopavlovka", "images": []}, {"id": 418557, "min_date": "2019-05-04T11:00:00Z", "max_date": "2019-05-04T11:00:00Z", "count_points": 1, "latitude": 49.0704, "longitude": 32.70561, "city": "Chyhyryn", "images": []}, {"id": 418558, "min_date": "2019-05-04T11:00:00Z", "max_date": "2019-05-04T11:00:00Z", "count_points": 1, "latitude": 49.04711, "longitude": 32.67614, "city": "Chyhyryn", "images": []}, {"id": 418559, "min_date": "2019-05-04T11:00:00Z", "max_date": "2019-05-04T11:00:00Z", "count_points": 1, "latitude": 51.51662, "longitude": 24.85667, "city": "Nuyno", "images": []}, {"id": 418560, "min_date": "2019-05-04T11:00:00Z", "max_date": "2019-05-04T10:45:00Z", "count_points": 2, "latitude": 47.48707, "longitude": 34.69859, "city": "Energodar", "images": []}, {"id": 418561, "min_date": "2019-05-05T09:06:00Z", "max_date": "2019-05-05T09:06:00Z", "count_points": 2, "latitude": 49.64061, "longitude": 31.78127, "city": "Moshny", "images": []}, {"id": 418562, "min_date": "2019-05-05T09:06:00Z", "max_date": "2019-05-05T09:06:00Z", "count_points": 1, "latitude": 50.70425, "longitude": 32.07, "city": "Lisovi Sorochyntsi", "images": []}, {"id": 418563, "min_date": "2019-05-05T10:42:00Z", "max_date": "2019-05-05T10:42:00Z", "count_points": 1, "latitude": 49.40071, "longitude": 32.52715, "city": "Chornobay", "images": []}, {"id": 418564, "min_date": "2019-05-05T10:42:00Z", "max_date": "2019-05-05T10:42:00Z", "count_points": 1, "latitude": 49.60592, "longitude": 32.84957, "city": "Orzhytsya", "images": []}, {"id": 418565, "min_date": "2019-05-05T10:42:00Z", "max_date": "2019-05-05T10:42:00Z", "count_points": 2, "latitude": 49.49954, "longitude": 35.13089, "city": "Karlivka", "images": []}, {"id": 418566, "min_date": "2019-05-05T10:42:00Z", "max_date": "2019-05-05T10:42:00Z", "count_points": 2, "latitude": 48.09793, "longitude": 32.0472, "city": "Bobrynets", "images": []}, {"id": 418567, "min_date": "2019-05-05T10:42:00Z", "max_date": "2019-05-05T10:42:00Z", "count_points": 1, "latitude": 50.91566, "longitude": 32.99927, "city": "Talalayivka", "images": []}, {"id": 418568, "min_date": "2019-05-05T10:42:00Z", "max_date": "2019-05-05T10:42:00Z", "count_points": 2, "latitude": 48.68107, "longitude": 38.28169, "city": "Popasna", "images": []}, {"id": 418569, "min_date": "2019-05-05T10:42:00Z", "max_date": "2019-05-05T10:42:00Z", "count_points": 1, "latitude": 46.89706, "longitude": 32.65252, "city": "Oleksandrivka", "images": []}, {"id": 418570, "min_date": "2019-05-05T10:42:00Z", "max_date": "2019-05-05T10:42:00Z", "count_points": 1, "latitude": 49.3563, "longitude": 37.21139, "city": "Izyum", "images": []}, {"id": 418571, "min_date": "2019-05-05T10:42:00Z", "max_date": "2019-05-05T10:42:00Z", "count_points": 1, "latitude": 51.37456, "longitude": 31.9441, "city": "Berezna", "images": []}, {"id": 418572, "min_date": "2019-05-05T10:42:00Z", "max_date": "2019-05-05T10:42:00Z", "count_points": 2, "latitude": 51.24088, "longitude": 32.16388, "city": "Kruty", "images": []}, {"id": 418573, "min_date": "2019-05-05T22:54:00Z", "max_date": "2019-05-05T22:54:00Z", "count_points": 7, "latitude": 51.35052, "longitude": 32.13524, "city": "Mena", "images": []}, {"id": 418574, "min_date": "2019-04-29T08:41:00Z", "max_date": "2019-04-29T08:41:00Z", "count_points": 2, "latitude": 52.1251, "longitude": 33.80995, "city": "Druzhba", "images": []}, {"id": 418575, "min_date": "2019-04-29T08:41:00Z", "max_date": "2019-04-29T08:41:00Z", "count_points": 1, "latitude": 52.1435, "longitude": 33.6486, "city": "Yampil\u2019", "images": []}, {"id": 418576, "min_date": "2019-04-30T09:24:00Z", "max_date": "2019-04-30T09:24:00Z", "count_points": 1, "latitude": 52.0855, "longitude": 33.2772, "city": "Novhorod-Sivers\u2019kyy", "images": []}, {"id": 418577, "min_date": "2019-05-02T10:58:00Z", "max_date": "2019-05-02T10:58:00Z", "count_points": 3, "latitude": 50.54903, "longitude": 30.8332, "city": "Brovary", "images": []}, {"id": 418578, "min_date": "2019-05-03T10:03:00Z", "max_date": "2019-05-03T10:03:00Z", "count_points": 1, "latitude": 48.4527, "longitude": 28.0977, "city": "Chernivtsi", "images": []}, {"id": 418579, "min_date": "2019-05-03T19:27:00Z", "max_date": "2019-05-03T19:27:00Z", "count_points": 1, "latitude": 47.1873, "longitude": 32.307, "city": "Bashtanka", "images": []}, {"id": 418580, "min_date": "2019-05-04T10:45:00Z", "max_date": "2019-05-04T10:45:00Z", "count_points": 1, "latitude": 49.2657, "longitude": 38.9512, "city": "Starobil\u2019s\u2019k", "images": []}, {"id": 418581, "min_date": "2019-05-04T10:45:00Z", "max_date": "2019-05-04T10:45:00Z", "count_points": 1, "latitude": 48.1852, "longitude": 33.7608, "city": "Sofiyivka", "images": []}, {"id": 418582, "min_date": "2019-05-04T10:46:00Z", "max_date": "2019-05-04T10:46:00Z", "count_points": 1, "latitude": 49.7847, "longitude": 30.1893, "city": "Bila Tserkva", "images": []}]