[{"id": 418876, "min_date": "2019-06-10T09:24:00Z", "max_date": "2019-06-10T11:06:00Z", "count_points": 4, "latitude": 45.38065, "longitude": 36.46424, "city": "Kerch", "images": []}, {"id": 418877, "min_date": "2019-06-10T09:30:00Z", "max_date": "2019-06-10T09:30:00Z", "count_points": 4, "latitude": 48.61986, "longitude": 38.45347, "city": "Popasna", "images": []}, {"id": 418878, "min_date": "2019-06-10T09:30:00Z", "max_date": "2019-06-12T09:06:00Z", "count_points": 43, "latitude": 51.55826, "longitude": 30.58174, "city": "Slavutych", "images": []}, {"id": 418879, "min_date": "2019-06-10T09:30:00Z", "max_date": "2019-06-10T09:30:00Z", "count_points": 2, "latitude": 48.40339, "longitude": 35.38406, "city": "Synel\u2019nykove", "images": []}, {"id": 418880, "min_date": "2019-06-10T09:30:00Z", "max_date": "2019-06-10T09:30:00Z", "count_points": 1, "latitude": 48.51808, "longitude": 35.13781, "city": "Pidhorodne", "images": []}, {"id": 418881, "min_date": "2019-06-10T09:30:00Z", "max_date": "2019-06-10T09:19:00Z", "count_points": 3, "latitude": 46.37998, "longitude": 34.54933, "city": "Novooleksiyivka", "images": []}, {"id": 418882, "min_date": "2019-06-10T09:30:00Z", "max_date": "2019-06-10T09:30:00Z", "count_points": 1, "latitude": 51.03569, "longitude": 32.57035, "city": "Ichnya", "images": []}, {"id": 418883, "min_date": "2019-06-10T11:06:00Z", "max_date": "2019-06-10T11:06:00Z", "count_points": 1, "latitude": 49.91584, "longitude": 28.59719, "city": "Berdychiv", "images": []}, {"id": 418884, "min_date": "2019-06-10T11:06:00Z", "max_date": "2019-06-10T11:06:00Z", "count_points": 1, "latitude": 49.40761, "longitude": 38.36553, "city": "Svatove", "images": []}, {"id": 418885, "min_date": "2019-06-10T11:06:00Z", "max_date": "2019-06-10T11:06:00Z", "count_points": 1, "latitude": 46.44256, "longitude": 33.85782, "city": "Askaniya-Nova", "images": []}, {"id": 418886, "min_date": "2019-06-10T11:06:00Z", "max_date": "2019-06-10T11:03:00Z", "count_points": 5, "latitude": 48.34072, "longitude": 31.02903, "city": "Lypnyazhka", "images": []}, {"id": 418887, "min_date": "2019-06-10T11:06:00Z", "max_date": "2019-06-10T11:06:00Z", "count_points": 1, "latitude": 47.26255, "longitude": 38.13203, "city": "Novoazovsk", "images": []}, {"id": 418888, "min_date": "2019-06-10T11:12:00Z", "max_date": "2019-06-10T11:12:00Z", "count_points": 1, "latitude": 51.64681, "longitude": 32.00201, "city": "Shchors", "images": []}, {"id": 418889, "min_date": "2019-06-10T23:24:00Z", "max_date": "2019-06-10T23:24:00Z", "count_points": 1, "latitude": 48.13524, "longitude": 38.28473, "city": "Yenakiyeve", "images": []}, {"id": 418890, "min_date": "2019-06-10T23:24:00Z", "max_date": "2019-06-11T01:00:00Z", "count_points": 2, "latitude": 49.35498, "longitude": 32.16272, "city": "Chervona Sloboda", "images": []}, {"id": 418891, "min_date": "2019-06-10T23:24:00Z", "max_date": "2019-06-10T23:24:00Z", "count_points": 1, "latitude": 47.96449, "longitude": 33.39066, "city": "Kryvyi Rih", "images": []}, {"id": 418892, "min_date": "2019-06-11T01:00:00Z", "max_date": "2019-06-11T01:00:00Z", "count_points": 2, "latitude": 49.53287, "longitude": 37.06892, "city": "Savyntsi", "images": []}, {"id": 418893, "min_date": "2019-06-11T09:12:00Z", "max_date": "2019-06-11T10:08:00Z", "count_points": 8, "latitude": 49.0143, "longitude": 37.87206, "city": "Krasnyy Lyman", "images": [{"image_url": "418893.jpg", "timestamp": "2019-06-11T10:08:00Z"}]}, {"id": 418894, "min_date": "2019-06-11T09:12:00Z", "max_date": "2019-06-16T09:18:00Z", "count_points": 3, "latitude": 49.01377, "longitude": 38.40364, "city": "Rubizhne", "images": []}, {"id": 418895, "min_date": "2019-06-11T09:12:00Z", "max_date": "2019-06-11T09:12:00Z", "count_points": 1, "latitude": 49.58617, "longitude": 35.38638, "city": "Varvarivka", "images": []}, {"id": 418896, "min_date": "2019-06-11T09:12:00Z", "max_date": "2019-06-11T09:12:00Z", "count_points": 1, "latitude": 49.69334, "longitude": 34.27242, "city": "Reshetylivka", "images": []}, {"id": 418897, "min_date": "2019-06-11T09:12:00Z", "max_date": "2019-06-11T10:48:00Z", "count_points": 6, "latitude": 50.66655, "longitude": 34.62899, "city": "Lebedyn", "images": [{"image_url": "418897.jpg", "timestamp": "2019-06-11T10:48:00Z"}]}, {"id": 418898, "min_date": "2019-06-11T10:48:00Z", "max_date": "2019-06-11T10:48:00Z", "count_points": 5, "latitude": 50.70082, "longitude": 30.19773, "city": "Dymer", "images": []}, {"id": 418899, "min_date": "2019-06-11T10:48:00Z", "max_date": "2019-06-11T10:48:00Z", "count_points": 2, "latitude": 50.03053, "longitude": 34.02617, "city": "Velyki Sorochyntsi", "images": []}, {"id": 418900, "min_date": "2019-06-11T10:48:00Z", "max_date": "2019-06-11T10:08:00Z", "count_points": 3, "latitude": 49.31561, "longitude": 38.15107, "city": "Svatove", "images": []}, {"id": 418901, "min_date": "2019-06-11T10:48:00Z", "max_date": "2019-06-11T10:48:00Z", "count_points": 1, "latitude": 50.63683, "longitude": 26.69298, "city": "Hoshcha", "images": []}, {"id": 418902, "min_date": "2019-06-11T10:48:00Z", "max_date": "2019-06-11T10:48:00Z", "count_points": 2, "latitude": 50.10736, "longitude": 27.54115, "city": "Polonne", "images": []}, {"id": 418903, "min_date": "2019-06-11T10:48:00Z", "max_date": "2019-06-11T10:48:00Z", "count_points": 1, "latitude": 50.69883, "longitude": 25.97198, "city": "Klevan\u2019", "images": []}, {"id": 418904, "min_date": "2019-06-11T10:48:00Z", "max_date": "2019-06-11T10:48:00Z", "count_points": 1, "latitude": 50.77497, "longitude": 32.32313, "city": "Lisovi Sorochyntsi", "images": []}, {"id": 418905, "min_date": "2019-06-11T10:48:00Z", "max_date": "2019-06-11T10:48:00Z", "count_points": 1, "latitude": 46.59695, "longitude": 32.40043, "city": "Bilozerka", "images": []}, {"id": 418906, "min_date": "2019-06-11T10:48:00Z", "max_date": "2019-06-11T10:48:00Z", "count_points": 1, "latitude": 48.58192, "longitude": 35.86668, "city": "Pavlohrad", "images": []}, {"id": 418907, "min_date": "2019-06-12T10:30:00Z", "max_date": "2019-06-12T10:30:00Z", "count_points": 1, "latitude": 51.24089, "longitude": 30.8816, "city": "Oster", "images": []}, {"id": 418908, "min_date": "2019-06-12T10:30:00Z", "max_date": "2019-06-12T10:30:00Z", "count_points": 1, "latitude": 47.48444, "longitude": 36.20144, "city": "Polohy", "images": []}, {"id": 418909, "min_date": "2019-06-12T10:30:00Z", "max_date": "2019-06-12T10:30:00Z", "count_points": 1, "latitude": 51.43853, "longitude": 33.62441, "city": "Sloboda", "images": []}, {"id": 418910, "min_date": "2019-06-12T10:30:00Z", "max_date": "2019-06-12T10:30:00Z", "count_points": 1, "latitude": 47.13269, "longitude": 37.81962, "city": "Bezimenne", "images": []}, {"id": 418911, "min_date": "2019-06-12T10:30:00Z", "max_date": "2019-06-12T10:30:00Z", "count_points": 1, "latitude": 49.07091, "longitude": 34.70636, "city": "Hupalivka", "images": []}, {"id": 418912, "min_date": "2019-06-12T10:30:00Z", "max_date": "2019-06-12T10:30:00Z", "count_points": 1, "latitude": 50.78029, "longitude": 31.28035, "city": "Bobrovytsya", "images": []}, {"id": 418913, "min_date": "2019-06-12T10:30:00Z", "max_date": "2019-06-12T10:30:00Z", "count_points": 1, "latitude": 49.03926, "longitude": 34.4747, "city": "Tsarychanka", "images": []}, {"id": 418914, "min_date": "2019-06-12T10:30:00Z", "max_date": "2019-06-12T10:30:00Z", "count_points": 2, "latitude": 48.29492, "longitude": 25.23746, "city": "Ispas", "images": []}, {"id": 418915, "min_date": "2019-06-12T10:30:00Z", "max_date": "2019-06-12T10:30:00Z", "count_points": 1, "latitude": 51.23803, "longitude": 31.3129, "city": "Olyshivka", "images": []}, {"id": 418916, "min_date": "2019-06-12T10:30:00Z", "max_date": "2019-06-12T10:30:00Z", "count_points": 1, "latitude": 47.1558, "longitude": 32.04811, "city": "Mykolayiv", "images": []}, {"id": 418917, "min_date": "2019-06-12T10:30:00Z", "max_date": "2019-06-12T10:51:00Z", "count_points": 2, "latitude": 46.363, "longitude": 30.69824, "city": "Tayirove", "images": []}, {"id": 418918, "min_date": "2019-06-12T10:30:00Z", "max_date": "2019-06-12T10:30:00Z", "count_points": 1, "latitude": 45.98592, "longitude": 29.70991, "city": "Zorya", "images": []}, {"id": 418919, "min_date": "2019-06-12T10:30:00Z", "max_date": "2019-06-12T10:30:00Z", "count_points": 1, "latitude": 49.90728, "longitude": 34.99971, "city": "Krasnokuts\u2019k", "images": []}, {"id": 418920, "min_date": "2019-06-12T10:30:00Z", "max_date": "2019-06-12T10:30:00Z", "count_points": 1, "latitude": 50.51748, "longitude": 32.58914, "city": "Ladan", "images": []}, {"id": 418921, "min_date": "2019-06-12T10:30:00Z", "max_date": "2019-06-12T10:30:00Z", "count_points": 1, "latitude": 48.20903, "longitude": 35.16042, "city": "Kaydaki", "images": []}, {"id": 418922, "min_date": "2019-06-12T10:30:00Z", "max_date": "2019-06-12T10:30:00Z", "count_points": 1, "latitude": 48.52556, "longitude": 30.50546, "city": "Perehonivka", "images": []}, {"id": 418923, "min_date": "2019-06-12T10:30:00Z", "max_date": "2019-06-12T10:30:00Z", "count_points": 1, "latitude": 49.99551, "longitude": 32.63398, "city": "Orzhytsya", "images": []}, {"id": 418924, "min_date": "2019-06-12T10:30:00Z", "max_date": "2019-06-12T10:30:00Z", "count_points": 1, "latitude": 49.20866, "longitude": 32.42548, "city": "Chyhyryn", "images": []}, {"id": 418925, "min_date": "2019-06-12T10:30:00Z", "max_date": "2019-06-12T10:30:00Z", "count_points": 1, "latitude": 49.28505, "longitude": 32.34553, "city": "Chervona Sloboda", "images": []}, {"id": 418926, "min_date": "2019-06-13T00:24:00Z", "max_date": "2019-06-13T00:24:00Z", "count_points": 1, "latitude": 51.61534, "longitude": 32.21179, "city": "Mena", "images": []}, {"id": 418927, "min_date": "2019-06-13T10:12:00Z", "max_date": "2019-06-13T10:12:00Z", "count_points": 1, "latitude": 49.82361, "longitude": 36.47065, "city": "Vvedenka", "images": []}, {"id": 418928, "min_date": "2019-06-13T10:12:00Z", "max_date": "2019-06-13T10:12:00Z", "count_points": 3, "latitude": 48.42024, "longitude": 38.95534, "city": "Pereval\u2019s\u2019k", "images": []}, {"id": 418929, "min_date": "2019-06-13T10:12:00Z", "max_date": "2019-06-14T10:38:00Z", "count_points": 7, "latitude": 47.9192, "longitude": 39.18676, "city": "Kripens\u2019kyy", "images": []}, {"id": 418930, "min_date": "2019-06-13T10:12:00Z", "max_date": "2019-06-13T10:12:00Z", "count_points": 2, "latitude": 48.76894, "longitude": 38.28488, "city": "Bilohorivka", "images": []}, {"id": 418931, "min_date": "2019-06-13T10:12:00Z", "max_date": "2019-06-13T10:12:00Z", "count_points": 1, "latitude": 48.56153, "longitude": 38.00455, "city": "Artemivs\u2019k", "images": []}, {"id": 418932, "min_date": "2019-06-13T10:12:00Z", "max_date": "2019-06-13T10:12:00Z", "count_points": 1, "latitude": 48.39369, "longitude": 38.89844, "city": "Pereval\u2019s\u2019k", "images": []}, {"id": 418933, "min_date": "2019-06-13T10:12:00Z", "max_date": "2019-06-13T10:12:00Z", "count_points": 1, "latitude": 49.42177, "longitude": 36.21184, "city": "Pervomays\u2019kyy", "images": []}, {"id": 418934, "min_date": "2019-06-13T10:12:00Z", "max_date": "2019-06-13T10:12:00Z", "count_points": 1, "latitude": 49.32762, "longitude": 36.92491, "city": "Balakliya", "images": []}, {"id": 418935, "min_date": "2019-06-13T10:12:00Z", "max_date": "2019-06-13T10:12:00Z", "count_points": 1, "latitude": 49.00001, "longitude": 36.93113, "city": "Barvinkove", "images": []}, {"id": 418936, "min_date": "2019-06-13T10:12:00Z", "max_date": "2019-06-13T10:12:00Z", "count_points": 1, "latitude": 50.07929, "longitude": 36.61887, "city": "Staryy Saltiv", "images": []}, {"id": 418937, "min_date": "2019-06-13T11:54:00Z", "max_date": "2019-06-13T11:54:00Z", "count_points": 3, "latitude": 51.39747, "longitude": 24.76213, "city": "Kovel", "images": []}, {"id": 418938, "min_date": "2019-06-13T22:24:00Z", "max_date": "2019-06-14T23:48:00Z", "count_points": 3, "latitude": 49.92349, "longitude": 35.24005, "city": "Kolomak", "images": []}, {"id": 418939, "min_date": "2019-06-13T22:24:00Z", "max_date": "2019-06-14T00:06:00Z", "count_points": 2, "latitude": 48.09277, "longitude": 38.43063, "city": "Shakhtars\u2019k", "images": []}, {"id": 418940, "min_date": "2019-06-14T00:06:00Z", "max_date": "2019-06-14T00:06:00Z", "count_points": 1, "latitude": 50.58517, "longitude": 30.00717, "city": "Klavdiyevo-Tarasove", "images": []}, {"id": 418941, "min_date": "2019-06-14T00:06:00Z", "max_date": "2019-06-14T00:06:00Z", "count_points": 1, "latitude": 47.1604, "longitude": 30.78567, "city": "Berezivka", "images": []}, {"id": 418942, "min_date": "2019-06-14T00:06:00Z", "max_date": "2019-06-14T00:06:00Z", "count_points": 1, "latitude": 49.16765, "longitude": 35.41467, "city": "Zachepylivka", "images": []}, {"id": 418943, "min_date": "2019-06-14T00:06:00Z", "max_date": "2019-06-14T00:06:00Z", "count_points": 1, "latitude": 51.42501, "longitude": 23.90778, "city": "Svityaz\u2019", "images": []}, {"id": 418944, "min_date": "2019-06-14T09:54:00Z", "max_date": "2019-06-14T09:54:00Z", "count_points": 1, "latitude": 48.25736, "longitude": 25.23743, "city": "Vyzhnytsya", "images": []}, {"id": 418945, "min_date": "2019-06-14T09:54:00Z", "max_date": "2019-06-14T09:54:00Z", "count_points": 1, "latitude": 50.65783, "longitude": 30.70208, "city": "Pukhivka", "images": []}, {"id": 418946, "min_date": "2019-06-14T09:54:00Z", "max_date": "2019-06-14T09:54:00Z", "count_points": 1, "latitude": 48.0572, "longitude": 35.70241, "city": "Novomykolayivka", "images": []}, {"id": 418947, "min_date": "2019-06-14T09:54:00Z", "max_date": "2019-06-14T09:54:00Z", "count_points": 1, "latitude": 49.56015, "longitude": 32.08595, "city": "Zolotonosha", "images": []}, {"id": 418948, "min_date": "2019-06-14T09:54:00Z", "max_date": "2019-06-14T09:54:00Z", "count_points": 2, "latitude": 48.71078, "longitude": 29.52246, "city": "Haisyn", "images": []}, {"id": 418949, "min_date": "2019-06-14T09:54:00Z", "max_date": "2019-06-14T08:54:00Z", "count_points": 6, "latitude": 48.24853, "longitude": 39.72707, "city": "Krasnodon", "images": [{"image_url": "418949.jpg", "timestamp": "2019-06-14T08:54:00Z"}]}, {"id": 418950, "min_date": "2019-06-14T09:54:00Z", "max_date": "2019-06-14T11:36:00Z", "count_points": 4, "latitude": 49.87838, "longitude": 27.62823, "city": "Liubar", "images": []}, {"id": 418951, "min_date": "2019-06-14T09:54:00Z", "max_date": "2019-06-14T11:36:00Z", "count_points": 2, "latitude": 51.65754, "longitude": 31.70106, "city": "Berezna", "images": []}, {"id": 418952, "min_date": "2019-06-14T09:54:00Z", "max_date": "2019-06-14T09:54:00Z", "count_points": 1, "latitude": 47.80551, "longitude": 38.51716, "city": "Amvrosiyivka", "images": []}, {"id": 418953, "min_date": "2019-06-14T09:54:00Z", "max_date": "2019-06-14T09:54:00Z", "count_points": 2, "latitude": 48.6011, "longitude": 34.64995, "city": "Kamianske", "images": []}, {"id": 418954, "min_date": "2019-06-14T11:36:00Z", "max_date": "2019-06-14T11:36:00Z", "count_points": 1, "latitude": 50.41149, "longitude": 24.89985, "city": "Kulykiv", "images": []}, {"id": 418955, "min_date": "2019-06-14T11:36:00Z", "max_date": "2019-06-14T08:54:00Z", "count_points": 2, "latitude": 50.02911, "longitude": 33.55918, "city": "Myrhorod", "images": []}, {"id": 418956, "min_date": "2019-06-14T23:48:00Z", "max_date": "2019-06-14T23:48:00Z", "count_points": 1, "latitude": 49.64398, "longitude": 37.62285, "city": "Kivsharivka", "images": []}, {"id": 418957, "min_date": "2019-06-14T23:48:00Z", "max_date": "2019-06-14T08:54:00Z", "count_points": 3, "latitude": 49.32329, "longitude": 32.25323, "city": "Chervona Sloboda", "images": []}, {"id": 418958, "min_date": "2019-06-14T23:48:00Z", "max_date": "2019-06-14T23:48:00Z", "count_points": 1, "latitude": 48.72065, "longitude": 28.84381, "city": "Tulchyn", "images": []}, {"id": 418959, "min_date": "2019-06-14T23:48:00Z", "max_date": "2019-06-14T23:48:00Z", "count_points": 1, "latitude": 49.61575, "longitude": 34.78307, "city": "Mashivka", "images": []}, {"id": 418960, "min_date": "2019-06-14T23:48:00Z", "max_date": "2019-06-16T10:54:00Z", "count_points": 13, "latitude": 48.46139, "longitude": 38.404, "city": "Debal\u2019tseve", "images": []}, {"id": 418961, "min_date": "2019-06-15T09:36:00Z", "max_date": "2019-06-15T23:30:00Z", "count_points": 3, "latitude": 48.33677, "longitude": 37.28167, "city": "Myrnohrad", "images": []}, {"id": 418962, "min_date": "2019-06-15T09:36:00Z", "max_date": "2019-06-15T11:12:00Z", "count_points": 4, "latitude": 46.08713, "longitude": 34.17613, "city": "Krasnoarmeyskoye", "images": []}, {"id": 418963, "min_date": "2019-06-15T09:36:00Z", "max_date": "2019-06-15T09:36:00Z", "count_points": 1, "latitude": 47.94754, "longitude": 39.03337, "city": "Dmytrivka", "images": []}, {"id": 418964, "min_date": "2019-06-15T09:36:00Z", "max_date": "2019-06-16T10:26:00Z", "count_points": 15, "latitude": 47.38733, "longitude": 37.87132, "city": "Tel\u2019manove", "images": [{"image_url": "418964.jpg", "timestamp": "2019-06-16T10:26:00Z"}]}, {"id": 418965, "min_date": "2019-06-15T09:36:00Z", "max_date": "2019-06-15T09:36:00Z", "count_points": 1, "latitude": 48.65718, "longitude": 38.65433, "city": "Kirovs\u2019k", "images": []}, {"id": 418966, "min_date": "2019-06-15T09:36:00Z", "max_date": "2019-06-15T09:36:00Z", "count_points": 1, "latitude": 48.83243, "longitude": 38.76038, "city": "Frunze", "images": []}, {"id": 418967, "min_date": "2019-06-15T11:12:00Z", "max_date": "2019-06-15T11:12:00Z", "count_points": 1, "latitude": 48.70969, "longitude": 38.63253, "city": "Kirovs\u2019k", "images": []}, {"id": 418968, "min_date": "2019-06-15T11:12:00Z", "max_date": "2019-06-15T11:12:00Z", "count_points": 1, "latitude": 47.21135, "longitude": 32.21388, "city": "Bashtanka", "images": []}, {"id": 418969, "min_date": "2019-06-15T11:12:00Z", "max_date": "2019-06-15T11:12:00Z", "count_points": 2, "latitude": 46.15924, "longitude": 30.34955, "city": "Bilhorod-Dnistrovskyi", "images": []}, {"id": 418970, "min_date": "2019-06-15T11:12:00Z", "max_date": "2019-06-15T11:12:00Z", "count_points": 2, "latitude": 45.96662, "longitude": 33.81277, "city": "Krasnoperekops\u2019k", "images": []}, {"id": 418971, "min_date": "2019-06-15T11:12:00Z", "max_date": "2019-06-15T11:22:00Z", "count_points": 4, "latitude": 48.36606, "longitude": 36.3514, "city": "Petropavlivka", "images": []}, {"id": 418972, "min_date": "2019-06-15T11:12:00Z", "max_date": "2019-06-15T11:12:00Z", "count_points": 1, "latitude": 46.48809, "longitude": 30.56659, "city": "Usatove", "images": []}, {"id": 418973, "min_date": "2019-06-15T11:12:00Z", "max_date": "2019-06-15T11:12:00Z", "count_points": 1, "latitude": 49.03608, "longitude": 39.6492, "city": "Bilovodsk", "images": []}, {"id": 418974, "min_date": "2019-06-15T11:18:00Z", "max_date": "2019-06-15T09:37:00Z", "count_points": 3, "latitude": 49.41407, "longitude": 23.84611, "city": "Medenychi", "images": []}, {"id": 418975, "min_date": "2019-06-15T11:18:00Z", "max_date": "2019-06-15T11:18:00Z", "count_points": 2, "latitude": 49.33875, "longitude": 23.89594, "city": "Stryi", "images": []}, {"id": 418976, "min_date": "2019-06-15T11:18:00Z", "max_date": "2019-06-15T11:18:00Z", "count_points": 1, "latitude": 50.79514, "longitude": 28.66253, "city": "Nova Borova", "images": []}, {"id": 418977, "min_date": "2019-06-15T11:18:00Z", "max_date": "2019-06-15T11:18:00Z", "count_points": 1, "latitude": 52.2204, "longitude": 33.65799, "city": "Yampil\u2019", "images": []}, {"id": 418978, "min_date": "2019-06-15T23:30:00Z", "max_date": "2019-06-16T01:12:00Z", "count_points": 2, "latitude": 49.0622, "longitude": 24.29122, "city": "Kalush", "images": []}, {"id": 418979, "min_date": "2019-06-15T23:30:00Z", "max_date": "2019-06-15T23:30:00Z", "count_points": 1, "latitude": 48.77897, "longitude": 37.5732, "city": "Kramators\u2019k", "images": []}, {"id": 418980, "min_date": "2019-06-16T01:06:00Z", "max_date": "2019-06-16T01:06:00Z", "count_points": 1, "latitude": 51.54595, "longitude": 23.94735, "city": "Shats\u2019k", "images": []}, {"id": 418981, "min_date": "2019-06-16T09:12:00Z", "max_date": "2019-06-16T10:26:00Z", "count_points": 4, "latitude": 47.10707, "longitude": 37.82178, "city": "Bezimenne", "images": [{"image_url": "418981.jpg", "timestamp": "2019-06-16T10:26:00Z"}]}, {"id": 418982, "min_date": "2019-06-16T09:12:00Z", "max_date": "2019-06-16T10:26:00Z", "count_points": 11, "latitude": 47.22075, "longitude": 37.82412, "city": "Sartana", "images": []}, {"id": 418983, "min_date": "2019-06-16T09:12:00Z", "max_date": "2019-06-16T08:43:00Z", "count_points": 2, "latitude": 45.44756, "longitude": 35.009, "city": "Nekrasovka", "images": []}, {"id": 418984, "min_date": "2019-06-16T09:12:00Z", "max_date": "2019-06-16T09:12:00Z", "count_points": 1, "latitude": 46.64608, "longitude": 34.66556, "city": "Ivanivka", "images": []}, {"id": 418985, "min_date": "2019-06-16T09:12:00Z", "max_date": "2019-06-16T09:12:00Z", "count_points": 1, "latitude": 47.17532, "longitude": 37.80578, "city": "Sartana", "images": []}, {"id": 418986, "min_date": "2019-06-16T09:18:00Z", "max_date": "2019-06-16T10:27:00Z", "count_points": 3, "latitude": 49.59223, "longitude": 37.67946, "city": "Kivsharivka", "images": []}, {"id": 418987, "min_date": "2019-06-16T09:18:00Z", "max_date": "2019-06-16T09:18:00Z", "count_points": 2, "latitude": 46.78025, "longitude": 31.27997, "city": "Berezanka", "images": []}, {"id": 418988, "min_date": "2019-06-16T10:54:00Z", "max_date": "2019-06-16T10:54:00Z", "count_points": 1, "latitude": 49.59361, "longitude": 34.73585, "city": "Poltava", "images": []}, {"id": 418989, "min_date": "2019-06-16T10:54:00Z", "max_date": "2019-06-16T10:54:00Z", "count_points": 1, "latitude": 50.32961, "longitude": 25.07284, "city": "Berestechko", "images": []}, {"id": 418990, "min_date": "2019-06-16T10:54:00Z", "max_date": "2019-06-16T10:26:00Z", "count_points": 4, "latitude": 45.34912, "longitude": 36.46168, "city": "Kerch", "images": [{"image_url": "418990.jpg", "timestamp": "2019-06-16T10:26:00Z"}]}, {"id": 418991, "min_date": "2019-06-16T10:54:00Z", "max_date": "2019-06-16T10:54:00Z", "count_points": 1, "latitude": 48.96951, "longitude": 26.34352, "city": "Chemerivtsi", "images": []}, {"id": 418992, "min_date": "2019-06-16T10:54:00Z", "max_date": "2019-06-16T10:54:00Z", "count_points": 1, "latitude": 47.72712, "longitude": 37.34875, "city": "Blahodatne", "images": []}, {"id": 418993, "min_date": "2019-06-16T10:54:00Z", "max_date": "2019-06-16T10:54:00Z", "count_points": 1, "latitude": 51.69858, "longitude": 30.62167, "city": "Lyubech", "images": []}, {"id": 418994, "min_date": "2019-06-16T10:54:00Z", "max_date": "2019-06-16T10:54:00Z", "count_points": 1, "latitude": 46.36395, "longitude": 30.57242, "city": "Oleksandrivka", "images": []}, {"id": 418995, "min_date": "2019-06-16T10:54:00Z", "max_date": "2019-06-16T10:54:00Z", "count_points": 1, "latitude": 48.4393, "longitude": 26.49298, "city": "Khotyn", "images": []}, {"id": 418996, "min_date": "2019-06-16T23:12:00Z", "max_date": "2019-06-16T23:12:00Z", "count_points": 1, "latitude": 50.03429, "longitude": 34.86166, "city": "Kotel\u2019va", "images": []}, {"id": 418997, "min_date": "2019-06-16T23:12:00Z", "max_date": "2019-06-16T23:12:00Z", "count_points": 1, "latitude": 47.22032, "longitude": 30.07545, "city": "Shyryayeve", "images": []}, {"id": 418998, "min_date": "2019-06-16T23:12:00Z", "max_date": "2019-06-16T23:12:00Z", "count_points": 1, "latitude": 47.51601, "longitude": 36.83553, "city": "Komysh-Zorya", "images": []}, {"id": 418999, "min_date": "2019-06-16T23:12:00Z", "max_date": "2019-06-16T23:12:00Z", "count_points": 2, "latitude": 47.60768, "longitude": 37.91641, "city": "Starobesheve", "images": []}, {"id": 419000, "min_date": "2019-06-10T09:18:00Z", "max_date": "2019-06-10T09:18:00Z", "count_points": 1, "latitude": 49.2474, "longitude": 39.9321, "city": "Milove", "images": []}, {"id": 419001, "min_date": "2019-06-10T09:18:00Z", "max_date": "2019-06-10T09:18:00Z", "count_points": 1, "latitude": 51.2298, "longitude": 29.1428, "city": "Narodychi", "images": []}, {"id": 419002, "min_date": "2019-06-10T09:19:00Z", "max_date": "2019-06-10T09:19:00Z", "count_points": 1, "latitude": 50.0014, "longitude": 27.418, "city": "Novoselytsya", "images": []}, {"id": 419003, "min_date": "2019-06-10T09:19:00Z", "max_date": "2019-06-10T09:19:00Z", "count_points": 1, "latitude": 50.0239, "longitude": 32.221, "city": "Drabiv", "images": []}, {"id": 419004, "min_date": "2019-06-10T09:19:00Z", "max_date": "2019-06-10T09:19:00Z", "count_points": 1, "latitude": 50.1404, "longitude": 27.0976, "city": "Shepetivka", "images": []}, {"id": 419005, "min_date": "2019-06-10T11:04:00Z", "max_date": "2019-06-10T11:04:00Z", "count_points": 1, "latitude": 49.7039, "longitude": 25.9277, "city": "Zbarazh", "images": []}, {"id": 419006, "min_date": "2019-06-10T11:04:00Z", "max_date": "2019-06-10T11:04:00Z", "count_points": 1, "latitude": 49.1273, "longitude": 26.872, "city": "Yarmolyntsi", "images": []}, {"id": 419007, "min_date": "2019-06-10T11:04:00Z", "max_date": "2019-06-10T11:04:00Z", "count_points": 1, "latitude": 48.9247, "longitude": 26.1452, "city": "Skala-Podil\u2019s\u2019ka", "images": []}, {"id": 419008, "min_date": "2019-06-12T09:06:00Z", "max_date": "2019-06-12T09:06:00Z", "count_points": 1, "latitude": 50.6378, "longitude": 31.9487, "city": "Zgurovka", "images": []}, {"id": 419009, "min_date": "2019-06-12T09:07:00Z", "max_date": "2019-06-12T09:07:00Z", "count_points": 1, "latitude": 49.2362, "longitude": 31.3719, "city": "Horodyshche", "images": []}, {"id": 419010, "min_date": "2019-06-12T09:07:00Z", "max_date": "2019-06-12T09:07:00Z", "count_points": 1, "latitude": 48.6253, "longitude": 35.2003, "city": "Novomoskovs\u2019k", "images": []}, {"id": 419011, "min_date": "2019-06-12T10:51:00Z", "max_date": "2019-06-12T10:51:00Z", "count_points": 1, "latitude": 47.5025, "longitude": 29.5312, "city": "Okny", "images": []}, {"id": 419012, "min_date": "2019-06-12T10:52:00Z", "max_date": "2019-06-12T10:52:00Z", "count_points": 1, "latitude": 50.8294, "longitude": 31.8582, "city": "Talalayivka", "images": []}, {"id": 419013, "min_date": "2019-06-14T08:55:00Z", "max_date": "2019-06-14T08:55:00Z", "count_points": 1, "latitude": 46.5781, "longitude": 30.8417, "city": "Fontanka", "images": []}, {"id": 419014, "min_date": "2019-06-15T09:37:00Z", "max_date": "2019-06-15T09:37:00Z", "count_points": 1, "latitude": 51.3399, "longitude": 24.8848, "city": "Nuyno", "images": []}, {"id": 419015, "min_date": "2019-06-15T09:37:00Z", "max_date": "2019-06-15T09:37:00Z", "count_points": 1, "latitude": 48.8246, "longitude": 26.3071, "city": "Skala-Podil\u2019s\u2019ka", "images": []}, {"id": 419016, "min_date": "2019-06-15T09:37:00Z", "max_date": "2019-06-15T09:37:00Z", "count_points": 1, "latitude": 49.9247, "longitude": 29.9055, "city": "Fastiv", "images": []}, {"id": 419017, "min_date": "2019-06-15T09:37:00Z", "max_date": "2019-06-15T09:37:00Z", "count_points": 1, "latitude": 50.1335, "longitude": 27.3308, "city": "Polonne", "images": []}, {"id": 419018, "min_date": "2019-06-15T11:22:00Z", "max_date": "2019-06-15T11:22:00Z", "count_points": 1, "latitude": 50.2667, "longitude": 26.069, "city": "Shumsk", "images": []}, {"id": 419019, "min_date": "2019-06-16T08:42:00Z", "max_date": "2019-06-16T08:42:00Z", "count_points": 2, "latitude": 47.54555, "longitude": 37.73445, "city": "Dokuchayevs\u2019k", "images": []}, {"id": 419020, "min_date": "2019-06-16T19:51:00Z", "max_date": "2019-06-16T19:51:00Z", "count_points": 1, "latitude": 46.8658, "longitude": 32.3675, "city": "Shevchenkove", "images": []}]