[{"id": 419021, "min_date": "2019-06-17T00:48:00Z", "max_date": "2019-06-17T00:48:00Z", "count_points": 1, "latitude": 45.99942, "longitude": 29.45007, "city": "Artsyz", "images": []}, {"id": 419022, "min_date": "2019-06-17T00:48:00Z", "max_date": "2019-06-17T00:48:00Z", "count_points": 1, "latitude": 51.11446, "longitude": 27.68091, "city": "Olevs\u2019k", "images": []}, {"id": 419023, "min_date": "2019-06-17T00:48:00Z", "max_date": "2019-06-17T00:48:00Z", "count_points": 1, "latitude": 47.97441, "longitude": 37.74775, "city": "Donetsk", "images": []}, {"id": 419024, "min_date": "2019-06-17T00:48:00Z", "max_date": "2019-06-17T00:48:00Z", "count_points": 1, "latitude": 50.64077, "longitude": 27.66082, "city": "Novohrad-Volynskyi", "images": []}, {"id": 419025, "min_date": "2019-06-17T08:54:00Z", "max_date": "2019-06-17T09:31:00Z", "count_points": 12, "latitude": 48.48473, "longitude": 38.4202, "city": "Debal\u2019tseve", "images": []}, {"id": 419026, "min_date": "2019-06-17T08:54:00Z", "max_date": "2019-06-17T10:36:00Z", "count_points": 5, "latitude": 48.44884, "longitude": 38.2968, "city": "Luhans\u2019ke", "images": []}, {"id": 419027, "min_date": "2019-06-17T08:54:00Z", "max_date": "2019-06-17T10:36:00Z", "count_points": 2, "latitude": 48.60804, "longitude": 35.83568, "city": "Pavlohrad", "images": []}, {"id": 419028, "min_date": "2019-06-17T09:00:00Z", "max_date": "2019-06-17T09:25:00Z", "count_points": 2, "latitude": 50.03402, "longitude": 33.55585, "city": "Myrhorod", "images": []}, {"id": 419029, "min_date": "2019-06-17T10:36:00Z", "max_date": "2019-06-17T10:36:00Z", "count_points": 2, "latitude": 49.00316, "longitude": 31.87715, "city": "Kapitanivka", "images": []}, {"id": 419030, "min_date": "2019-06-17T10:36:00Z", "max_date": "2019-06-17T10:36:00Z", "count_points": 1, "latitude": 50.12413, "longitude": 31.45049, "city": "Pereyaslav-Khmel\u2019nyts\u2019kyy", "images": []}, {"id": 419031, "min_date": "2019-06-17T10:36:00Z", "max_date": "2019-06-17T10:36:00Z", "count_points": 2, "latitude": 47.60741, "longitude": 37.9019, "city": "Starobesheve", "images": []}, {"id": 419032, "min_date": "2019-06-17T10:36:00Z", "max_date": "2019-06-17T10:36:00Z", "count_points": 1, "latitude": 51.49216, "longitude": 32.4533, "city": "Sosnytsya", "images": []}, {"id": 419033, "min_date": "2019-06-17T10:36:00Z", "max_date": "2019-06-17T10:36:00Z", "count_points": 1, "latitude": 46.60551, "longitude": 30.85908, "city": "Fontanka", "images": []}, {"id": 419034, "min_date": "2019-06-17T10:36:00Z", "max_date": "2019-06-17T10:36:00Z", "count_points": 1, "latitude": 50.79811, "longitude": 32.42153, "city": "Ichnya", "images": []}, {"id": 419035, "min_date": "2019-06-17T10:36:00Z", "max_date": "2019-06-17T10:36:00Z", "count_points": 1, "latitude": 48.10099, "longitude": 39.06759, "city": "Kripens\u2019kyy", "images": []}, {"id": 419036, "min_date": "2019-06-17T10:36:00Z", "max_date": "2019-06-19T00:12:00Z", "count_points": 4, "latitude": 49.63024, "longitude": 34.31245, "city": "Poltava", "images": []}, {"id": 419037, "min_date": "2019-06-17T10:36:00Z", "max_date": "2019-06-17T10:36:00Z", "count_points": 1, "latitude": 52.09821, "longitude": 32.54008, "city": "Semenivka", "images": []}, {"id": 419038, "min_date": "2019-06-17T10:36:00Z", "max_date": "2019-06-17T10:36:00Z", "count_points": 2, "latitude": 46.58634, "longitude": 33.42791, "city": "Chornyanka", "images": []}, {"id": 419039, "min_date": "2019-06-17T10:36:00Z", "max_date": "2019-06-17T10:36:00Z", "count_points": 1, "latitude": 47.63328, "longitude": 33.82782, "city": "Apostolove", "images": []}, {"id": 419040, "min_date": "2019-06-17T10:36:00Z", "max_date": "2019-06-17T10:36:00Z", "count_points": 1, "latitude": 48.20599, "longitude": 34.6036, "city": "Surs\u2019ko-Mykhaylivka", "images": []}, {"id": 419041, "min_date": "2019-06-17T10:36:00Z", "max_date": "2019-06-17T10:36:00Z", "count_points": 1, "latitude": 49.86479, "longitude": 23.94619, "city": "Bryukhovychi", "images": []}, {"id": 419042, "min_date": "2019-06-17T10:36:00Z", "max_date": "2019-06-17T10:36:00Z", "count_points": 1, "latitude": 45.35993, "longitude": 36.35461, "city": "Oktyabrskoye", "images": []}, {"id": 419043, "min_date": "2019-06-17T10:36:00Z", "max_date": "2019-06-17T10:36:00Z", "count_points": 1, "latitude": 50.79876, "longitude": 30.2664, "city": "Dymer", "images": []}, {"id": 419044, "min_date": "2019-06-17T10:36:00Z", "max_date": "2019-06-17T10:36:00Z", "count_points": 1, "latitude": 50.28655, "longitude": 29.62844, "city": "Brusyliv", "images": []}, {"id": 419045, "min_date": "2019-06-17T10:36:00Z", "max_date": "2019-06-17T10:36:00Z", "count_points": 1, "latitude": 47.78666, "longitude": 36.3738, "city": "Hulyaypole", "images": []}, {"id": 419046, "min_date": "2019-06-17T10:36:00Z", "max_date": "2019-06-17T10:36:00Z", "count_points": 1, "latitude": 46.36896, "longitude": 30.71319, "city": "Tayirove", "images": []}, {"id": 419047, "min_date": "2019-06-17T22:48:00Z", "max_date": "2019-06-17T22:48:00Z", "count_points": 2, "latitude": 50.30612, "longitude": 33.8961, "city": "Hadyach", "images": []}, {"id": 419048, "min_date": "2019-06-17T22:48:00Z", "max_date": "2019-06-17T22:48:00Z", "count_points": 2, "latitude": 51.37135, "longitude": 31.67683, "city": "Kulykivka", "images": []}, {"id": 419049, "min_date": "2019-06-17T22:48:00Z", "max_date": "2019-06-17T22:48:00Z", "count_points": 1, "latitude": 49.16947, "longitude": 33.43628, "city": "Kremenchuk", "images": []}, {"id": 419050, "min_date": "2019-06-17T22:48:00Z", "max_date": "2019-06-17T22:48:00Z", "count_points": 1, "latitude": 48.79899, "longitude": 34.29914, "city": "Verkhn\u2019odniprovs\u2019k", "images": []}, {"id": 419051, "min_date": "2019-06-17T22:48:00Z", "max_date": "2019-06-17T22:48:00Z", "count_points": 2, "latitude": 50.42409, "longitude": 33.59605, "city": "Lypova Dolyna", "images": []}, {"id": 419052, "min_date": "2019-06-17T22:48:00Z", "max_date": "2019-06-18T00:30:00Z", "count_points": 2, "latitude": 47.72901, "longitude": 35.55488, "city": "Komyshuvakha", "images": []}, {"id": 419053, "min_date": "2019-06-18T00:30:00Z", "max_date": "2019-06-19T00:12:00Z", "count_points": 3, "latitude": 49.5317, "longitude": 37.06621, "city": "Savyntsi", "images": []}, {"id": 419054, "min_date": "2019-06-18T10:18:00Z", "max_date": "2019-06-18T10:18:00Z", "count_points": 1, "latitude": 45.71217, "longitude": 34.78969, "city": "Pshenichnoye", "images": []}, {"id": 419055, "min_date": "2019-06-18T10:18:00Z", "max_date": "2019-06-18T10:18:00Z", "count_points": 1, "latitude": 47.42443, "longitude": 34.50829, "city": "Vodyane", "images": []}, {"id": 419056, "min_date": "2019-06-18T10:18:00Z", "max_date": "2019-06-18T10:18:00Z", "count_points": 2, "latitude": 49.24634, "longitude": 31.5833, "city": "Tsvetkovo", "images": []}, {"id": 419057, "min_date": "2019-06-18T10:18:00Z", "max_date": "2019-06-18T10:18:00Z", "count_points": 1, "latitude": 49.02022, "longitude": 37.30702, "city": "Studenok", "images": []}, {"id": 419058, "min_date": "2019-06-18T10:18:00Z", "max_date": "2019-06-18T10:18:00Z", "count_points": 1, "latitude": 49.35036, "longitude": 29.93559, "city": "Volodarka", "images": []}, {"id": 419059, "min_date": "2019-06-18T10:18:00Z", "max_date": "2019-06-18T10:18:00Z", "count_points": 1, "latitude": 45.80477, "longitude": 29.95851, "city": "Kulevcha", "images": []}, {"id": 419060, "min_date": "2019-06-18T10:18:00Z", "max_date": "2019-06-18T10:18:00Z", "count_points": 1, "latitude": 46.8241, "longitude": 32.59792, "city": "Chornobayivka", "images": []}, {"id": 419061, "min_date": "2019-06-18T10:18:00Z", "max_date": "2019-06-18T10:18:00Z", "count_points": 1, "latitude": 46.66521, "longitude": 35.13602, "city": "Yakymivka", "images": []}, {"id": 419062, "min_date": "2019-06-18T10:18:00Z", "max_date": "2019-06-18T10:18:00Z", "count_points": 1, "latitude": 50.27811, "longitude": 35.04564, "city": "Kyrykivka", "images": []}, {"id": 419063, "min_date": "2019-06-18T10:18:00Z", "max_date": "2019-06-18T08:29:00Z", "count_points": 4, "latitude": 49.98838, "longitude": 35.63788, "city": "Staryy Merchyk", "images": [{"image_url": "419063.jpg", "timestamp": "2019-06-18T08:29:00Z"}]}, {"id": 419064, "min_date": "2019-06-18T10:18:00Z", "max_date": "2019-06-18T10:18:00Z", "count_points": 1, "latitude": 49.58572, "longitude": 35.38334, "city": "Varvarivka", "images": []}, {"id": 419065, "min_date": "2019-06-18T10:18:00Z", "max_date": "2019-06-18T10:18:00Z", "count_points": 1, "latitude": 48.6147, "longitude": 34.52511, "city": "Auly", "images": []}, {"id": 419066, "min_date": "2019-06-18T10:18:00Z", "max_date": "2019-06-18T10:18:00Z", "count_points": 1, "latitude": 48.36881, "longitude": 38.60803, "city": "Bayrachky", "images": []}, {"id": 419067, "min_date": "2019-06-18T10:18:00Z", "max_date": "2019-06-21T10:44:00Z", "count_points": 17, "latitude": 47.13843, "longitude": 37.81507, "city": "Bezimenne", "images": [{"image_url": "419067.jpg", "timestamp": "2019-06-21T10:44:00Z"}]}, {"id": 419068, "min_date": "2019-06-18T10:18:00Z", "max_date": "2019-06-18T10:18:00Z", "count_points": 1, "latitude": 46.82094, "longitude": 35.36879, "city": "Melitopol", "images": []}, {"id": 419069, "min_date": "2019-06-18T10:18:00Z", "max_date": "2019-06-18T10:18:00Z", "count_points": 1, "latitude": 48.35574, "longitude": 36.35084, "city": "Petropavlivka", "images": []}, {"id": 419070, "min_date": "2019-06-18T10:18:00Z", "max_date": "2019-06-18T10:15:00Z", "count_points": 2, "latitude": 51.22845, "longitude": 30.82903, "city": "Oster", "images": []}, {"id": 419071, "min_date": "2019-06-18T12:00:00Z", "max_date": "2019-06-18T12:00:00Z", "count_points": 1, "latitude": 49.25075, "longitude": 29.74699, "city": "Tetiiv", "images": []}, {"id": 419072, "min_date": "2019-06-18T22:30:00Z", "max_date": "2019-06-18T22:30:00Z", "count_points": 1, "latitude": 47.37398, "longitude": 37.61591, "city": "Sartana", "images": []}, {"id": 419073, "min_date": "2019-06-18T22:30:00Z", "max_date": "2019-06-19T00:12:00Z", "count_points": 2, "latitude": 49.54426, "longitude": 35.45139, "city": "Verbivka", "images": []}, {"id": 419074, "min_date": "2019-06-18T22:30:00Z", "max_date": "2019-06-19T00:12:00Z", "count_points": 5, "latitude": 48.2859, "longitude": 38.44356, "city": "Debal\u2019tseve", "images": []}, {"id": 419075, "min_date": "2019-06-19T00:12:00Z", "max_date": "2019-06-19T00:12:00Z", "count_points": 1, "latitude": 49.00616, "longitude": 35.13123, "city": "Zachepylivka", "images": []}, {"id": 419076, "min_date": "2019-06-19T00:12:00Z", "max_date": "2019-06-19T00:12:00Z", "count_points": 1, "latitude": 48.26094, "longitude": 37.10876, "city": "Krasnoarmiys\u2019k", "images": []}, {"id": 419077, "min_date": "2019-06-19T00:12:00Z", "max_date": "2019-06-19T00:12:00Z", "count_points": 1, "latitude": 48.74583, "longitude": 30.16628, "city": "Uman\u2019", "images": []}, {"id": 419078, "min_date": "2019-06-19T00:12:00Z", "max_date": "2019-06-19T00:12:00Z", "count_points": 2, "latitude": 48.16898, "longitude": 22.86101, "city": "Vylok", "images": []}, {"id": 419079, "min_date": "2019-06-19T00:12:00Z", "max_date": "2019-06-20T23:36:00Z", "count_points": 2, "latitude": 49.01218, "longitude": 38.39712, "city": "Rubizhne", "images": []}, {"id": 419080, "min_date": "2019-06-19T10:00:00Z", "max_date": "2019-06-19T10:00:00Z", "count_points": 1, "latitude": 49.13995, "longitude": 38.58168, "city": "Syevyerodonets\u2019k", "images": []}, {"id": 419081, "min_date": "2019-06-19T10:00:00Z", "max_date": "2019-06-19T10:00:00Z", "count_points": 1, "latitude": 49.24719, "longitude": 35.90858, "city": "Sakhnovshchyna", "images": []}, {"id": 419082, "min_date": "2019-06-19T10:00:00Z", "max_date": "2019-06-19T10:00:00Z", "count_points": 1, "latitude": 49.7998, "longitude": 31.65494, "city": "Kaniv", "images": []}, {"id": 419083, "min_date": "2019-06-19T10:00:00Z", "max_date": "2019-06-19T10:00:00Z", "count_points": 1, "latitude": 51.26219, "longitude": 30.80861, "city": "Slavutych", "images": []}, {"id": 419084, "min_date": "2019-06-19T10:00:00Z", "max_date": "2019-06-19T10:00:00Z", "count_points": 1, "latitude": 45.29628, "longitude": 36.40993, "city": "Oktyabrskoye", "images": []}, {"id": 419085, "min_date": "2019-06-19T10:00:00Z", "max_date": "2019-06-19T10:00:00Z", "count_points": 1, "latitude": 46.61105, "longitude": 33.4539, "city": "Chornyanka", "images": []}, {"id": 419086, "min_date": "2019-06-19T10:00:00Z", "max_date": "2019-06-19T10:00:00Z", "count_points": 2, "latitude": 48.72015, "longitude": 26.57535, "city": "Kamianets-Podilskyi", "images": []}, {"id": 419087, "min_date": "2019-06-19T10:00:00Z", "max_date": "2019-06-19T10:00:00Z", "count_points": 1, "latitude": 49.15299, "longitude": 35.03698, "city": "Zachepylivka", "images": []}, {"id": 419088, "min_date": "2019-06-19T11:42:00Z", "max_date": "2019-06-19T11:42:00Z", "count_points": 2, "latitude": 50.87655, "longitude": 30.79405, "city": "Desna", "images": []}, {"id": 419089, "min_date": "2019-06-19T11:42:00Z", "max_date": "2019-06-19T11:42:00Z", "count_points": 1, "latitude": 47.76361, "longitude": 31.30073, "city": "Yuzhnoukrainsk", "images": []}, {"id": 419090, "min_date": "2019-06-19T23:54:00Z", "max_date": "2019-06-19T23:54:00Z", "count_points": 1, "latitude": 49.37629, "longitude": 37.77978, "city": "Borova", "images": []}, {"id": 419091, "min_date": "2019-06-19T23:54:00Z", "max_date": "2019-06-19T18:44:00Z", "count_points": 4, "latitude": 47.22028, "longitude": 31.45729, "city": "Veselynove", "images": []}, {"id": 419092, "min_date": "2019-06-19T23:54:00Z", "max_date": "2019-06-19T23:54:00Z", "count_points": 1, "latitude": 49.53542, "longitude": 39.59992, "city": "Markivka", "images": []}, {"id": 419093, "min_date": "2019-06-19T23:54:00Z", "max_date": "2019-06-19T23:54:00Z", "count_points": 1, "latitude": 49.70892, "longitude": 32.3618, "city": "Chornobay", "images": []}, {"id": 419094, "min_date": "2019-06-19T23:54:00Z", "max_date": "2019-06-19T23:54:00Z", "count_points": 1, "latitude": 48.1914, "longitude": 31.87786, "city": "Rivne", "images": []}, {"id": 419095, "min_date": "2019-06-20T09:42:00Z", "max_date": "2019-06-22T11:27:00Z", "count_points": 25, "latitude": 47.07887, "longitude": 31.49674, "city": "Berezanka", "images": [{"image_url": "419095.jpg", "timestamp": "2019-06-22T11:27:00Z"}]}, {"id": 419096, "min_date": "2019-06-20T09:42:00Z", "max_date": "2019-06-20T09:42:00Z", "count_points": 1, "latitude": 46.78481, "longitude": 36.76895, "city": "Berdyansk", "images": []}, {"id": 419097, "min_date": "2019-06-20T09:42:00Z", "max_date": "2019-06-20T09:42:00Z", "count_points": 1, "latitude": 51.09948, "longitude": 32.50854, "city": "Borzna", "images": []}, {"id": 419098, "min_date": "2019-06-20T09:42:00Z", "max_date": "2019-06-20T09:42:00Z", "count_points": 2, "latitude": 47.99174, "longitude": 39.00247, "city": "Dmytrivka", "images": []}, {"id": 419099, "min_date": "2019-06-20T09:42:00Z", "max_date": "2019-06-20T09:42:00Z", "count_points": 1, "latitude": 49.422, "longitude": 36.21087, "city": "Pervomays\u2019kyy", "images": []}, {"id": 419100, "min_date": "2019-06-20T11:18:00Z", "max_date": "2019-06-20T11:18:00Z", "count_points": 1, "latitude": 47.71095, "longitude": 31.90034, "city": "Yelanets\u2019", "images": []}, {"id": 419101, "min_date": "2019-06-20T11:18:00Z", "max_date": "2019-06-22T10:42:00Z", "count_points": 5, "latitude": 46.33733, "longitude": 30.57376, "city": "Oleksandrivka", "images": [{"image_url": "419101.jpg", "timestamp": "2019-06-22T10:42:00Z"}]}, {"id": 419102, "min_date": "2019-06-20T11:18:00Z", "max_date": "2019-06-20T11:18:00Z", "count_points": 1, "latitude": 46.63928, "longitude": 30.69862, "city": "Krasnosilka", "images": []}, {"id": 419103, "min_date": "2019-06-20T11:18:00Z", "max_date": "2019-06-20T11:18:00Z", "count_points": 4, "latitude": 47.60012, "longitude": 35.38919, "city": "Malokaterynivka", "images": [{"image_url": "419103.jpg", "timestamp": "2019-06-20T11:18:00Z"}]}, {"id": 419104, "min_date": "2019-06-20T11:18:00Z", "max_date": "2019-06-20T11:18:00Z", "count_points": 1, "latitude": 47.6776, "longitude": 33.3075, "city": "Shyroke", "images": []}, {"id": 419105, "min_date": "2019-06-20T11:18:00Z", "max_date": "2019-06-20T11:18:00Z", "count_points": 2, "latitude": 46.59724, "longitude": 35.19064, "city": "Yakymivka", "images": []}, {"id": 419106, "min_date": "2019-06-20T11:18:00Z", "max_date": "2019-06-20T23:36:00Z", "count_points": 3, "latitude": 46.19865, "longitude": 34.30172, "city": "Novotroyits\u2019ke", "images": []}, {"id": 419107, "min_date": "2019-06-20T23:36:00Z", "max_date": "2019-06-20T23:36:00Z", "count_points": 1, "latitude": 45.73945, "longitude": 34.40445, "city": "Izumrudnoye", "images": []}, {"id": 419108, "min_date": "2019-06-20T23:36:00Z", "max_date": "2019-06-20T23:36:00Z", "count_points": 1, "latitude": 48.72719, "longitude": 37.03957, "city": "Novodonets\u2019ke", "images": []}, {"id": 419109, "min_date": "2019-06-20T23:36:00Z", "max_date": "2019-06-20T23:36:00Z", "count_points": 1, "latitude": 47.16458, "longitude": 37.23698, "city": "Volodars\u2019ke", "images": []}, {"id": 419110, "min_date": "2019-06-20T23:36:00Z", "max_date": "2019-06-20T23:36:00Z", "count_points": 2, "latitude": 51.30792, "longitude": 31.4639, "city": "Olyshivka", "images": []}, {"id": 419111, "min_date": "2019-06-20T23:36:00Z", "max_date": "2019-06-20T23:36:00Z", "count_points": 1, "latitude": 47.46213, "longitude": 37.88725, "city": "Tel\u2019manove", "images": []}, {"id": 419112, "min_date": "2019-06-20T23:36:00Z", "max_date": "2019-06-21T11:00:00Z", "count_points": 7, "latitude": 47.24543, "longitude": 37.83232, "city": "Sartana", "images": []}, {"id": 419113, "min_date": "2019-06-20T23:36:00Z", "max_date": "2019-06-20T23:36:00Z", "count_points": 1, "latitude": 47.03898, "longitude": 36.69009, "city": "Osypenko", "images": []}, {"id": 419114, "min_date": "2019-06-20T23:36:00Z", "max_date": "2019-06-20T23:36:00Z", "count_points": 1, "latitude": 48.78003, "longitude": 37.57576, "city": "Kramators\u2019k", "images": []}, {"id": 419115, "min_date": "2019-06-21T09:24:00Z", "max_date": "2019-06-21T09:24:00Z", "count_points": 1, "latitude": 47.09026, "longitude": 37.74072, "city": "Sartana", "images": []}, {"id": 419116, "min_date": "2019-06-21T09:24:00Z", "max_date": "2019-06-21T09:01:00Z", "count_points": 5, "latitude": 46.60869, "longitude": 34.4361, "city": "Ivanivka", "images": []}, {"id": 419117, "min_date": "2019-06-21T09:24:00Z", "max_date": "2019-06-21T09:24:00Z", "count_points": 1, "latitude": 49.69517, "longitude": 34.27104, "city": "Reshetylivka", "images": []}, {"id": 419118, "min_date": "2019-06-21T09:24:00Z", "max_date": "2019-06-19T09:12:00Z", "count_points": 2, "latitude": 51.30424, "longitude": 32.27479, "city": "Borzna", "images": []}, {"id": 419119, "min_date": "2019-06-21T09:24:00Z", "max_date": "2019-06-21T09:00:00Z", "count_points": 10, "latitude": 48.40834, "longitude": 38.32665, "city": "Luhans\u2019ke", "images": []}, {"id": 419120, "min_date": "2019-06-21T09:24:00Z", "max_date": "2019-06-21T09:24:00Z", "count_points": 1, "latitude": 47.98112, "longitude": 37.63699, "city": "Mareyka", "images": []}, {"id": 419121, "min_date": "2019-06-21T09:24:00Z", "max_date": "2019-06-21T11:00:00Z", "count_points": 3, "latitude": 48.53097, "longitude": 29.29337, "city": "Trostyanets\u2019", "images": []}, {"id": 419122, "min_date": "2019-06-21T09:24:00Z", "max_date": "2019-06-21T09:24:00Z", "count_points": 1, "latitude": 47.16528, "longitude": 37.60193, "city": "Sartana", "images": []}, {"id": 419123, "min_date": "2019-06-21T09:24:00Z", "max_date": "2019-06-21T09:24:00Z", "count_points": 1, "latitude": 50.18691, "longitude": 31.64875, "city": "Yahotyn", "images": []}, {"id": 419124, "min_date": "2019-06-21T11:00:00Z", "max_date": "2019-06-21T11:00:00Z", "count_points": 1, "latitude": 50.77636, "longitude": 24.5161, "city": "Lokachi", "images": []}, {"id": 419125, "min_date": "2019-06-21T11:00:00Z", "max_date": "2019-06-21T10:44:00Z", "count_points": 2, "latitude": 45.45939, "longitude": 34.66305, "city": "Mitrofanovka", "images": []}, {"id": 419126, "min_date": "2019-06-21T11:00:00Z", "max_date": "2019-06-21T11:00:00Z", "count_points": 1, "latitude": 45.75078, "longitude": 34.47062, "city": "Zarechnoye", "images": []}, {"id": 419127, "min_date": "2019-06-21T11:00:00Z", "max_date": "2019-06-21T11:00:00Z", "count_points": 1, "latitude": 49.42685, "longitude": 25.49391, "city": "Mikulintsy", "images": []}, {"id": 419128, "min_date": "2019-06-21T11:00:00Z", "max_date": "2019-06-21T11:00:00Z", "count_points": 2, "latitude": 45.27808, "longitude": 36.31108, "city": "Priozyornoye", "images": []}, {"id": 419129, "min_date": "2019-06-21T11:00:00Z", "max_date": "2019-06-21T11:00:00Z", "count_points": 1, "latitude": 48.36153, "longitude": 30.50847, "city": "Holovanivs\u2019k", "images": []}, {"id": 419130, "min_date": "2019-06-21T11:00:00Z", "max_date": "2019-06-21T11:00:00Z", "count_points": 3, "latitude": 47.40283, "longitude": 37.86122, "city": "Tel\u2019manove", "images": []}, {"id": 419131, "min_date": "2019-06-21T11:00:00Z", "max_date": "2019-06-21T11:00:00Z", "count_points": 1, "latitude": 50.64193, "longitude": 29.80414, "city": "Borodianka", "images": []}, {"id": 419132, "min_date": "2019-06-21T11:00:00Z", "max_date": "2019-06-21T11:00:00Z", "count_points": 1, "latitude": 50.27652, "longitude": 28.68818, "city": "Zhytomyr", "images": []}, {"id": 419133, "min_date": "2019-06-21T11:00:00Z", "max_date": "2019-06-21T11:00:00Z", "count_points": 1, "latitude": 49.80441, "longitude": 34.52485, "city": "Dykan\u2019ka", "images": []}, {"id": 419134, "min_date": "2019-06-21T11:00:00Z", "max_date": "2019-06-21T10:45:00Z", "count_points": 7, "latitude": 50.69185, "longitude": 31.79294, "city": "Zgurovka", "images": [{"image_url": "419134.jpg", "timestamp": "2019-06-21T10:45:00Z"}]}, {"id": 419135, "min_date": "2019-06-21T11:00:00Z", "max_date": "2019-06-21T11:00:00Z", "count_points": 1, "latitude": 50.63266, "longitude": 32.12898, "city": "Lisovi Sorochyntsi", "images": []}, {"id": 419136, "min_date": "2019-06-21T11:00:00Z", "max_date": "2019-06-21T11:00:00Z", "count_points": 1, "latitude": 47.10825, "longitude": 37.5307, "city": "Mariupol", "images": []}, {"id": 419137, "min_date": "2019-06-21T11:00:00Z", "max_date": "2019-06-21T11:00:00Z", "count_points": 1, "latitude": 51.66877, "longitude": 32.07516, "city": "Shchors", "images": []}, {"id": 419138, "min_date": "2019-06-21T23:18:00Z", "max_date": "2019-06-21T23:18:00Z", "count_points": 2, "latitude": 47.14508, "longitude": 38.07096, "city": "Novoazovsk", "images": []}, {"id": 419139, "min_date": "2019-06-21T23:18:00Z", "max_date": "2019-06-21T23:18:00Z", "count_points": 1, "latitude": 48.13663, "longitude": 38.28418, "city": "Yenakiyeve", "images": []}, {"id": 419140, "min_date": "2019-06-21T23:18:00Z", "max_date": "2019-06-21T18:32:00Z", "count_points": 14, "latitude": 46.47955, "longitude": 35.0465, "city": "Yakymivka", "images": []}, {"id": 419141, "min_date": "2019-06-22T00:54:00Z", "max_date": "2019-06-22T00:54:00Z", "count_points": 1, "latitude": 49.00118, "longitude": 33.42424, "city": "Kremenchuk", "images": []}, {"id": 419142, "min_date": "2019-06-22T09:00:00Z", "max_date": "2019-06-22T09:00:00Z", "count_points": 1, "latitude": 48.67286, "longitude": 36.04476, "city": "Yur\u201dyivka", "images": []}, {"id": 419143, "min_date": "2019-06-22T10:42:00Z", "max_date": "2019-06-22T10:42:00Z", "count_points": 1, "latitude": 49.53209, "longitude": 32.1389, "city": "Cherkasy", "images": []}, {"id": 419144, "min_date": "2019-06-22T10:42:00Z", "max_date": "2019-06-22T10:42:00Z", "count_points": 1, "latitude": 48.57261, "longitude": 29.74271, "city": "Teplyk", "images": []}, {"id": 419145, "min_date": "2019-06-22T10:42:00Z", "max_date": "2019-06-22T10:42:00Z", "count_points": 1, "latitude": 49.58592, "longitude": 32.14605, "city": "Zolotonosha", "images": []}, {"id": 419146, "min_date": "2019-06-22T10:42:00Z", "max_date": "2019-06-22T10:42:00Z", "count_points": 1, "latitude": 50.00343, "longitude": 31.6253, "city": "Tsybli", "images": []}, {"id": 419147, "min_date": "2019-06-22T10:42:00Z", "max_date": "2019-06-22T10:42:00Z", "count_points": 1, "latitude": 50.50319, "longitude": 34.43531, "city": "Lebedyn", "images": []}, {"id": 419148, "min_date": "2019-06-22T10:42:00Z", "max_date": "2019-06-22T10:42:00Z", "count_points": 1, "latitude": 49.62597, "longitude": 38.3113, "city": "Nyzhnya Duvanka", "images": []}, {"id": 419149, "min_date": "2019-06-22T10:42:00Z", "max_date": "2019-06-22T10:42:00Z", "count_points": 1, "latitude": 46.37574, "longitude": 32.92843, "city": "Vynohradove", "images": []}, {"id": 419150, "min_date": "2019-06-22T10:42:00Z", "max_date": "2019-06-22T10:42:00Z", "count_points": 1, "latitude": 47.01387, "longitude": 31.67019, "city": "Olshanskoye", "images": []}, {"id": 419151, "min_date": "2019-06-22T10:42:00Z", "max_date": "2019-06-22T10:42:00Z", "count_points": 1, "latitude": 49.38187, "longitude": 39.08963, "city": "Novopskov", "images": []}, {"id": 419152, "min_date": "2019-06-22T10:42:00Z", "max_date": "2019-06-22T10:42:00Z", "count_points": 1, "latitude": 45.99117, "longitude": 33.77415, "city": "Pochetnoye", "images": []}, {"id": 419153, "min_date": "2019-06-22T10:42:00Z", "max_date": "2019-06-22T10:42:00Z", "count_points": 2, "latitude": 50.61705, "longitude": 30.69679, "city": "Pukhivka", "images": []}, {"id": 419154, "min_date": "2019-06-22T10:42:00Z", "max_date": "2019-06-22T10:42:00Z", "count_points": 1, "latitude": 50.11745, "longitude": 28.92655, "city": "Andrushivka", "images": []}, {"id": 419155, "min_date": "2019-06-22T10:42:00Z", "max_date": "2019-06-22T10:42:00Z", "count_points": 2, "latitude": 47.37455, "longitude": 34.9393, "city": "Balky", "images": []}, {"id": 419156, "min_date": "2019-06-22T10:42:00Z", "max_date": "2019-06-22T10:42:00Z", "count_points": 2, "latitude": 51.52074, "longitude": 31.9017, "city": "Berezna", "images": []}, {"id": 419157, "min_date": "2019-06-22T10:42:00Z", "max_date": "2019-06-23T10:24:00Z", "count_points": 5, "latitude": 51.33255, "longitude": 33.08048, "city": "Konotop", "images": [{"image_url": "419157.jpg", "timestamp": "2019-06-23T10:24:00Z"}]}, {"id": 419158, "min_date": "2019-06-22T10:42:00Z", "max_date": "2019-06-22T10:42:00Z", "count_points": 2, "latitude": 49.17593, "longitude": 38.62079, "city": "Syevyerodonets\u2019k", "images": []}, {"id": 419159, "min_date": "2019-06-22T23:00:00Z", "max_date": "2019-06-22T23:00:00Z", "count_points": 1, "latitude": 44.58884, "longitude": 33.60854, "city": "Inkerman", "images": []}, {"id": 419160, "min_date": "2019-06-22T23:00:00Z", "max_date": "2019-06-23T10:24:00Z", "count_points": 3, "latitude": 48.39684, "longitude": 30.85912, "city": "Tyshkivka", "images": []}, {"id": 419161, "min_date": "2019-06-23T08:42:00Z", "max_date": "2019-06-23T08:48:00Z", "count_points": 3, "latitude": 48.67772, "longitude": 39.1193, "city": "Shchastya", "images": []}, {"id": 419162, "min_date": "2019-06-23T10:24:00Z", "max_date": "2019-06-23T08:48:00Z", "count_points": 3, "latitude": 51.24735, "longitude": 31.70224, "city": "Kulykivka", "images": []}, {"id": 419163, "min_date": "2019-06-23T10:24:00Z", "max_date": "2019-06-23T10:24:00Z", "count_points": 1, "latitude": 51.83315, "longitude": 31.68007, "city": "Horodnya", "images": []}, {"id": 419164, "min_date": "2019-06-23T10:24:00Z", "max_date": "2019-06-23T10:24:00Z", "count_points": 1, "latitude": 50.38242, "longitude": 33.33815, "city": "Lokhvytsya", "images": []}, {"id": 419165, "min_date": "2019-06-23T10:24:00Z", "max_date": "2019-06-23T10:24:00Z", "count_points": 1, "latitude": 47.34115, "longitude": 32.02074, "city": "Nova Odesa", "images": []}, {"id": 419166, "min_date": "2019-06-23T10:24:00Z", "max_date": "2019-06-23T10:24:00Z", "count_points": 1, "latitude": 51.27489, "longitude": 33.026, "city": "Baturyn", "images": []}, {"id": 419167, "min_date": "2019-06-23T12:06:00Z", "max_date": "2019-06-23T12:06:00Z", "count_points": 1, "latitude": 46.12116, "longitude": 30.06358, "city": "Kulevcha", "images": []}, {"id": 419168, "min_date": "2019-06-17T09:25:00Z", "max_date": "2019-06-17T09:25:00Z", "count_points": 1, "latitude": 48.7653, "longitude": 30.5668, "city": "Babanka", "images": []}, {"id": 419169, "min_date": "2019-06-17T09:25:00Z", "max_date": "2019-06-17T09:25:00Z", "count_points": 1, "latitude": 48.4476, "longitude": 29.1804, "city": "Obodivka", "images": []}, {"id": 419170, "min_date": "2019-06-17T11:09:00Z", "max_date": "2019-06-17T11:09:00Z", "count_points": 1, "latitude": 47.6548, "longitude": 33.1598, "city": "Shyroke", "images": []}, {"id": 419171, "min_date": "2019-06-17T11:10:00Z", "max_date": "2019-06-17T11:10:00Z", "count_points": 1, "latitude": 48.8197, "longitude": 26.3056, "city": "Skala-Podil\u2019s\u2019ka", "images": []}, {"id": 419172, "min_date": "2019-06-17T18:56:00Z", "max_date": "2019-06-17T18:56:00Z", "count_points": 2, "latitude": 46.1734, "longitude": 33.43745, "city": "Kalanchak", "images": []}, {"id": 419173, "min_date": "2019-06-18T08:30:00Z", "max_date": "2019-06-18T08:30:00Z", "count_points": 1, "latitude": 48.8707, "longitude": 32.2932, "city": "Oleksandrivka", "images": []}, {"id": 419174, "min_date": "2019-06-18T08:31:00Z", "max_date": "2019-06-18T08:31:00Z", "count_points": 1, "latitude": 46.052, "longitude": 34.717, "city": "Heniches\u2019k", "images": []}, {"id": 419175, "min_date": "2019-06-18T19:39:00Z", "max_date": "2019-06-21T20:10:00Z", "count_points": 3, "latitude": 46.69963, "longitude": 33.6351, "city": "Lyubymivka", "images": []}, {"id": 419176, "min_date": "2019-06-18T19:40:00Z", "max_date": "2019-06-18T19:40:00Z", "count_points": 1, "latitude": 49.6109, "longitude": 34.7387, "city": "Poltava", "images": []}, {"id": 419177, "min_date": "2019-06-19T09:12:00Z", "max_date": "2019-06-19T09:12:00Z", "count_points": 1, "latitude": 49.8388, "longitude": 36.8346, "city": "Malynivka", "images": []}, {"id": 419178, "min_date": "2019-06-19T09:12:00Z", "max_date": "2019-06-19T09:12:00Z", "count_points": 2, "latitude": 51.33925, "longitude": 24.88625, "city": "Nuyno", "images": []}, {"id": 419179, "min_date": "2019-06-19T10:57:00Z", "max_date": "2019-06-19T10:57:00Z", "count_points": 1, "latitude": 49.6744, "longitude": 35.1561, "city": "Chutove", "images": []}, {"id": 419180, "min_date": "2019-06-19T10:58:00Z", "max_date": "2019-06-19T10:58:00Z", "count_points": 1, "latitude": 50.5254, "longitude": 28.2872, "city": "Pulyny", "images": []}, {"id": 419181, "min_date": "2019-06-19T10:58:00Z", "max_date": "2019-06-19T10:58:00Z", "count_points": 1, "latitude": 49.366, "longitude": 27.137, "city": "Khmelnytskyi", "images": []}, {"id": 419182, "min_date": "2019-06-19T10:58:00Z", "max_date": "2019-06-19T10:58:00Z", "count_points": 1, "latitude": 49.5746, "longitude": 25.6073, "city": "Ternopil", "images": []}, {"id": 419183, "min_date": "2019-06-20T08:18:00Z", "max_date": "2019-06-20T08:18:00Z", "count_points": 1, "latitude": 45.099, "longitude": 35.7744, "city": "Kirovo", "images": []}, {"id": 419184, "min_date": "2019-06-20T11:40:00Z", "max_date": "2019-06-20T11:40:00Z", "count_points": 1, "latitude": 46.6294, "longitude": 31.1065, "city": "Yuzhne", "images": []}, {"id": 419185, "min_date": "2019-06-21T09:01:00Z", "max_date": "2019-06-21T09:01:00Z", "count_points": 1, "latitude": 49.1391, "longitude": 25.9102, "city": "Kopychyntsi", "images": []}, {"id": 419186, "min_date": "2019-06-21T10:44:00Z", "max_date": "2019-06-21T10:44:00Z", "count_points": 1, "latitude": 46.2446, "longitude": 34.4696, "city": "Novooleksiyivka", "images": []}, {"id": 419187, "min_date": "2019-06-21T10:45:00Z", "max_date": "2019-06-21T10:45:00Z", "count_points": 1, "latitude": 48.2421, "longitude": 28.2748, "city": "Yampil\u2019", "images": []}, {"id": 419188, "min_date": "2019-06-21T10:46:00Z", "max_date": "2019-06-21T10:46:00Z", "count_points": 1, "latitude": 49.7954, "longitude": 25.3427, "city": "Zaliztsi", "images": []}, {"id": 419189, "min_date": "2019-06-21T20:11:00Z", "max_date": "2019-06-21T20:11:00Z", "count_points": 1, "latitude": 50.2528, "longitude": 29.9878, "city": "Chervona Motovylivka", "images": []}, {"id": 419190, "min_date": "2019-06-22T09:44:00Z", "max_date": "2019-06-22T09:50:00Z", "count_points": 3, "latitude": 47.55, "longitude": 31.27473, "city": "Voznesensk", "images": []}, {"id": 419191, "min_date": "2019-06-22T09:51:00Z", "max_date": "2019-06-22T09:51:00Z", "count_points": 1, "latitude": 51.3347, "longitude": 33.259, "city": "Konotop", "images": []}, {"id": 419192, "min_date": "2019-06-22T19:15:00Z", "max_date": "2019-06-22T19:15:00Z", "count_points": 2, "latitude": 49.27025, "longitude": 38.53715, "city": "Rubizhne", "images": []}, {"id": 419193, "min_date": "2019-06-23T08:47:00Z", "max_date": "2019-06-23T08:47:00Z", "count_points": 1, "latitude": 51.7657, "longitude": 33.9547, "city": "Hlukhiv", "images": []}, {"id": 419194, "min_date": "2019-06-19T23:54:00Z", "max_date": "2019-06-19T23:54:00Z", "count_points": 1, "latitude": 48.1997, "longitude": 26.31255, "city": "Marshintsy", "images": []}]