[{"id": 418814, "min_date": "2019-06-03T00:12:00Z", "max_date": "2019-06-03T00:12:00Z", "count_points": 1, "latitude": 50.99444, "longitude": 27.92062, "city": "Yemil\u2019chyne", "images": []}, {"id": 418815, "min_date": "2019-06-03T10:00:00Z", "max_date": "2019-06-03T10:00:00Z", "count_points": 1, "latitude": 45.89164, "longitude": 34.10933, "city": "Magazinka", "images": []}, {"id": 418816, "min_date": "2019-06-03T10:00:00Z", "max_date": "2019-06-03T10:00:00Z", "count_points": 1, "latitude": 49.79904, "longitude": 31.65371, "city": "Kaniv", "images": []}, {"id": 418817, "min_date": "2019-06-03T10:00:00Z", "max_date": "2019-06-03T10:00:00Z", "count_points": 1, "latitude": 50.16983, "longitude": 37.51483, "city": "Prykolotne", "images": []}, {"id": 418818, "min_date": "2019-06-03T10:00:00Z", "max_date": "2019-06-03T10:58:00Z", "count_points": 3, "latitude": 50.61032, "longitude": 31.2084, "city": "Bobrovytsya", "images": []}, {"id": 418819, "min_date": "2019-06-03T10:00:00Z", "max_date": "2019-06-03T10:00:00Z", "count_points": 1, "latitude": 51.3194, "longitude": 31.10967, "city": "Olyshivka", "images": []}, {"id": 418820, "min_date": "2019-06-03T10:00:00Z", "max_date": "2019-06-03T10:00:00Z", "count_points": 1, "latitude": 50.92432, "longitude": 28.53414, "city": "Korosten\u2019", "images": []}, {"id": 418821, "min_date": "2019-06-03T11:42:00Z", "max_date": "2019-06-03T11:42:00Z", "count_points": 2, "latitude": 46.02539, "longitude": 29.6858, "city": "Sarata", "images": []}, {"id": 418822, "min_date": "2019-06-03T23:54:00Z", "max_date": "2019-06-03T23:54:00Z", "count_points": 1, "latitude": 50.72949, "longitude": 31.38364, "city": "Bobrovytsya", "images": []}, {"id": 418823, "min_date": "2019-06-03T23:54:00Z", "max_date": "2019-06-06T00:54:00Z", "count_points": 4, "latitude": 49.61465, "longitude": 34.79366, "city": "Mashivka", "images": [{"image_url": "418823.jpg", "timestamp": "2019-06-06T00:54:00Z"}]}, {"id": 418824, "min_date": "2019-06-03T23:54:00Z", "max_date": "2019-06-09T00:00:00Z", "count_points": 2, "latitude": 49.35487, "longitude": 32.1634, "city": "Chervona Sloboda", "images": []}, {"id": 418825, "min_date": "2019-06-03T23:54:00Z", "max_date": "2019-06-04T11:24:00Z", "count_points": 5, "latitude": 51.21279, "longitude": 30.96511, "city": "Oster", "images": []}, {"id": 418826, "min_date": "2019-06-03T23:54:00Z", "max_date": "2019-06-03T23:54:00Z", "count_points": 1, "latitude": 51.52495, "longitude": 30.65627, "city": "Slavutych", "images": []}, {"id": 418827, "min_date": "2019-06-03T23:54:00Z", "max_date": "2019-06-03T23:54:00Z", "count_points": 1, "latitude": 50.54847, "longitude": 30.85303, "city": "Brovary", "images": []}, {"id": 418828, "min_date": "2019-06-04T09:42:00Z", "max_date": "2019-06-04T09:42:00Z", "count_points": 2, "latitude": 50.21686, "longitude": 30.3357, "city": "Vasylkiv", "images": []}, {"id": 418829, "min_date": "2019-06-04T09:42:00Z", "max_date": "2019-06-04T09:42:00Z", "count_points": 1, "latitude": 50.95279, "longitude": 28.53296, "city": "Korosten\u2019", "images": []}, {"id": 418830, "min_date": "2019-06-04T09:42:00Z", "max_date": "2019-06-04T09:42:00Z", "count_points": 1, "latitude": 51.23607, "longitude": 32.81022, "city": "Bakhmach", "images": []}, {"id": 418831, "min_date": "2019-06-04T11:24:00Z", "max_date": "2019-06-04T11:24:00Z", "count_points": 2, "latitude": 51.3696, "longitude": 27.53687, "city": "Olevs\u2019k", "images": []}, {"id": 418832, "min_date": "2019-06-04T23:36:00Z", "max_date": "2019-06-09T19:46:00Z", "count_points": 15, "latitude": 51.55458, "longitude": 30.56107, "city": "Lyubech", "images": [{"image_url": "418832.jpg", "timestamp": "2019-06-09T19:46:00Z"}]}, {"id": 418833, "min_date": "2019-06-04T23:36:00Z", "max_date": "2019-06-04T23:36:00Z", "count_points": 1, "latitude": 47.65414, "longitude": 35.33678, "city": "Malokaterynivka", "images": []}, {"id": 418834, "min_date": "2019-06-04T23:36:00Z", "max_date": "2019-06-04T23:36:00Z", "count_points": 1, "latitude": 48.89488, "longitude": 34.46969, "city": "Tsarychanka", "images": []}, {"id": 418835, "min_date": "2019-06-04T23:36:00Z", "max_date": "2019-06-05T01:12:00Z", "count_points": 2, "latitude": 51.56134, "longitude": 32.82895, "city": "Korop", "images": []}, {"id": 418836, "min_date": "2019-06-04T23:36:00Z", "max_date": "2019-06-09T23:42:00Z", "count_points": 5, "latitude": 48.13686, "longitude": 38.28368, "city": "Yenakiyeve", "images": []}, {"id": 418837, "min_date": "2019-06-05T11:00:00Z", "max_date": "2019-06-05T11:00:00Z", "count_points": 1, "latitude": 49.93208, "longitude": 24.06776, "city": "Dublyany", "images": []}, {"id": 418838, "min_date": "2019-06-05T11:00:00Z", "max_date": "2019-06-05T11:00:00Z", "count_points": 1, "latitude": 48.89969, "longitude": 24.83849, "city": "Tysmenytsya", "images": []}, {"id": 418839, "min_date": "2019-06-05T11:00:00Z", "max_date": "2019-06-05T11:00:00Z", "count_points": 1, "latitude": 45.47004, "longitude": 28.56964, "city": "Ozerne", "images": []}, {"id": 418840, "min_date": "2019-06-05T23:18:00Z", "max_date": "2019-06-05T23:18:00Z", "count_points": 1, "latitude": 48.0311, "longitude": 39.32367, "city": "Roven\u2019ky", "images": []}, {"id": 418841, "min_date": "2019-06-05T23:18:00Z", "max_date": "2019-06-07T22:36:00Z", "count_points": 2, "latitude": 49.98455, "longitude": 35.63449, "city": "Staryy Merchyk", "images": []}, {"id": 418842, "min_date": "2019-06-05T23:18:00Z", "max_date": "2019-06-05T23:18:00Z", "count_points": 1, "latitude": 49.37719, "longitude": 37.77952, "city": "Borova", "images": []}, {"id": 418843, "min_date": "2019-06-05T23:18:00Z", "max_date": "2019-06-05T23:18:00Z", "count_points": 1, "latitude": 48.00514, "longitude": 38.29786, "city": "Zuhres", "images": []}, {"id": 418844, "min_date": "2019-06-06T00:54:00Z", "max_date": "2019-06-06T00:54:00Z", "count_points": 1, "latitude": 50.70251, "longitude": 33.15567, "city": "Talalayivka", "images": []}, {"id": 418845, "min_date": "2019-06-06T10:42:00Z", "max_date": "2019-06-06T10:42:00Z", "count_points": 1, "latitude": 49.95304, "longitude": 36.17547, "city": "Pokotylivka", "images": []}, {"id": 418846, "min_date": "2019-06-06T10:42:00Z", "max_date": "2019-06-06T10:42:00Z", "count_points": 1, "latitude": 49.5733, "longitude": 36.42318, "city": "Lyman", "images": []}, {"id": 418847, "min_date": "2019-06-06T10:42:00Z", "max_date": "2019-06-06T10:42:00Z", "count_points": 1, "latitude": 50.7119, "longitude": 35.04977, "city": "Boromlya", "images": []}, {"id": 418848, "min_date": "2019-06-06T10:42:00Z", "max_date": "2019-06-06T10:42:00Z", "count_points": 1, "latitude": 51.87058, "longitude": 25.86335, "city": "Kuznetsovs\u2019k", "images": []}, {"id": 418849, "min_date": "2019-06-06T10:42:00Z", "max_date": "2019-06-06T10:42:00Z", "count_points": 1, "latitude": 50.23049, "longitude": 28.7194, "city": "Ozerne", "images": []}, {"id": 418850, "min_date": "2019-06-06T22:54:00Z", "max_date": "2019-06-06T22:54:00Z", "count_points": 1, "latitude": 50.01231, "longitude": 34.07421, "city": "Velyki Sorochyntsi", "images": []}, {"id": 418851, "min_date": "2019-06-07T00:36:00Z", "max_date": "2019-06-07T00:36:00Z", "count_points": 1, "latitude": 49.00921, "longitude": 35.13419, "city": "Zachepylivka", "images": []}, {"id": 418852, "min_date": "2019-06-07T10:24:00Z", "max_date": "2019-06-07T10:24:00Z", "count_points": 1, "latitude": 48.36364, "longitude": 38.60461, "city": "Bayrachky", "images": []}, {"id": 418853, "min_date": "2019-06-07T10:24:00Z", "max_date": "2019-06-07T10:24:00Z", "count_points": 1, "latitude": 49.14891, "longitude": 29.46235, "city": "Orativ", "images": []}, {"id": 418854, "min_date": "2019-06-07T10:24:00Z", "max_date": "2019-06-07T10:24:00Z", "count_points": 1, "latitude": 47.61271, "longitude": 36.76938, "city": "Velyka Novosilka", "images": []}, {"id": 418855, "min_date": "2019-06-07T10:24:00Z", "max_date": "2019-06-07T10:24:00Z", "count_points": 1, "latitude": 48.49782, "longitude": 34.01265, "city": "Vyshneve", "images": []}, {"id": 418856, "min_date": "2019-06-07T10:24:00Z", "max_date": "2019-06-07T10:24:00Z", "count_points": 1, "latitude": 51.18492, "longitude": 32.71866, "city": "Bakhmach", "images": []}, {"id": 418857, "min_date": "2019-06-07T10:24:00Z", "max_date": "2019-06-07T10:24:00Z", "count_points": 1, "latitude": 51.5638, "longitude": 32.48787, "city": "Sosnytsya", "images": []}, {"id": 418858, "min_date": "2019-06-07T10:24:00Z", "max_date": "2019-06-07T10:24:00Z", "count_points": 2, "latitude": 46.61573, "longitude": 30.93678, "city": "Fontanka", "images": []}, {"id": 418859, "min_date": "2019-06-07T10:24:00Z", "max_date": "2019-06-07T08:48:00Z", "count_points": 3, "latitude": 48.21592, "longitude": 34.87716, "city": "Solone", "images": []}, {"id": 418860, "min_date": "2019-06-07T22:36:00Z", "max_date": "2019-06-07T22:36:00Z", "count_points": 1, "latitude": 48.76734, "longitude": 37.56657, "city": "Kramators\u2019k", "images": []}, {"id": 418861, "min_date": "2019-06-08T00:18:00Z", "max_date": "2019-06-08T00:18:00Z", "count_points": 1, "latitude": 48.43608, "longitude": 28.81256, "city": "Kryzhopil\u2019", "images": []}, {"id": 418862, "min_date": "2019-06-08T10:06:00Z", "max_date": "2019-06-08T10:06:00Z", "count_points": 1, "latitude": 48.21441, "longitude": 36.11598, "city": "Vasyl\u2019kivka", "images": []}, {"id": 418863, "min_date": "2019-06-08T11:48:00Z", "max_date": "2019-06-08T11:48:00Z", "count_points": 1, "latitude": 49.606, "longitude": 34.34769, "city": "Poltava", "images": []}, {"id": 418864, "min_date": "2019-06-09T00:00:00Z", "max_date": "2019-06-09T00:00:00Z", "count_points": 1, "latitude": 48.10457, "longitude": 37.79292, "city": "Avdiyivka", "images": []}, {"id": 418865, "min_date": "2019-06-09T23:42:00Z", "max_date": "2019-06-09T23:42:00Z", "count_points": 2, "latitude": 48.51497, "longitude": 35.14294, "city": "Pidhorodne", "images": []}, {"id": 418866, "min_date": "2019-06-09T23:42:00Z", "max_date": "2019-06-09T23:42:00Z", "count_points": 2, "latitude": 48.62065, "longitude": 38.45898, "city": "Popasna", "images": []}, {"id": 418867, "min_date": "2019-06-03T09:12:00Z", "max_date": "2019-06-03T09:12:00Z", "count_points": 1, "latitude": 51.4284, "longitude": 28.9368, "city": "Pershotravneve", "images": []}, {"id": 418868, "min_date": "2019-06-07T08:49:00Z", "max_date": "2019-06-07T08:49:00Z", "count_points": 1, "latitude": 47.2628, "longitude": 33.7947, "city": "Dudchany", "images": []}, {"id": 418869, "min_date": "2019-06-08T11:17:00Z", "max_date": "2019-06-08T11:17:00Z", "count_points": 1, "latitude": 51.7487, "longitude": 26.0116, "city": "Zarichne", "images": []}, {"id": 418870, "min_date": "2019-06-09T08:35:00Z", "max_date": "2019-06-09T08:35:00Z", "count_points": 1, "latitude": 51.6217, "longitude": 32.5174, "city": "Sosnytsya", "images": []}, {"id": 418871, "min_date": "2019-06-09T08:36:00Z", "max_date": "2019-06-09T08:36:00Z", "count_points": 1, "latitude": 50.1494, "longitude": 34.8859, "city": "Kotel\u2019va", "images": []}, {"id": 418872, "min_date": "2019-06-09T08:36:00Z", "max_date": "2019-06-09T08:36:00Z", "count_points": 1, "latitude": 50.2252, "longitude": 35.1085, "city": "Kyrykivka", "images": []}, {"id": 418873, "min_date": "2019-06-09T08:36:00Z", "max_date": "2019-06-09T08:36:00Z", "count_points": 1, "latitude": 47.709, "longitude": 38.0154, "city": "Starobesheve", "images": []}, {"id": 418874, "min_date": "2019-06-09T08:36:00Z", "max_date": "2019-06-09T08:36:00Z", "count_points": 1, "latitude": 50.1732, "longitude": 37.3328, "city": "Prykolotne", "images": []}, {"id": 418875, "min_date": "2019-06-09T08:36:00Z", "max_date": "2019-06-09T08:36:00Z", "count_points": 1, "latitude": 49.9752, "longitude": 26.0518, "city": "Lanivtsi", "images": []}]