[{"id": 418584, "min_date": "2019-05-06T00:36:00Z", "max_date": "2019-05-06T00:36:00Z", "count_points": 2, "latitude": 51.90598, "longitude": 31.87025, "city": "Shchors", "images": []}, {"id": 418585, "min_date": "2019-05-06T10:24:00Z", "max_date": "2019-05-06T10:24:00Z", "count_points": 1, "latitude": 49.02684, "longitude": 35.79799, "city": "Sakhnovshchyna", "images": []}, {"id": 418586, "min_date": "2019-05-06T10:24:00Z", "max_date": "2019-05-06T10:24:00Z", "count_points": 1, "latitude": 49.37424, "longitude": 35.82762, "city": "Chapayeve", "images": []}, {"id": 418587, "min_date": "2019-05-06T10:24:00Z", "max_date": "2019-05-06T10:24:00Z", "count_points": 2, "latitude": 50.17658, "longitude": 36.90734, "city": "Vovchans\u2019k", "images": []}, {"id": 418588, "min_date": "2019-05-06T10:24:00Z", "max_date": "2019-05-06T10:24:00Z", "count_points": 1, "latitude": 47.40295, "longitude": 34.44732, "city": "Kamenka-Na-Dnepre", "images": []}, {"id": 418589, "min_date": "2019-05-06T10:24:00Z", "max_date": "2019-05-06T10:24:00Z", "count_points": 1, "latitude": 49.30339, "longitude": 36.12345, "city": "Pervomays\u2019kyy", "images": []}, {"id": 418590, "min_date": "2019-05-06T10:24:00Z", "max_date": "2019-05-06T10:24:00Z", "count_points": 1, "latitude": 49.34843, "longitude": 38.39764, "city": "Svatove", "images": []}, {"id": 418591, "min_date": "2019-05-06T22:36:00Z", "max_date": "2019-05-06T22:36:00Z", "count_points": 1, "latitude": 49.49691, "longitude": 35.1307, "city": "Karlivka", "images": []}, {"id": 418592, "min_date": "2019-05-07T10:06:00Z", "max_date": "2019-05-07T10:06:00Z", "count_points": 1, "latitude": 48.56341, "longitude": 35.03581, "city": "Pidhorodne", "images": []}, {"id": 418593, "min_date": "2019-05-07T10:06:00Z", "max_date": "2019-05-07T10:06:00Z", "count_points": 1, "latitude": 48.40734, "longitude": 35.0362, "city": "Dnipro", "images": []}, {"id": 418594, "min_date": "2019-05-07T10:06:00Z", "max_date": "2019-05-07T10:06:00Z", "count_points": 1, "latitude": 49.22226, "longitude": 37.75652, "city": "Borova", "images": []}, {"id": 418595, "min_date": "2019-05-07T22:18:00Z", "max_date": "2019-05-07T22:18:00Z", "count_points": 1, "latitude": 49.64137, "longitude": 37.61647, "city": "Kupjansk", "images": []}, {"id": 418596, "min_date": "2019-05-08T00:00:00Z", "max_date": "2019-05-08T00:00:00Z", "count_points": 1, "latitude": 48.90023, "longitude": 36.16855, "city": "Panyutyne", "images": []}, {"id": 418598, "min_date": "2019-05-09T09:30:00Z", "max_date": "2019-05-09T11:05:00Z", "count_points": 11, "latitude": 51.79264, "longitude": 24.81224, "city": "Rakiv Lis", "images": [{"image_url": "418598.jpg", "timestamp": "2019-05-09T11:05:00Z"}]}, {"id": 418599, "min_date": "2019-05-09T11:06:00Z", "max_date": "2019-05-09T11:04:00Z", "count_points": 3, "latitude": 50.94243, "longitude": 24.36349, "city": "Volodymyr-Volynskyi", "images": []}, {"id": 418600, "min_date": "2019-05-10T23:00:00Z", "max_date": "2019-05-12T00:24:00Z", "count_points": 4, "latitude": 50.09355, "longitude": 33.88309, "city": "Velyki Sorochyntsi", "images": []}, {"id": 418601, "min_date": "2019-05-11T10:30:00Z", "max_date": "2019-05-11T10:30:00Z", "count_points": 1, "latitude": 49.69414, "longitude": 34.27405, "city": "Reshetylivka", "images": []}, {"id": 418602, "min_date": "2019-05-12T00:24:00Z", "max_date": "2019-05-12T00:24:00Z", "count_points": 1, "latitude": 48.31778, "longitude": 25.44417, "city": "Vashkivtsi", "images": []}, {"id": 418603, "min_date": "2019-05-12T10:12:00Z", "max_date": "2019-05-12T10:12:00Z", "count_points": 1, "latitude": 49.74071, "longitude": 31.90829, "city": "Zolotonosha", "images": []}, {"id": 418604, "min_date": "2019-05-12T22:24:00Z", "max_date": "2019-05-12T22:24:00Z", "count_points": 3, "latitude": 50.42336, "longitude": 33.59355, "city": "Lypova Dolyna", "images": []}, {"id": 418605, "min_date": "2019-05-09T09:19:00Z", "max_date": "2019-05-09T09:19:00Z", "count_points": 1, "latitude": 48.7774, "longitude": 26.5833, "city": "Kamianets-Podilskyi", "images": []}, {"id": 418606, "min_date": "2019-05-09T11:04:00Z", "max_date": "2019-05-09T11:04:00Z", "count_points": 1, "latitude": 48.6615, "longitude": 26.352, "city": "Zhvanets", "images": []}, {"id": 418607, "min_date": "2019-05-09T11:04:00Z", "max_date": "2019-05-09T11:04:00Z", "count_points": 1, "latitude": 50.8363, "longitude": 25.8798, "city": "Klevan\u2019", "images": []}]