[{"id": 424760, "min_date": "2019-07-29T01:00:00Z", "max_date": "2019-07-30T10:50:00Z", "count_points": 22, "latitude": 46.8863, "longitude": 35.97699, "city": "Rozivka", "images": []}, {"id": 424761, "min_date": "2019-07-29T01:00:00Z", "max_date": "2019-07-29T10:48:00Z", "count_points": 2, "latitude": 48.21057, "longitude": 33.5338, "city": "Zhovti Vody", "images": []}, {"id": 424762, "min_date": "2019-07-29T01:00:00Z", "max_date": "2019-08-02T23:30:00Z", "count_points": 9, "latitude": 50.23301, "longitude": 33.32862, "city": "Sencha", "images": []}, {"id": 424763, "min_date": "2019-07-29T01:00:00Z", "max_date": "2019-07-29T01:00:00Z", "count_points": 1, "latitude": 48.52074, "longitude": 27.87924, "city": "Mohyliv-Podilskyi", "images": []}, {"id": 424764, "min_date": "2019-07-29T01:00:00Z", "max_date": "2019-07-29T01:00:00Z", "count_points": 1, "latitude": 48.97418, "longitude": 28.33515, "city": "Sutysky", "images": []}, {"id": 424765, "min_date": "2019-07-29T01:00:00Z", "max_date": "2019-07-29T01:00:00Z", "count_points": 1, "latitude": 48.06852, "longitude": 36.34552, "city": "Pokrovs\u2019ke", "images": []}, {"id": 424766, "min_date": "2019-07-29T01:00:00Z", "max_date": "2019-07-29T01:00:00Z", "count_points": 2, "latitude": 47.57404, "longitude": 35.98006, "city": "Mala Tokmachka", "images": []}, {"id": 424767, "min_date": "2019-07-29T01:00:00Z", "max_date": "2019-08-03T08:42:00Z", "count_points": 12, "latitude": 47.54011, "longitude": 36.07165, "city": "Zaliznychne", "images": []}, {"id": 424768, "min_date": "2019-07-29T01:00:00Z", "max_date": "2019-07-29T08:24:00Z", "count_points": 7, "latitude": 48.04718, "longitude": 35.92169, "city": "Novomykolayivka", "images": []}, {"id": 424769, "min_date": "2019-07-29T01:00:00Z", "max_date": "2019-07-29T08:24:00Z", "count_points": 5, "latitude": 48.17628, "longitude": 35.98224, "city": "Vasyl\u2019kivka", "images": []}, {"id": 424770, "min_date": "2019-07-29T01:00:00Z", "max_date": "2019-07-29T10:48:00Z", "count_points": 3, "latitude": 49.65915, "longitude": 27.70482, "city": "Stara Syniava", "images": []}, {"id": 424771, "min_date": "2019-07-29T01:00:00Z", "max_date": "2019-07-29T01:00:00Z", "count_points": 1, "latitude": 48.91737, "longitude": 27.53226, "city": "Murovani Kurylivtsi", "images": []}, {"id": 424772, "min_date": "2019-07-29T01:00:00Z", "max_date": "2019-07-29T10:48:00Z", "count_points": 2, "latitude": 49.20972, "longitude": 37.91068, "city": "Krasnyy Lyman", "images": []}, {"id": 424773, "min_date": "2019-07-29T01:00:00Z", "max_date": "2019-07-29T01:00:00Z", "count_points": 3, "latitude": 49.18647, "longitude": 30.02656, "city": "Zhashkiv", "images": []}, {"id": 424774, "min_date": "2019-07-29T01:00:00Z", "max_date": "2019-07-29T01:00:00Z", "count_points": 1, "latitude": 48.49827, "longitude": 35.82465, "city": "Pavlohrad", "images": []}, {"id": 424775, "min_date": "2019-07-29T01:00:00Z", "max_date": "2019-07-29T01:00:00Z", "count_points": 1, "latitude": 49.03506, "longitude": 28.99629, "city": "Nemyriv", "images": []}, {"id": 424776, "min_date": "2019-07-29T01:00:00Z", "max_date": "2019-07-29T01:00:00Z", "count_points": 4, "latitude": 49.35524, "longitude": 30.24258, "city": "Roskoshnyy", "images": []}, {"id": 424777, "min_date": "2019-07-29T01:00:00Z", "max_date": "2019-08-01T09:54:00Z", "count_points": 2, "latitude": 49.24075, "longitude": 30.22246, "city": "Zhashkiv", "images": []}, {"id": 424778, "min_date": "2019-07-29T01:00:00Z", "max_date": "2019-08-01T11:36:00Z", "count_points": 3, "latitude": 48.61823, "longitude": 31.30819, "city": "Dobrovelychkivka", "images": []}, {"id": 424779, "min_date": "2019-07-29T01:00:00Z", "max_date": "2019-08-01T10:39:00Z", "count_points": 5, "latitude": 48.42193, "longitude": 29.09606, "city": "Tsybulevka", "images": []}, {"id": 424780, "min_date": "2019-07-29T01:06:00Z", "max_date": "2019-07-29T01:06:00Z", "count_points": 1, "latitude": 46.6275, "longitude": 30.58098, "city": "Usatove", "images": []}, {"id": 424781, "min_date": "2019-07-29T01:06:00Z", "max_date": "2019-07-29T10:48:00Z", "count_points": 4, "latitude": 48.44215, "longitude": 26.5975, "city": "Khotyn", "images": []}, {"id": 424782, "min_date": "2019-07-29T01:06:00Z", "max_date": "2019-07-29T01:06:00Z", "count_points": 1, "latitude": 47.44624, "longitude": 30.91228, "city": "Mykolayivka", "images": []}, {"id": 424783, "min_date": "2019-07-29T09:06:00Z", "max_date": "2019-07-29T10:48:00Z", "count_points": 2, "latitude": 46.37173, "longitude": 35.29769, "city": "Kyrylivka", "images": []}, {"id": 424784, "min_date": "2019-07-29T09:06:00Z", "max_date": "2019-07-29T10:48:00Z", "count_points": 3, "latitude": 46.95577, "longitude": 37.17459, "city": "Urzuf", "images": []}, {"id": 424785, "min_date": "2019-07-29T09:06:00Z", "max_date": "2019-07-29T09:06:00Z", "count_points": 1, "latitude": 47.94431, "longitude": 38.95657, "city": "Dmytrivka", "images": []}, {"id": 424786, "min_date": "2019-07-29T09:06:00Z", "max_date": "2019-07-29T09:06:00Z", "count_points": 2, "latitude": 47.4979, "longitude": 37.55305, "city": "Volnovakha", "images": []}, {"id": 424787, "min_date": "2019-07-29T09:06:00Z", "max_date": "2019-08-03T08:42:00Z", "count_points": 3, "latitude": 47.59829, "longitude": 37.34369, "city": "Blahodatne", "images": []}, {"id": 424788, "min_date": "2019-07-29T09:06:00Z", "max_date": "2019-08-03T08:42:00Z", "count_points": 14, "latitude": 47.34434, "longitude": 36.83668, "city": "Komysh-Zorya", "images": []}, {"id": 424789, "min_date": "2019-07-29T09:06:00Z", "max_date": "2019-08-01T08:55:00Z", "count_points": 5, "latitude": 46.88037, "longitude": 36.08691, "city": "Prymors\u2019k", "images": []}, {"id": 424790, "min_date": "2019-07-29T09:06:00Z", "max_date": "2019-08-03T10:54:00Z", "count_points": 8, "latitude": 46.97221, "longitude": 35.9906, "city": "Rozivka", "images": []}, {"id": 424791, "min_date": "2019-07-29T09:06:00Z", "max_date": "2019-07-29T10:48:00Z", "count_points": 2, "latitude": 46.83563, "longitude": 36.48288, "city": "Prymors\u2019k", "images": []}, {"id": 424792, "min_date": "2019-07-29T09:06:00Z", "max_date": "2019-08-03T10:26:00Z", "count_points": 17, "latitude": 47.57581, "longitude": 38.24995, "city": "Kuteynykove", "images": []}, {"id": 424793, "min_date": "2019-07-29T09:06:00Z", "max_date": "2019-07-29T10:48:00Z", "count_points": 6, "latitude": 47.23668, "longitude": 36.90252, "city": "Rozivka", "images": []}, {"id": 424794, "min_date": "2019-07-29T09:06:00Z", "max_date": "2019-07-29T10:08:00Z", "count_points": 11, "latitude": 47.30873, "longitude": 36.35074, "city": "Chapayevka", "images": []}, {"id": 424795, "min_date": "2019-07-29T09:06:00Z", "max_date": "2019-07-29T10:48:00Z", "count_points": 2, "latitude": 46.30656, "longitude": 34.60149, "city": "Novooleksiyivka", "images": []}, {"id": 424796, "min_date": "2019-07-29T09:06:00Z", "max_date": "2019-07-29T10:48:00Z", "count_points": 2, "latitude": 46.24946, "longitude": 34.64074, "city": "Novooleksiyivka", "images": []}, {"id": 424797, "min_date": "2019-07-29T09:06:00Z", "max_date": "2019-07-29T08:24:00Z", "count_points": 8, "latitude": 46.63197, "longitude": 35.40316, "city": "Kostyantynivka", "images": []}, {"id": 424798, "min_date": "2019-07-29T09:06:00Z", "max_date": "2019-08-01T10:38:00Z", "count_points": 7, "latitude": 47.27867, "longitude": 37.6295, "city": "Sartana", "images": []}, {"id": 424799, "min_date": "2019-07-29T09:12:00Z", "max_date": "2019-07-29T09:12:00Z", "count_points": 5, "latitude": 49.70034, "longitude": 36.75703, "city": "Malynivka", "images": []}, {"id": 424800, "min_date": "2019-07-29T09:12:00Z", "max_date": "2019-07-30T09:06:00Z", "count_points": 10, "latitude": 48.85213, "longitude": 36.72015, "city": "Blyznyuky", "images": []}, {"id": 424801, "min_date": "2019-07-29T09:12:00Z", "max_date": "2019-07-29T19:33:00Z", "count_points": 6, "latitude": 48.69561, "longitude": 37.1199, "city": "Novodonets\u2019ke", "images": []}, {"id": 424802, "min_date": "2019-07-29T09:12:00Z", "max_date": "2019-07-29T09:12:00Z", "count_points": 4, "latitude": 48.94175, "longitude": 36.73281, "city": "Blyznyuky", "images": []}, {"id": 424803, "min_date": "2019-07-29T09:12:00Z", "max_date": "2019-07-29T09:12:00Z", "count_points": 1, "latitude": 48.80579, "longitude": 36.26651, "city": "Lozova", "images": []}, {"id": 424804, "min_date": "2019-07-29T09:12:00Z", "max_date": "2019-07-29T10:08:00Z", "count_points": 8, "latitude": 48.72073, "longitude": 36.4218, "city": "Lozova", "images": []}, {"id": 424805, "min_date": "2019-07-29T09:12:00Z", "max_date": "2019-07-29T08:23:00Z", "count_points": 8, "latitude": 48.47342, "longitude": 37.56043, "city": "Kostyantynivka", "images": []}, {"id": 424806, "min_date": "2019-07-29T09:12:00Z", "max_date": "2019-07-29T09:12:00Z", "count_points": 3, "latitude": 49.47509, "longitude": 37.56196, "city": "Borova", "images": []}, {"id": 424807, "min_date": "2019-07-29T09:12:00Z", "max_date": "2019-07-29T09:12:00Z", "count_points": 1, "latitude": 49.61954, "longitude": 31.06494, "city": "Myronivka", "images": []}, {"id": 424808, "min_date": "2019-07-29T09:12:00Z", "max_date": "2019-07-29T09:12:00Z", "count_points": 1, "latitude": 48.77311, "longitude": 37.12454, "city": "Barvinkove", "images": []}, {"id": 424809, "min_date": "2019-07-29T09:12:00Z", "max_date": "2019-07-29T08:23:00Z", "count_points": 5, "latitude": 48.88886, "longitude": 36.69545, "city": "Blyznyuky", "images": []}, {"id": 424810, "min_date": "2019-07-29T09:12:00Z", "max_date": "2019-07-29T08:23:00Z", "count_points": 5, "latitude": 49.17321, "longitude": 37.59209, "city": "Studenok", "images": []}, {"id": 424811, "min_date": "2019-07-29T09:12:00Z", "max_date": "2019-07-29T10:08:00Z", "count_points": 17, "latitude": 50.09197, "longitude": 37.05149, "city": "Vovchans\u2019k", "images": []}, {"id": 424812, "min_date": "2019-07-29T09:12:00Z", "max_date": "2019-07-29T09:12:00Z", "count_points": 2, "latitude": 49.836, "longitude": 37.3237, "city": "Shevchenkove", "images": []}, {"id": 424813, "min_date": "2019-07-29T09:12:00Z", "max_date": "2019-07-29T09:12:00Z", "count_points": 1, "latitude": 49.12808, "longitude": 37.03386, "city": "Petrivs\u2019ke", "images": []}, {"id": 424814, "min_date": "2019-07-29T09:12:00Z", "max_date": "2019-07-29T10:08:00Z", "count_points": 5, "latitude": 48.66356, "longitude": 36.80326, "city": "Oleksandrivka", "images": []}, {"id": 424815, "min_date": "2019-07-29T09:12:00Z", "max_date": "2019-07-29T09:12:00Z", "count_points": 2, "latitude": 49.95956, "longitude": 37.06289, "city": "Pechenihy", "images": []}, {"id": 424816, "min_date": "2019-07-29T09:12:00Z", "max_date": "2019-07-29T09:12:00Z", "count_points": 2, "latitude": 49.27115, "longitude": 36.68919, "city": "Petrivs\u2019ke", "images": []}, {"id": 424817, "min_date": "2019-07-29T09:12:00Z", "max_date": "2019-08-03T08:42:00Z", "count_points": 43, "latitude": 48.92776, "longitude": 35.6452, "city": "Sakhnovshchyna", "images": []}, {"id": 424818, "min_date": "2019-07-29T09:12:00Z", "max_date": "2019-08-01T10:39:00Z", "count_points": 16, "latitude": 48.85699, "longitude": 35.19061, "city": "Hubynykha", "images": []}, {"id": 424819, "min_date": "2019-07-29T09:12:00Z", "max_date": "2019-07-29T09:12:00Z", "count_points": 1, "latitude": 48.62953, "longitude": 34.27681, "city": "Verkhn\u2019odniprovs\u2019k", "images": []}, {"id": 424820, "min_date": "2019-07-29T09:12:00Z", "max_date": "2019-07-29T10:09:00Z", "count_points": 6, "latitude": 51.00337, "longitude": 34.41158, "city": "Bilopillya", "images": []}, {"id": 424821, "min_date": "2019-07-29T09:12:00Z", "max_date": "2019-07-29T10:48:00Z", "count_points": 3, "latitude": 50.12703, "longitude": 35.58782, "city": "Bohodukhiv", "images": []}, {"id": 424822, "min_date": "2019-07-29T09:12:00Z", "max_date": "2019-07-29T09:12:00Z", "count_points": 4, "latitude": 47.66003, "longitude": 35.4656, "city": "Komyshuvakha", "images": []}, {"id": 424823, "min_date": "2019-07-29T09:12:00Z", "max_date": "2019-07-29T10:48:00Z", "count_points": 2, "latitude": 50.53294, "longitude": 35.37185, "city": "Mezenivka", "images": []}, {"id": 424824, "min_date": "2019-07-29T09:12:00Z", "max_date": "2019-07-30T10:51:00Z", "count_points": 8, "latitude": 48.25336, "longitude": 34.87856, "city": "Solone", "images": []}, {"id": 424825, "min_date": "2019-07-29T09:12:00Z", "max_date": "2019-07-29T10:48:00Z", "count_points": 4, "latitude": 47.85786, "longitude": 33.781, "city": "Apostolove", "images": []}, {"id": 424826, "min_date": "2019-07-29T09:12:00Z", "max_date": "2019-07-29T08:24:00Z", "count_points": 2, "latitude": 48.36691, "longitude": 34.12118, "city": "Vyshneve", "images": []}, {"id": 424827, "min_date": "2019-07-29T09:12:00Z", "max_date": "2019-07-29T09:12:00Z", "count_points": 1, "latitude": 47.47831, "longitude": 33.50526, "city": "Vysokopillya", "images": []}, {"id": 424828, "min_date": "2019-07-29T09:12:00Z", "max_date": "2019-07-30T10:51:00Z", "count_points": 9, "latitude": 49.18953, "longitude": 38.9409, "city": "Starobil\u2019s\u2019k", "images": []}, {"id": 424829, "min_date": "2019-07-29T09:12:00Z", "max_date": "2019-07-30T10:51:00Z", "count_points": 5, "latitude": 48.71627, "longitude": 33.99131, "city": "Lykhivka", "images": []}, {"id": 424830, "min_date": "2019-07-29T09:12:00Z", "max_date": "2019-07-29T10:48:00Z", "count_points": 9, "latitude": 50.04299, "longitude": 37.6546, "city": "Dvorichna", "images": []}, {"id": 424831, "min_date": "2019-07-29T09:12:00Z", "max_date": "2019-07-29T08:24:00Z", "count_points": 4, "latitude": 48.35599, "longitude": 37.06144, "city": "Dobropillya", "images": []}, {"id": 424832, "min_date": "2019-07-29T09:12:00Z", "max_date": "2019-08-03T08:42:00Z", "count_points": 6, "latitude": 48.07396, "longitude": 32.50374, "city": "Ustynivka", "images": []}, {"id": 424833, "min_date": "2019-07-29T09:12:00Z", "max_date": "2019-07-29T09:12:00Z", "count_points": 4, "latitude": 47.83868, "longitude": 36.98505, "city": "Velyka Novosilka", "images": []}, {"id": 424834, "min_date": "2019-07-29T09:12:00Z", "max_date": "2019-07-29T09:12:00Z", "count_points": 1, "latitude": 48.75954, "longitude": 34.9524, "city": "Spas\u2019ke", "images": []}, {"id": 424835, "min_date": "2019-07-29T09:12:00Z", "max_date": "2019-07-29T09:12:00Z", "count_points": 1, "latitude": 50.33988, "longitude": 34.69555, "city": "Okhtyrka", "images": []}, {"id": 424836, "min_date": "2019-07-29T09:12:00Z", "max_date": "2019-07-29T10:08:00Z", "count_points": 21, "latitude": 48.07539, "longitude": 36.6652, "city": "Mezhova", "images": []}, {"id": 424837, "min_date": "2019-07-29T09:12:00Z", "max_date": "2019-08-01T08:54:00Z", "count_points": 43, "latitude": 48.00626, "longitude": 36.77718, "city": "Velyka Novosilka", "images": []}, {"id": 424838, "min_date": "2019-07-29T09:12:00Z", "max_date": "2019-07-29T09:12:00Z", "count_points": 1, "latitude": 48.01891, "longitude": 36.6471, "city": "Mezhova", "images": []}, {"id": 424839, "min_date": "2019-07-29T09:12:00Z", "max_date": "2019-07-29T09:12:00Z", "count_points": 1, "latitude": 49.10567, "longitude": 37.61729, "city": "Svyatogorsk", "images": []}, {"id": 424840, "min_date": "2019-07-29T09:12:00Z", "max_date": "2019-07-29T08:24:00Z", "count_points": 9, "latitude": 47.08067, "longitude": 35.39957, "city": "Novobohdanivka", "images": []}, {"id": 424841, "min_date": "2019-07-29T09:12:00Z", "max_date": "2019-07-30T09:07:00Z", "count_points": 4, "latitude": 47.9201, "longitude": 35.22624, "city": "Zaporizhia", "images": []}, {"id": 424842, "min_date": "2019-07-29T09:12:00Z", "max_date": "2019-08-01T00:06:00Z", "count_points": 7, "latitude": 47.22406, "longitude": 35.21751, "city": "Mykhaylivka", "images": []}, {"id": 424843, "min_date": "2019-07-29T09:12:00Z", "max_date": "2019-07-29T09:12:00Z", "count_points": 2, "latitude": 47.6855, "longitude": 35.4295, "city": "Komyshuvakha", "images": []}, {"id": 424844, "min_date": "2019-07-29T09:12:00Z", "max_date": "2019-07-30T09:07:00Z", "count_points": 15, "latitude": 46.94075, "longitude": 33.00535, "city": "Snihurivka", "images": []}, {"id": 424845, "min_date": "2019-07-29T09:12:00Z", "max_date": "2019-07-29T09:12:00Z", "count_points": 2, "latitude": 50.03205, "longitude": 29.11173, "city": "Andrushivka", "images": []}, {"id": 424846, "min_date": "2019-07-29T09:12:00Z", "max_date": "2019-07-29T10:08:00Z", "count_points": 2, "latitude": 48.26791, "longitude": 35.99344, "city": "Vasyl\u2019kivka", "images": []}, {"id": 424847, "min_date": "2019-07-29T09:12:00Z", "max_date": "2019-08-01T09:54:00Z", "count_points": 5, "latitude": 47.82757, "longitude": 36.6947, "city": "Velyka Novosilka", "images": []}, {"id": 424848, "min_date": "2019-07-29T09:12:00Z", "max_date": "2019-07-29T09:12:00Z", "count_points": 2, "latitude": 48.41661, "longitude": 37.79464, "city": "Shcherbynivka", "images": []}, {"id": 424849, "min_date": "2019-07-29T09:12:00Z", "max_date": "2019-07-29T10:48:00Z", "count_points": 2, "latitude": 47.8639, "longitude": 37.19178, "city": "Kurakhovo", "images": []}, {"id": 424850, "min_date": "2019-07-29T09:12:00Z", "max_date": "2019-07-29T09:12:00Z", "count_points": 3, "latitude": 49.47231, "longitude": 37.71908, "city": "Borova", "images": []}, {"id": 424851, "min_date": "2019-07-29T09:12:00Z", "max_date": "2019-07-29T09:12:00Z", "count_points": 2, "latitude": 47.50249, "longitude": 36.63148, "city": "Kuybysheve", "images": []}, {"id": 424852, "min_date": "2019-07-29T09:12:00Z", "max_date": "2019-07-29T10:48:00Z", "count_points": 2, "latitude": 48.26932, "longitude": 37.302, "city": "Myrnohrad", "images": []}, {"id": 424853, "min_date": "2019-07-29T09:12:00Z", "max_date": "2019-07-29T09:12:00Z", "count_points": 4, "latitude": 48.01893, "longitude": 37.19584, "city": "Kurakhovo", "images": []}, {"id": 424854, "min_date": "2019-07-29T09:12:00Z", "max_date": "2019-07-29T09:12:00Z", "count_points": 2, "latitude": 47.98326, "longitude": 36.61029, "city": "Velyka Novosilka", "images": []}, {"id": 424855, "min_date": "2019-07-29T09:12:00Z", "max_date": "2019-07-29T10:48:00Z", "count_points": 2, "latitude": 47.92979, "longitude": 37.28263, "city": "Kurakhovo", "images": []}, {"id": 424856, "min_date": "2019-07-29T09:12:00Z", "max_date": "2019-07-29T09:12:00Z", "count_points": 2, "latitude": 49.09287, "longitude": 38.73732, "city": "Starobil\u2019s\u2019k", "images": []}, {"id": 424857, "min_date": "2019-07-29T09:12:00Z", "max_date": "2019-07-29T10:08:00Z", "count_points": 14, "latitude": 48.72719, "longitude": 37.89254, "city": "Chasiv Yar", "images": []}, {"id": 424858, "min_date": "2019-07-29T09:12:00Z", "max_date": "2019-07-29T09:12:00Z", "count_points": 1, "latitude": 48.93636, "longitude": 33.43434, "city": "Onufriyivka", "images": []}, {"id": 424859, "min_date": "2019-07-29T09:12:00Z", "max_date": "2019-08-02T23:30:00Z", "count_points": 3, "latitude": 47.98549, "longitude": 37.94796, "city": "Makiyivka", "images": []}, {"id": 424860, "min_date": "2019-07-29T09:12:00Z", "max_date": "2019-07-29T08:23:00Z", "count_points": 3, "latitude": 49.20265, "longitude": 38.45512, "city": "Rubizhne", "images": []}, {"id": 424861, "min_date": "2019-07-29T09:12:00Z", "max_date": "2019-07-29T10:08:00Z", "count_points": 5, "latitude": 48.7555, "longitude": 38.13384, "city": "Soledar", "images": []}, {"id": 424862, "min_date": "2019-07-29T09:12:00Z", "max_date": "2019-07-29T09:12:00Z", "count_points": 5, "latitude": 50.18786, "longitude": 36.9491, "city": "Vovchans\u2019k", "images": []}, {"id": 424863, "min_date": "2019-07-29T09:12:00Z", "max_date": "2019-07-31T19:21:00Z", "count_points": 10, "latitude": 48.18918, "longitude": 37.3714, "city": "Selydove", "images": []}, {"id": 424864, "min_date": "2019-07-29T09:12:00Z", "max_date": "2019-07-29T09:12:00Z", "count_points": 1, "latitude": 50.30014, "longitude": 32.26932, "city": "Pyryatyn", "images": []}, {"id": 424865, "min_date": "2019-07-29T10:48:00Z", "max_date": "2019-07-29T10:08:00Z", "count_points": 4, "latitude": 50.31899, "longitude": 37.51514, "city": "Prykolotne", "images": []}, {"id": 424866, "min_date": "2019-07-29T10:48:00Z", "max_date": "2019-07-29T10:48:00Z", "count_points": 1, "latitude": 49.31062, "longitude": 39.86667, "city": "Milove", "images": []}, {"id": 424867, "min_date": "2019-07-29T10:48:00Z", "max_date": "2019-07-29T10:48:00Z", "count_points": 2, "latitude": 49.80902, "longitude": 28.3683, "city": "Berdychiv", "images": []}, {"id": 424868, "min_date": "2019-07-29T10:48:00Z", "max_date": "2019-07-29T10:48:00Z", "count_points": 3, "latitude": 50.30613, "longitude": 25.70174, "city": "Tarakaniv", "images": []}, {"id": 424869, "min_date": "2019-07-29T10:48:00Z", "max_date": "2019-07-29T10:48:00Z", "count_points": 1, "latitude": 50.0899, "longitude": 26.36694, "city": "Lyakhovtsy", "images": []}, {"id": 424870, "min_date": "2019-07-29T10:48:00Z", "max_date": "2019-07-29T10:48:00Z", "count_points": 1, "latitude": 49.88348, "longitude": 25.9876, "city": "Lanivtsi", "images": []}, {"id": 424871, "min_date": "2019-07-29T10:48:00Z", "max_date": "2019-07-29T10:48:00Z", "count_points": 2, "latitude": 49.45829, "longitude": 28.1212, "city": "Lityn", "images": []}, {"id": 424872, "min_date": "2019-07-29T10:48:00Z", "max_date": "2019-07-29T10:48:00Z", "count_points": 2, "latitude": 47.5757, "longitude": 35.66128, "city": "Kirove", "images": []}, {"id": 424873, "min_date": "2019-07-29T10:48:00Z", "max_date": "2019-07-29T10:48:00Z", "count_points": 2, "latitude": 48.56029, "longitude": 28.31017, "city": "Klembivka", "images": []}, {"id": 424874, "min_date": "2019-07-29T10:48:00Z", "max_date": "2019-07-31T11:54:00Z", "count_points": 2, "latitude": 48.23103, "longitude": 29.38356, "city": "Chechelnyk", "images": []}, {"id": 424875, "min_date": "2019-07-29T10:48:00Z", "max_date": "2019-07-29T10:48:00Z", "count_points": 1, "latitude": 51.26033, "longitude": 25.70979, "city": "Manevychi", "images": []}, {"id": 424876, "min_date": "2019-07-29T10:48:00Z", "max_date": "2019-07-29T10:48:00Z", "count_points": 1, "latitude": 48.61788, "longitude": 27.86242, "city": "Vendychany", "images": []}, {"id": 424877, "min_date": "2019-07-29T10:48:00Z", "max_date": "2019-07-29T10:48:00Z", "count_points": 2, "latitude": 47.73157, "longitude": 36.31505, "city": "Hulyaypole", "images": []}, {"id": 424878, "min_date": "2019-07-29T10:48:00Z", "max_date": "2019-07-30T10:30:00Z", "count_points": 4, "latitude": 48.61856, "longitude": 28.02486, "city": "Chernivtsi", "images": []}, {"id": 424879, "min_date": "2019-07-29T10:48:00Z", "max_date": "2019-07-29T10:48:00Z", "count_points": 1, "latitude": 49.8611, "longitude": 26.35487, "city": "Teofipol", "images": []}, {"id": 424880, "min_date": "2019-07-29T10:48:00Z", "max_date": "2019-07-29T10:48:00Z", "count_points": 1, "latitude": 47.77671, "longitude": 36.22315, "city": "Ternuvate", "images": []}, {"id": 424881, "min_date": "2019-07-29T10:48:00Z", "max_date": "2019-07-29T10:48:00Z", "count_points": 1, "latitude": 46.23613, "longitude": 33.53834, "city": "Chaplynka", "images": []}, {"id": 424882, "min_date": "2019-07-29T10:48:00Z", "max_date": "2019-07-29T10:48:00Z", "count_points": 1, "latitude": 49.15274, "longitude": 26.22011, "city": "Husiatyn", "images": []}, {"id": 424883, "min_date": "2019-07-29T10:48:00Z", "max_date": "2019-07-29T10:48:00Z", "count_points": 1, "latitude": 49.16864, "longitude": 25.60518, "city": "Terebovlya", "images": []}, {"id": 424884, "min_date": "2019-07-29T10:48:00Z", "max_date": "2019-07-29T10:48:00Z", "count_points": 1, "latitude": 49.12233, "longitude": 25.62566, "city": "Belaya", "images": []}, {"id": 424885, "min_date": "2019-07-29T10:48:00Z", "max_date": "2019-07-29T10:48:00Z", "count_points": 1, "latitude": 48.52866, "longitude": 26.69895, "city": "Kel\u2019mentsi", "images": []}, {"id": 424886, "min_date": "2019-07-29T10:48:00Z", "max_date": "2019-08-02T09:37:00Z", "count_points": 7, "latitude": 48.56064, "longitude": 25.58071, "city": "Stetseva", "images": []}, {"id": 424887, "min_date": "2019-07-29T10:48:00Z", "max_date": "2019-07-29T10:48:00Z", "count_points": 9, "latitude": 48.46439, "longitude": 33.50797, "city": "Zhovti Vody", "images": []}, {"id": 424888, "min_date": "2019-07-29T10:48:00Z", "max_date": "2019-07-29T10:48:00Z", "count_points": 1, "latitude": 46.92736, "longitude": 33.85719, "city": "Hornostayivka", "images": []}, {"id": 424889, "min_date": "2019-07-29T10:48:00Z", "max_date": "2019-07-29T10:48:00Z", "count_points": 1, "latitude": 46.75277, "longitude": 33.51916, "city": "Kakhovka", "images": []}, {"id": 424890, "min_date": "2019-07-29T10:48:00Z", "max_date": "2019-07-29T10:48:00Z", "count_points": 2, "latitude": 47.77863, "longitude": 33.60201, "city": "Apostolove", "images": []}, {"id": 424891, "min_date": "2019-07-29T10:48:00Z", "max_date": "2019-07-29T10:48:00Z", "count_points": 1, "latitude": 49.03665, "longitude": 27.89896, "city": "Kopayhorod", "images": []}, {"id": 424892, "min_date": "2019-07-29T10:48:00Z", "max_date": "2019-07-29T10:02:00Z", "count_points": 13, "latitude": 48.93847, "longitude": 25.50199, "city": "Druzhba", "images": []}, {"id": 424893, "min_date": "2019-07-29T10:48:00Z", "max_date": "2019-08-02T09:37:00Z", "count_points": 15, "latitude": 46.80305, "longitude": 36.12426, "city": "Prymors\u2019k", "images": []}, {"id": 424894, "min_date": "2019-07-29T10:48:00Z", "max_date": "2019-07-29T10:48:00Z", "count_points": 1, "latitude": 47.54879, "longitude": 37.39425, "city": "Volnovakha", "images": []}, {"id": 424895, "min_date": "2019-07-29T10:48:00Z", "max_date": "2019-07-29T10:48:00Z", "count_points": 1, "latitude": 47.48812, "longitude": 37.82652, "city": "Tel\u2019manove", "images": []}, {"id": 424896, "min_date": "2019-07-29T10:48:00Z", "max_date": "2019-08-01T08:54:00Z", "count_points": 3, "latitude": 47.6453, "longitude": 38.26089, "city": "Kuteynykove", "images": []}, {"id": 424897, "min_date": "2019-07-29T10:48:00Z", "max_date": "2019-07-29T10:48:00Z", "count_points": 1, "latitude": 48.87745, "longitude": 32.645, "city": "Dmytrivka", "images": []}, {"id": 424898, "min_date": "2019-07-29T10:48:00Z", "max_date": "2019-07-29T10:48:00Z", "count_points": 1, "latitude": 48.65881, "longitude": 32.20103, "city": "Kropyvnytskyi", "images": []}, {"id": 424899, "min_date": "2019-07-29T10:48:00Z", "max_date": "2019-07-29T10:48:00Z", "count_points": 1, "latitude": 48.66432, "longitude": 28.98393, "city": "Tulchyn", "images": []}, {"id": 424900, "min_date": "2019-07-29T10:48:00Z", "max_date": "2019-08-02T09:36:00Z", "count_points": 3, "latitude": 49.35977, "longitude": 29.15111, "city": "Lypovets", "images": []}, {"id": 424901, "min_date": "2019-07-29T10:48:00Z", "max_date": "2019-07-29T08:23:00Z", "count_points": 4, "latitude": 49.45045, "longitude": 36.19613, "city": "Pervomays\u2019kyy", "images": []}, {"id": 424902, "min_date": "2019-07-29T10:48:00Z", "max_date": "2019-07-29T10:48:00Z", "count_points": 2, "latitude": 47.27093, "longitude": 37.69562, "city": "Sartana", "images": []}, {"id": 424903, "min_date": "2019-07-29T10:48:00Z", "max_date": "2019-07-29T10:48:00Z", "count_points": 1, "latitude": 48.63677, "longitude": 31.95516, "city": "Mala Vyska", "images": []}, {"id": 424904, "min_date": "2019-07-29T10:48:00Z", "max_date": "2019-07-29T10:48:00Z", "count_points": 8, "latitude": 47.09972, "longitude": 37.67808, "city": "Sartana", "images": []}, {"id": 424905, "min_date": "2019-07-29T10:48:00Z", "max_date": "2019-07-29T10:48:00Z", "count_points": 1, "latitude": 48.76302, "longitude": 35.90769, "city": "Yur\u201dyivka", "images": []}, {"id": 424906, "min_date": "2019-07-29T10:48:00Z", "max_date": "2019-07-29T10:48:00Z", "count_points": 1, "latitude": 49.62215, "longitude": 29.16987, "city": "Ruzhyn", "images": []}, {"id": 424907, "min_date": "2019-07-29T10:48:00Z", "max_date": "2019-07-29T10:48:00Z", "count_points": 1, "latitude": 50.13182, "longitude": 35.86746, "city": "Manchenky", "images": []}, {"id": 424908, "min_date": "2019-07-29T10:48:00Z", "max_date": "2019-07-29T10:48:00Z", "count_points": 2, "latitude": 49.74878, "longitude": 28.50932, "city": "Berdychiv", "images": []}, {"id": 424909, "min_date": "2019-07-29T10:48:00Z", "max_date": "2019-07-29T10:48:00Z", "count_points": 1, "latitude": 49.03598, "longitude": 29.66682, "city": "Monastyryshche", "images": []}, {"id": 424910, "min_date": "2019-07-29T10:48:00Z", "max_date": "2019-08-01T00:06:00Z", "count_points": 3, "latitude": 48.99717, "longitude": 28.89454, "city": "Nemyriv", "images": []}, {"id": 424911, "min_date": "2019-07-29T10:48:00Z", "max_date": "2019-07-29T10:48:00Z", "count_points": 1, "latitude": 48.93286, "longitude": 29.60749, "city": "Dashiv", "images": []}, {"id": 424912, "min_date": "2019-07-29T10:48:00Z", "max_date": "2019-07-29T10:48:00Z", "count_points": 1, "latitude": 48.52128, "longitude": 29.84705, "city": "Teplyk", "images": []}, {"id": 424913, "min_date": "2019-07-29T10:48:00Z", "max_date": "2019-07-29T10:01:00Z", "count_points": 9, "latitude": 49.97394, "longitude": 29.5473, "city": "Popilnya", "images": []}, {"id": 424914, "min_date": "2019-07-29T10:48:00Z", "max_date": "2019-07-29T10:48:00Z", "count_points": 2, "latitude": 49.47495, "longitude": 29.00842, "city": "Lypovets", "images": []}, {"id": 424915, "min_date": "2019-07-29T10:48:00Z", "max_date": "2019-07-29T10:48:00Z", "count_points": 2, "latitude": 49.66626, "longitude": 28.98099, "city": "Kozyatyn", "images": []}, {"id": 424916, "min_date": "2019-07-29T10:48:00Z", "max_date": "2019-07-29T10:48:00Z", "count_points": 1, "latitude": 50.05154, "longitude": 32.77341, "city": "Lubny", "images": []}, {"id": 424917, "min_date": "2019-07-29T10:48:00Z", "max_date": "2019-08-04T09:25:00Z", "count_points": 8, "latitude": 49.12311, "longitude": 29.02413, "city": "Lypovets", "images": []}, {"id": 424918, "min_date": "2019-07-29T10:48:00Z", "max_date": "2019-08-01T09:54:00Z", "count_points": 5, "latitude": 48.66419, "longitude": 29.12486, "city": "Ladyzhyn", "images": []}, {"id": 424919, "min_date": "2019-07-29T10:48:00Z", "max_date": "2019-07-29T10:48:00Z", "count_points": 1, "latitude": 49.09834, "longitude": 29.69174, "city": "Monastyryshche", "images": []}, {"id": 424920, "min_date": "2019-07-29T10:48:00Z", "max_date": "2019-07-29T10:48:00Z", "count_points": 2, "latitude": 48.92552, "longitude": 36.3656, "city": "Lozova", "images": []}, {"id": 424921, "min_date": "2019-07-29T10:48:00Z", "max_date": "2019-07-29T10:08:00Z", "count_points": 6, "latitude": 49.19104, "longitude": 36.0301, "city": "Sakhnovshchyna", "images": []}, {"id": 424922, "min_date": "2019-07-29T10:48:00Z", "max_date": "2019-07-29T10:48:00Z", "count_points": 2, "latitude": 49.40648, "longitude": 35.84938, "city": "Chapayeve", "images": []}, {"id": 424923, "min_date": "2019-07-29T10:48:00Z", "max_date": "2019-07-29T10:48:00Z", "count_points": 1, "latitude": 49.03382, "longitude": 31.52354, "city": "Lebedyn", "images": []}, {"id": 424924, "min_date": "2019-07-29T10:48:00Z", "max_date": "2019-07-29T10:48:00Z", "count_points": 2, "latitude": 49.05279, "longitude": 35.95736, "city": "Sakhnovshchyna", "images": []}, {"id": 424925, "min_date": "2019-07-29T10:48:00Z", "max_date": "2019-07-29T10:48:00Z", "count_points": 1, "latitude": 49.08365, "longitude": 35.90301, "city": "Sakhnovshchyna", "images": []}, {"id": 424926, "min_date": "2019-07-29T10:48:00Z", "max_date": "2019-07-29T10:48:00Z", "count_points": 1, "latitude": 49.10071, "longitude": 30.04029, "city": "Zhashkiv", "images": []}, {"id": 424927, "min_date": "2019-07-29T10:48:00Z", "max_date": "2019-07-29T10:48:00Z", "count_points": 3, "latitude": 49.46958, "longitude": 30.40942, "city": "Kalynove", "images": []}, {"id": 424928, "min_date": "2019-07-29T10:48:00Z", "max_date": "2019-07-29T10:48:00Z", "count_points": 5, "latitude": 48.52173, "longitude": 29.98256, "city": "Hayvoron", "images": []}, {"id": 424929, "min_date": "2019-07-29T10:48:00Z", "max_date": "2019-08-01T10:39:00Z", "count_points": 3, "latitude": 49.25953, "longitude": 29.73905, "city": "Tetiiv", "images": []}, {"id": 424930, "min_date": "2019-07-29T10:48:00Z", "max_date": "2019-07-29T10:48:00Z", "count_points": 1, "latitude": 48.7808, "longitude": 29.32202, "city": "Haisyn", "images": []}, {"id": 424931, "min_date": "2019-07-29T10:48:00Z", "max_date": "2019-07-31T10:12:00Z", "count_points": 3, "latitude": 48.78589, "longitude": 30.71527, "city": "Talne", "images": []}, {"id": 424932, "min_date": "2019-07-29T10:48:00Z", "max_date": "2019-07-29T10:08:00Z", "count_points": 3, "latitude": 49.00177, "longitude": 36.7, "city": "Blyznyuky", "images": []}, {"id": 424933, "min_date": "2019-07-29T10:48:00Z", "max_date": "2019-07-29T10:48:00Z", "count_points": 2, "latitude": 49.98546, "longitude": 37.10894, "city": "Pechenihy", "images": []}, {"id": 424934, "min_date": "2019-07-29T10:48:00Z", "max_date": "2019-07-29T10:48:00Z", "count_points": 1, "latitude": 48.995, "longitude": 35.84098, "city": "Sakhnovshchyna", "images": []}, {"id": 424935, "min_date": "2019-07-29T10:48:00Z", "max_date": "2019-07-29T10:48:00Z", "count_points": 1, "latitude": 50.15011, "longitude": 35.82016, "city": "Manchenky", "images": []}, {"id": 424936, "min_date": "2019-07-29T10:48:00Z", "max_date": "2019-07-29T10:48:00Z", "count_points": 1, "latitude": 47.59018, "longitude": 37.76978, "city": "Dokuchayevs\u2019k", "images": []}, {"id": 424937, "min_date": "2019-07-29T10:48:00Z", "max_date": "2019-07-29T19:33:00Z", "count_points": 5, "latitude": 47.5483, "longitude": 37.71373, "city": "Dokuchayevs\u2019k", "images": []}, {"id": 424938, "min_date": "2019-07-29T10:48:00Z", "max_date": "2019-07-29T10:48:00Z", "count_points": 1, "latitude": 46.47269, "longitude": 34.21231, "city": "Novotroyits\u2019ke", "images": []}, {"id": 424939, "min_date": "2019-07-29T10:48:00Z", "max_date": "2019-08-01T11:36:00Z", "count_points": 3, "latitude": 46.9349, "longitude": 35.06667, "city": "Matviyivka", "images": []}, {"id": 424940, "min_date": "2019-07-29T10:48:00Z", "max_date": "2019-07-29T10:48:00Z", "count_points": 2, "latitude": 45.86763, "longitude": 34.87498, "city": "Pshenichnoye", "images": []}, {"id": 424941, "min_date": "2019-07-29T10:48:00Z", "max_date": "2019-07-29T10:48:00Z", "count_points": 2, "latitude": 45.72578, "longitude": 34.38872, "city": "Dzhankoy", "images": []}, {"id": 424942, "min_date": "2019-07-29T10:48:00Z", "max_date": "2019-07-29T10:48:00Z", "count_points": 2, "latitude": 47.42649, "longitude": 34.78274, "city": "Energodar", "images": []}, {"id": 424943, "min_date": "2019-07-29T10:48:00Z", "max_date": "2019-07-29T10:48:00Z", "count_points": 1, "latitude": 47.44935, "longitude": 34.47198, "city": "Vodyane", "images": []}, {"id": 424944, "min_date": "2019-07-29T10:48:00Z", "max_date": "2019-08-03T08:43:00Z", "count_points": 5, "latitude": 46.38291, "longitude": 34.98755, "city": "Partyzany", "images": []}, {"id": 424945, "min_date": "2019-07-29T10:48:00Z", "max_date": "2019-07-29T10:48:00Z", "count_points": 1, "latitude": 48.26682, "longitude": 34.93075, "city": "Solone", "images": []}, {"id": 424946, "min_date": "2019-07-29T10:48:00Z", "max_date": "2019-07-29T10:48:00Z", "count_points": 3, "latitude": 46.62334, "longitude": 34.81353, "city": "Ivanivka", "images": []}, {"id": 424947, "min_date": "2019-07-29T10:48:00Z", "max_date": "2019-07-29T10:48:00Z", "count_points": 1, "latitude": 49.05773, "longitude": 26.64113, "city": "Horodok", "images": []}, {"id": 424948, "min_date": "2019-07-29T10:48:00Z", "max_date": "2019-07-31T10:12:00Z", "count_points": 3, "latitude": 48.08437, "longitude": 29.04015, "city": "Kodyma", "images": []}, {"id": 424949, "min_date": "2019-07-29T10:48:00Z", "max_date": "2019-07-29T10:48:00Z", "count_points": 1, "latitude": 49.66459, "longitude": 35.00889, "city": "Chutove", "images": []}, {"id": 424950, "min_date": "2019-07-29T10:48:00Z", "max_date": "2019-07-29T10:48:00Z", "count_points": 1, "latitude": 46.75436, "longitude": 31.87864, "city": "Parutyne", "images": []}, {"id": 424951, "min_date": "2019-07-29T10:48:00Z", "max_date": "2019-07-29T11:46:00Z", "count_points": 11, "latitude": 48.76462, "longitude": 26.42722, "city": "Smotrych", "images": []}, {"id": 424952, "min_date": "2019-07-29T10:48:00Z", "max_date": "2019-07-29T10:48:00Z", "count_points": 1, "latitude": 47.32542, "longitude": 30.14175, "city": "Shyryayeve", "images": []}, {"id": 424953, "min_date": "2019-07-29T10:48:00Z", "max_date": "2019-07-29T10:48:00Z", "count_points": 4, "latitude": 48.44784, "longitude": 28.63681, "city": "Vapnyarka", "images": []}, {"id": 424954, "min_date": "2019-07-29T10:48:00Z", "max_date": "2019-07-29T10:48:00Z", "count_points": 1, "latitude": 47.15816, "longitude": 29.84866, "city": "Kuchurhan", "images": []}, {"id": 424955, "min_date": "2019-07-29T10:48:00Z", "max_date": "2019-08-01T09:54:00Z", "count_points": 3, "latitude": 48.47017, "longitude": 28.2987, "city": "Klembivka", "images": []}, {"id": 424956, "min_date": "2019-07-29T10:48:00Z", "max_date": "2019-07-29T10:48:00Z", "count_points": 1, "latitude": 50.09141, "longitude": 35.01704, "city": "Krasnokuts\u2019k", "images": []}, {"id": 424957, "min_date": "2019-07-29T10:48:00Z", "max_date": "2019-08-02T11:21:00Z", "count_points": 20, "latitude": 46.14881, "longitude": 32.47817, "city": "Lazurne", "images": []}, {"id": 424958, "min_date": "2019-07-29T10:48:00Z", "max_date": "2019-07-29T10:48:00Z", "count_points": 4, "latitude": 50.57986, "longitude": 35.37726, "city": "Mezenivka", "images": []}, {"id": 424959, "min_date": "2019-07-29T10:48:00Z", "max_date": "2019-07-29T10:48:00Z", "count_points": 1, "latitude": 48.60824, "longitude": 26.39357, "city": "Zhvanets", "images": []}, {"id": 424960, "min_date": "2019-07-29T10:48:00Z", "max_date": "2019-07-29T10:48:00Z", "count_points": 1, "latitude": 47.88967, "longitude": 33.68675, "city": "Apostolove", "images": []}, {"id": 424961, "min_date": "2019-07-29T10:48:00Z", "max_date": "2019-08-01T00:06:00Z", "count_points": 3, "latitude": 46.19452, "longitude": 30.18034, "city": "Bilhorod-Dnistrovskyi", "images": []}, {"id": 424962, "min_date": "2019-07-29T10:48:00Z", "max_date": "2019-07-29T10:48:00Z", "count_points": 1, "latitude": 46.98513, "longitude": 33.21862, "city": "Dnipryany", "images": []}, {"id": 424963, "min_date": "2019-07-29T10:48:00Z", "max_date": "2019-07-29T10:48:00Z", "count_points": 1, "latitude": 47.08831, "longitude": 35.89691, "city": "Rozivka", "images": []}, {"id": 424964, "min_date": "2019-07-29T10:48:00Z", "max_date": "2019-07-29T10:48:00Z", "count_points": 2, "latitude": 47.49965, "longitude": 37.17883, "city": "Rozivka", "images": []}, {"id": 424965, "min_date": "2019-07-29T10:48:00Z", "max_date": "2019-07-29T10:48:00Z", "count_points": 3, "latitude": 48.36476, "longitude": 29.41514, "city": "Bershad", "images": []}, {"id": 424966, "min_date": "2019-07-29T10:48:00Z", "max_date": "2019-08-02T09:43:00Z", "count_points": 98, "latitude": 46.70905, "longitude": 36.15873, "city": "Prymors\u2019k", "images": []}, {"id": 424967, "min_date": "2019-07-29T10:48:00Z", "max_date": "2019-07-29T23:42:00Z", "count_points": 15, "latitude": 46.87116, "longitude": 36.85301, "city": "Osypenko", "images": []}, {"id": 424968, "min_date": "2019-07-29T10:48:00Z", "max_date": "2019-07-29T10:48:00Z", "count_points": 1, "latitude": 47.40496, "longitude": 35.67947, "city": "Tokmak", "images": []}, {"id": 424969, "min_date": "2019-07-29T10:48:00Z", "max_date": "2019-07-29T10:48:00Z", "count_points": 1, "latitude": 48.6483, "longitude": 35.15765, "city": "Novomoskovs\u2019k", "images": []}, {"id": 424970, "min_date": "2019-07-29T10:48:00Z", "max_date": "2019-07-29T10:48:00Z", "count_points": 1, "latitude": 47.58953, "longitude": 36.88369, "city": "Velyka Novosilka", "images": []}, {"id": 424971, "min_date": "2019-07-29T10:48:00Z", "max_date": "2019-07-29T10:48:00Z", "count_points": 1, "latitude": 47.55305, "longitude": 37.22377, "city": "Rozivka", "images": []}, {"id": 424972, "min_date": "2019-07-29T10:48:00Z", "max_date": "2019-07-29T23:06:00Z", "count_points": 3, "latitude": 47.56491, "longitude": 37.29014, "city": "Blahodatne", "images": []}, {"id": 424973, "min_date": "2019-07-29T10:48:00Z", "max_date": "2019-07-29T10:48:00Z", "count_points": 2, "latitude": 48.81905, "longitude": 27.19434, "city": "Nova Ushytsya", "images": []}, {"id": 424974, "min_date": "2019-07-29T10:48:00Z", "max_date": "2019-07-29T10:48:00Z", "count_points": 1, "latitude": 48.45392, "longitude": 29.84343, "city": "Hayvoron", "images": []}, {"id": 424975, "min_date": "2019-07-29T10:48:00Z", "max_date": "2019-07-29T10:48:00Z", "count_points": 1, "latitude": 51.51142, "longitude": 26.46192, "city": "Dubrovytsya", "images": []}, {"id": 424976, "min_date": "2019-07-29T10:48:00Z", "max_date": "2019-07-29T10:48:00Z", "count_points": 1, "latitude": 45.17344, "longitude": 35.65792, "city": "Batal\u2019noye", "images": []}, {"id": 424977, "min_date": "2019-07-29T10:48:00Z", "max_date": "2019-07-29T10:48:00Z", "count_points": 1, "latitude": 47.61415, "longitude": 37.3147, "city": "Blahodatne", "images": []}, {"id": 424978, "min_date": "2019-07-29T10:48:00Z", "max_date": "2019-07-29T10:48:00Z", "count_points": 1, "latitude": 48.17838, "longitude": 25.31927, "city": "Berehomet", "images": []}, {"id": 424979, "min_date": "2019-07-29T10:48:00Z", "max_date": "2019-07-29T10:48:00Z", "count_points": 2, "latitude": 49.40508, "longitude": 35.43946, "city": "Krasnohrad", "images": []}, {"id": 424980, "min_date": "2019-07-29T10:48:00Z", "max_date": "2019-07-29T10:48:00Z", "count_points": 4, "latitude": 48.19833, "longitude": 25.63861, "city": "Storozhynets\u2019", "images": []}, {"id": 424981, "min_date": "2019-07-29T10:48:00Z", "max_date": "2019-07-29T10:48:00Z", "count_points": 1, "latitude": 47.40185, "longitude": 35.87067, "city": "Mala Tokmachka", "images": []}, {"id": 424982, "min_date": "2019-07-29T10:48:00Z", "max_date": "2019-07-29T10:48:00Z", "count_points": 1, "latitude": 46.82953, "longitude": 35.57481, "city": "Pryazovs\u2019ke", "images": []}, {"id": 424983, "min_date": "2019-07-29T10:48:00Z", "max_date": "2019-07-29T10:48:00Z", "count_points": 2, "latitude": 47.41481, "longitude": 37.23342, "city": "Rozivka", "images": []}, {"id": 424984, "min_date": "2019-07-29T10:48:00Z", "max_date": "2019-07-29T10:48:00Z", "count_points": 2, "latitude": 50.82597, "longitude": 33.92967, "city": "Nedryhayliv", "images": []}, {"id": 424985, "min_date": "2019-07-29T10:48:00Z", "max_date": "2019-07-29T10:48:00Z", "count_points": 1, "latitude": 48.06215, "longitude": 25.80256, "city": "Ropcha", "images": []}, {"id": 424986, "min_date": "2019-07-29T10:48:00Z", "max_date": "2019-07-29T10:48:00Z", "count_points": 1, "latitude": 48.3834, "longitude": 28.20373, "city": "Yampil\u2019", "images": []}, {"id": 424987, "min_date": "2019-07-29T10:48:00Z", "max_date": "2019-07-29T10:48:00Z", "count_points": 1, "latitude": 48.65597, "longitude": 34.13544, "city": "Verkhn\u2019odniprovs\u2019k", "images": []}, {"id": 424988, "min_date": "2019-07-29T10:48:00Z", "max_date": "2019-07-29T10:48:00Z", "count_points": 1, "latitude": 50.87398, "longitude": 31.60993, "city": "Nosivka", "images": []}, {"id": 424989, "min_date": "2019-07-29T10:48:00Z", "max_date": "2019-07-29T11:46:00Z", "count_points": 11, "latitude": 48.49148, "longitude": 26.83202, "city": "Kel\u2019mentsi", "images": []}, {"id": 424990, "min_date": "2019-07-29T10:48:00Z", "max_date": "2019-07-29T11:47:00Z", "count_points": 6, "latitude": 49.32982, "longitude": 26.20741, "city": "Hrymayliv", "images": []}, {"id": 424991, "min_date": "2019-07-29T10:48:00Z", "max_date": "2019-07-29T10:48:00Z", "count_points": 1, "latitude": 49.52815, "longitude": 23.02243, "city": "Skelivka", "images": []}, {"id": 424992, "min_date": "2019-07-29T10:48:00Z", "max_date": "2019-08-03T08:42:00Z", "count_points": 30, "latitude": 46.73549, "longitude": 35.9207, "city": "Novovasylivka", "images": []}, {"id": 424993, "min_date": "2019-07-29T10:48:00Z", "max_date": "2019-07-29T10:48:00Z", "count_points": 1, "latitude": 49.83667, "longitude": 23.61988, "city": "Horodok", "images": []}, {"id": 424994, "min_date": "2019-07-29T10:48:00Z", "max_date": "2019-07-29T10:48:00Z", "count_points": 1, "latitude": 49.54655, "longitude": 24.70875, "city": "Rohatyn", "images": []}, {"id": 424995, "min_date": "2019-07-29T10:48:00Z", "max_date": "2019-07-29T10:48:00Z", "count_points": 1, "latitude": 49.6957, "longitude": 25.59428, "city": "Ternopil", "images": []}, {"id": 424996, "min_date": "2019-07-29T10:48:00Z", "max_date": "2019-07-29T10:08:00Z", "count_points": 16, "latitude": 48.67753, "longitude": 37.85168, "city": "Chasiv Yar", "images": []}, {"id": 424997, "min_date": "2019-07-29T10:48:00Z", "max_date": "2019-07-29T10:48:00Z", "count_points": 1, "latitude": 49.95079, "longitude": 33.67408, "city": "Myrhorod", "images": []}, {"id": 424998, "min_date": "2019-07-29T10:48:00Z", "max_date": "2019-07-29T10:48:00Z", "count_points": 4, "latitude": 48.66259, "longitude": 38.30825, "city": "Popasna", "images": []}, {"id": 424999, "min_date": "2019-07-29T10:48:00Z", "max_date": "2019-07-29T10:48:00Z", "count_points": 2, "latitude": 48.70119, "longitude": 37.93935, "city": "Artemivs\u2019k", "images": []}, {"id": 425000, "min_date": "2019-07-29T10:48:00Z", "max_date": "2019-07-29T10:48:00Z", "count_points": 1, "latitude": 50.1124, "longitude": 23.41706, "city": "Verblyany", "images": []}, {"id": 425001, "min_date": "2019-07-29T10:48:00Z", "max_date": "2019-07-29T10:48:00Z", "count_points": 4, "latitude": 48.42699, "longitude": 29.37243, "city": "Obodivka", "images": []}, {"id": 425002, "min_date": "2019-07-29T10:48:00Z", "max_date": "2019-07-29T10:48:00Z", "count_points": 1, "latitude": 47.96016, "longitude": 30.12298, "city": "Savran", "images": []}, {"id": 425003, "min_date": "2019-07-29T10:48:00Z", "max_date": "2019-07-29T10:09:00Z", "count_points": 4, "latitude": 48.94209, "longitude": 26.8929, "city": "Dunaivtsi", "images": []}, {"id": 425004, "min_date": "2019-07-29T10:48:00Z", "max_date": "2019-07-29T10:48:00Z", "count_points": 1, "latitude": 48.87983, "longitude": 27.08389, "city": "Nova Ushytsya", "images": []}, {"id": 425005, "min_date": "2019-07-29T10:48:00Z", "max_date": "2019-07-29T11:46:00Z", "count_points": 8, "latitude": 48.88949, "longitude": 27.35868, "city": "Nova Ushytsya", "images": []}, {"id": 425006, "min_date": "2019-07-29T10:48:00Z", "max_date": "2019-07-29T10:48:00Z", "count_points": 1, "latitude": 47.83316, "longitude": 32.05354, "city": "Yelanets\u2019", "images": []}, {"id": 425007, "min_date": "2019-07-29T10:48:00Z", "max_date": "2019-07-29T10:48:00Z", "count_points": 1, "latitude": 50.36546, "longitude": 24.90191, "city": "Kulykiv", "images": []}, {"id": 425008, "min_date": "2019-07-29T10:48:00Z", "max_date": "2019-07-29T10:48:00Z", "count_points": 2, "latitude": 51.43343, "longitude": 24.66003, "city": "Stara Vyzhivka", "images": []}, {"id": 425009, "min_date": "2019-07-29T10:48:00Z", "max_date": "2019-07-29T10:48:00Z", "count_points": 4, "latitude": 50.45341, "longitude": 24.12571, "city": "Chervonohrad", "images": []}, {"id": 425010, "min_date": "2019-07-29T10:48:00Z", "max_date": "2019-08-03T09:18:00Z", "count_points": 5, "latitude": 48.49558, "longitude": 32.07099, "city": "Kropyvnytskyi", "images": []}, {"id": 425011, "min_date": "2019-07-29T10:48:00Z", "max_date": "2019-07-29T10:48:00Z", "count_points": 1, "latitude": 51.1033, "longitude": 24.0619, "city": "Liuboml", "images": []}, {"id": 425012, "min_date": "2019-07-29T10:48:00Z", "max_date": "2019-07-29T10:48:00Z", "count_points": 3, "latitude": 45.19978, "longitude": 34.76532, "city": "Vasilyevka", "images": []}, {"id": 425013, "min_date": "2019-07-29T10:48:00Z", "max_date": "2019-07-29T10:48:00Z", "count_points": 1, "latitude": 45.31724, "longitude": 34.46339, "city": "Zernovoye", "images": []}, {"id": 425014, "min_date": "2019-07-29T10:48:00Z", "max_date": "2019-07-29T10:48:00Z", "count_points": 1, "latitude": 46.47863, "longitude": 30.61616, "city": "Usatove", "images": []}, {"id": 425015, "min_date": "2019-07-29T10:48:00Z", "max_date": "2019-07-29T10:48:00Z", "count_points": 1, "latitude": 47.02326, "longitude": 31.09733, "city": "Kurisove", "images": []}, {"id": 425016, "min_date": "2019-07-29T10:48:00Z", "max_date": "2019-07-29T10:48:00Z", "count_points": 1, "latitude": 46.49587, "longitude": 32.08886, "city": "Stanislav", "images": []}, {"id": 425017, "min_date": "2019-07-29T10:48:00Z", "max_date": "2019-07-29T10:48:00Z", "count_points": 2, "latitude": 50.65244, "longitude": 33.71074, "city": "Lypova Dolyna", "images": []}, {"id": 425018, "min_date": "2019-07-29T10:48:00Z", "max_date": "2019-07-29T10:08:00Z", "count_points": 4, "latitude": 47.00733, "longitude": 35.47639, "city": "Terpinnya", "images": []}, {"id": 425019, "min_date": "2019-07-29T10:48:00Z", "max_date": "2019-07-29T10:48:00Z", "count_points": 1, "latitude": 45.67343, "longitude": 34.54225, "city": "Stal\u2019noye", "images": []}, {"id": 425020, "min_date": "2019-07-29T10:48:00Z", "max_date": "2019-07-29T10:48:00Z", "count_points": 1, "latitude": 47.09144, "longitude": 35.32795, "city": "Novobohdanivka", "images": []}, {"id": 425021, "min_date": "2019-07-29T10:48:00Z", "max_date": "2019-07-29T10:48:00Z", "count_points": 2, "latitude": 47.50057, "longitude": 29.50775, "city": "Okny", "images": []}, {"id": 425022, "min_date": "2019-07-29T10:48:00Z", "max_date": "2019-07-29T10:48:00Z", "count_points": 1, "latitude": 47.40975, "longitude": 29.38496, "city": "Okny", "images": []}, {"id": 425023, "min_date": "2019-07-29T10:48:00Z", "max_date": "2019-07-29T10:48:00Z", "count_points": 1, "latitude": 50.59922, "longitude": 27.03935, "city": "Korets", "images": []}, {"id": 425024, "min_date": "2019-07-29T10:48:00Z", "max_date": "2019-07-29T10:48:00Z", "count_points": 2, "latitude": 46.91475, "longitude": 35.42411, "city": "Terpinnya", "images": []}, {"id": 425025, "min_date": "2019-07-29T10:48:00Z", "max_date": "2019-07-29T10:48:00Z", "count_points": 1, "latitude": 49.00683, "longitude": 27.68504, "city": "Bar", "images": []}, {"id": 425026, "min_date": "2019-07-29T10:48:00Z", "max_date": "2019-07-29T10:48:00Z", "count_points": 2, "latitude": 49.77859, "longitude": 26.65517, "city": "Bazaliya", "images": []}, {"id": 425027, "min_date": "2019-07-29T10:48:00Z", "max_date": "2019-07-29T10:48:00Z", "count_points": 1, "latitude": 50.58063, "longitude": 33.8115, "city": "Lypova Dolyna", "images": []}, {"id": 425028, "min_date": "2019-07-29T10:48:00Z", "max_date": "2019-07-29T10:48:00Z", "count_points": 1, "latitude": 49.22921, "longitude": 33.46175, "city": "Kremenchuk", "images": []}, {"id": 425029, "min_date": "2019-07-29T10:48:00Z", "max_date": "2019-07-29T10:48:00Z", "count_points": 1, "latitude": 49.50595, "longitude": 27.35866, "city": "Medzhybizh", "images": []}, {"id": 425030, "min_date": "2019-07-29T10:48:00Z", "max_date": "2019-07-29T10:48:00Z", "count_points": 2, "latitude": 50.84884, "longitude": 35.06874, "city": "Verkhnya Syrovatka", "images": []}, {"id": 425031, "min_date": "2019-07-29T10:48:00Z", "max_date": "2019-07-29T10:48:00Z", "count_points": 1, "latitude": 50.36746, "longitude": 26.85419, "city": "Slavuta", "images": []}, {"id": 425032, "min_date": "2019-07-29T10:48:00Z", "max_date": "2019-07-29T10:48:00Z", "count_points": 1, "latitude": 49.18789, "longitude": 37.87118, "city": "Krasnyy Lyman", "images": []}, {"id": 425033, "min_date": "2019-07-29T10:48:00Z", "max_date": "2019-07-29T10:48:00Z", "count_points": 1, "latitude": 46.82597, "longitude": 30.25184, "city": "Rozdil\u2019na", "images": []}, {"id": 425034, "min_date": "2019-07-29T10:48:00Z", "max_date": "2019-08-01T08:55:00Z", "count_points": 8, "latitude": 46.91776, "longitude": 34.79035, "city": "Vesele", "images": []}, {"id": 425035, "min_date": "2019-07-29T10:48:00Z", "max_date": "2019-07-29T10:48:00Z", "count_points": 1, "latitude": 47.12014, "longitude": 34.77603, "city": "Velyka Bilozerka", "images": []}, {"id": 425036, "min_date": "2019-07-29T10:48:00Z", "max_date": "2019-07-29T10:48:00Z", "count_points": 4, "latitude": 48.14714, "longitude": 34.91629, "city": "Solone", "images": []}, {"id": 425037, "min_date": "2019-07-29T10:48:00Z", "max_date": "2019-07-29T10:08:00Z", "count_points": 6, "latitude": 46.52502, "longitude": 30.57055, "city": "Usatove", "images": []}, {"id": 425038, "min_date": "2019-07-29T10:48:00Z", "max_date": "2019-07-29T10:48:00Z", "count_points": 1, "latitude": 47.84785, "longitude": 30.97548, "city": "Kostyantynivka", "images": []}, {"id": 425039, "min_date": "2019-07-29T10:48:00Z", "max_date": "2019-08-03T10:26:00Z", "count_points": 11, "latitude": 46.97117, "longitude": 35.89075, "city": "Rozivka", "images": []}, {"id": 425040, "min_date": "2019-07-29T10:48:00Z", "max_date": "2019-07-29T10:48:00Z", "count_points": 4, "latitude": 46.95323, "longitude": 37.09336, "city": "Urzuf", "images": []}, {"id": 425041, "min_date": "2019-07-29T10:48:00Z", "max_date": "2019-07-29T10:48:00Z", "count_points": 1, "latitude": 48.20897, "longitude": 29.477, "city": "Chechelnyk", "images": []}, {"id": 425042, "min_date": "2019-07-29T10:48:00Z", "max_date": "2019-07-29T10:48:00Z", "count_points": 1, "latitude": 46.84879, "longitude": 33.0995, "city": "Kozachi Laheri", "images": []}, {"id": 425043, "min_date": "2019-07-29T10:48:00Z", "max_date": "2019-08-01T09:54:00Z", "count_points": 10, "latitude": 48.43966, "longitude": 29.20535, "city": "Trostyanets\u2019", "images": []}, {"id": 425044, "min_date": "2019-07-29T10:48:00Z", "max_date": "2019-07-29T10:48:00Z", "count_points": 3, "latitude": 46.93862, "longitude": 33.05031, "city": "Kozachi Laheri", "images": []}, {"id": 425045, "min_date": "2019-07-29T10:48:00Z", "max_date": "2019-07-29T10:48:00Z", "count_points": 1, "latitude": 45.95434, "longitude": 29.91478, "city": "Kulevcha", "images": []}, {"id": 425046, "min_date": "2019-07-29T10:48:00Z", "max_date": "2019-07-29T10:48:00Z", "count_points": 1, "latitude": 48.43347, "longitude": 33.08168, "city": "Novyy Starodub", "images": []}, {"id": 425047, "min_date": "2019-07-29T10:48:00Z", "max_date": "2019-07-29T10:48:00Z", "count_points": 1, "latitude": 47.62417, "longitude": 32.99981, "city": "Shyroke", "images": []}, {"id": 425048, "min_date": "2019-07-29T10:48:00Z", "max_date": "2019-08-01T10:38:00Z", "count_points": 38, "latitude": 46.87637, "longitude": 35.65896, "city": "Novovasylivka", "images": []}, {"id": 425049, "min_date": "2019-07-29T10:48:00Z", "max_date": "2019-07-29T10:48:00Z", "count_points": 1, "latitude": 47.92408, "longitude": 36.66253, "city": "Velyka Novosilka", "images": []}, {"id": 425050, "min_date": "2019-07-29T10:48:00Z", "max_date": "2019-07-29T19:33:00Z", "count_points": 2, "latitude": 48.08478, "longitude": 37.01188, "city": "Krasnoarmiys\u2019k", "images": []}, {"id": 425051, "min_date": "2019-07-29T10:48:00Z", "max_date": "2019-07-29T10:48:00Z", "count_points": 1, "latitude": 48.14923, "longitude": 35.71292, "city": "Synel\u2019nykove", "images": []}, {"id": 425052, "min_date": "2019-07-29T10:48:00Z", "max_date": "2019-07-29T10:48:00Z", "count_points": 1, "latitude": 47.88359, "longitude": 36.22857, "city": "Pokrovs\u2019ke", "images": []}, {"id": 425053, "min_date": "2019-07-29T10:48:00Z", "max_date": "2019-07-30T09:07:00Z", "count_points": 3, "latitude": 48.44328, "longitude": 26.47863, "city": "Khotyn", "images": []}, {"id": 425054, "min_date": "2019-07-29T10:48:00Z", "max_date": "2019-07-29T10:48:00Z", "count_points": 2, "latitude": 48.06267, "longitude": 36.05692, "city": "Vasyl\u2019kivka", "images": []}, {"id": 425055, "min_date": "2019-07-29T10:48:00Z", "max_date": "2019-07-29T10:48:00Z", "count_points": 3, "latitude": 48.2172, "longitude": 36.14404, "city": "Vasyl\u2019kivka", "images": []}, {"id": 425056, "min_date": "2019-07-29T10:48:00Z", "max_date": "2019-07-29T10:48:00Z", "count_points": 2, "latitude": 50.73879, "longitude": 31.00079, "city": "Semypolky", "images": []}, {"id": 425057, "min_date": "2019-07-29T10:48:00Z", "max_date": "2019-07-29T10:48:00Z", "count_points": 2, "latitude": 48.482, "longitude": 26.7789, "city": "Kel\u2019mentsi", "images": []}, {"id": 425058, "min_date": "2019-07-29T10:48:00Z", "max_date": "2019-07-30T08:48:00Z", "count_points": 4, "latitude": 47.9519, "longitude": 37.04058, "city": "Kurakhovo", "images": []}, {"id": 425059, "min_date": "2019-07-29T10:48:00Z", "max_date": "2019-07-29T10:48:00Z", "count_points": 1, "latitude": 47.87455, "longitude": 36.67958, "city": "Velyka Novosilka", "images": []}, {"id": 425060, "min_date": "2019-07-29T10:48:00Z", "max_date": "2019-07-29T10:48:00Z", "count_points": 1, "latitude": 47.00143, "longitude": 36.11467, "city": "Chernihivka", "images": []}, {"id": 425061, "min_date": "2019-07-29T10:48:00Z", "max_date": "2019-07-29T10:48:00Z", "count_points": 1, "latitude": 48.16835, "longitude": 37.01237, "city": "Krasnoarmiys\u2019k", "images": []}, {"id": 425062, "min_date": "2019-07-29T10:48:00Z", "max_date": "2019-08-03T08:42:00Z", "count_points": 20, "latitude": 47.92351, "longitude": 36.74054, "city": "Velyka Novosilka", "images": []}, {"id": 425063, "min_date": "2019-07-29T10:48:00Z", "max_date": "2019-07-29T10:48:00Z", "count_points": 1, "latitude": 47.82089, "longitude": 37.30889, "city": "Blahodatne", "images": []}, {"id": 425064, "min_date": "2019-07-29T10:48:00Z", "max_date": "2019-08-01T08:54:00Z", "count_points": 14, "latitude": 48.46223, "longitude": 27.87372, "city": "Mohyliv-Podilskyi", "images": []}, {"id": 425065, "min_date": "2019-07-29T10:48:00Z", "max_date": "2019-07-29T10:48:00Z", "count_points": 4, "latitude": 48.364, "longitude": 35.99877, "city": "Vasyl\u2019kivka", "images": []}, {"id": 425066, "min_date": "2019-07-29T10:48:00Z", "max_date": "2019-08-02T23:30:00Z", "count_points": 5, "latitude": 48.2492, "longitude": 35.88231, "city": "Vasyl\u2019kivka", "images": []}, {"id": 425067, "min_date": "2019-07-29T10:48:00Z", "max_date": "2019-07-29T10:48:00Z", "count_points": 1, "latitude": 47.40128, "longitude": 35.77322, "city": "Tokmak", "images": []}, {"id": 425068, "min_date": "2019-07-29T10:48:00Z", "max_date": "2019-07-29T10:48:00Z", "count_points": 1, "latitude": 47.98025, "longitude": 35.55689, "city": "Vil\u2019nyans\u2019k", "images": []}, {"id": 425069, "min_date": "2019-07-29T10:48:00Z", "max_date": "2019-07-29T23:06:00Z", "count_points": 3, "latitude": 48.47376, "longitude": 36.30705, "city": "Petropavlivka", "images": []}, {"id": 425070, "min_date": "2019-07-29T10:48:00Z", "max_date": "2019-07-29T10:48:00Z", "count_points": 1, "latitude": 48.20076, "longitude": 26.14792, "city": "Boyany", "images": []}, {"id": 425071, "min_date": "2019-07-29T23:00:00Z", "max_date": "2019-07-30T10:30:00Z", "count_points": 4, "latitude": 50.32929, "longitude": 37.44008, "city": "Prykolotne", "images": []}, {"id": 425072, "min_date": "2019-07-29T23:06:00Z", "max_date": "2019-07-29T23:06:00Z", "count_points": 1, "latitude": 46.89384, "longitude": 32.31643, "city": "Shevchenkove", "images": []}, {"id": 425073, "min_date": "2019-07-29T23:06:00Z", "max_date": "2019-07-31T10:12:00Z", "count_points": 2, "latitude": 47.16332, "longitude": 37.36229, "city": "Volodars\u2019ke", "images": []}, {"id": 425074, "min_date": "2019-07-29T23:06:00Z", "max_date": "2019-07-29T10:08:00Z", "count_points": 5, "latitude": 47.40357, "longitude": 37.79549, "city": "Tel\u2019manove", "images": []}, {"id": 425075, "min_date": "2019-07-29T23:06:00Z", "max_date": "2019-08-02T23:30:00Z", "count_points": 6, "latitude": 50.44887, "longitude": 34.1677, "city": "Hadyach", "images": []}, {"id": 425076, "min_date": "2019-07-29T23:06:00Z", "max_date": "2019-07-29T23:06:00Z", "count_points": 2, "latitude": 49.14445, "longitude": 33.99796, "city": "Lutovynivka", "images": []}, {"id": 425077, "min_date": "2019-07-29T23:06:00Z", "max_date": "2019-07-31T08:12:00Z", "count_points": 16, "latitude": 46.79104, "longitude": 36.33762, "city": "Prymors\u2019k", "images": []}, {"id": 425078, "min_date": "2019-07-29T23:06:00Z", "max_date": "2019-07-30T00:42:00Z", "count_points": 7, "latitude": 47.78179, "longitude": 33.9025, "city": "Sholokhove", "images": []}, {"id": 425079, "min_date": "2019-07-29T23:06:00Z", "max_date": "2019-07-29T23:06:00Z", "count_points": 8, "latitude": 46.99368, "longitude": 36.99194, "city": "Urzuf", "images": []}, {"id": 425080, "min_date": "2019-07-29T23:06:00Z", "max_date": "2019-07-29T19:33:00Z", "count_points": 5, "latitude": 46.57031, "longitude": 33.66859, "city": "Askaniya-Nova", "images": []}, {"id": 425081, "min_date": "2019-07-29T23:06:00Z", "max_date": "2019-07-29T23:06:00Z", "count_points": 1, "latitude": 46.85474, "longitude": 33.96876, "city": "Kayiry", "images": []}, {"id": 425082, "min_date": "2019-07-29T23:06:00Z", "max_date": "2019-08-01T09:54:00Z", "count_points": 4, "latitude": 46.48081, "longitude": 33.48018, "city": "Chaplynka", "images": []}, {"id": 425083, "min_date": "2019-07-29T23:06:00Z", "max_date": "2019-07-29T23:06:00Z", "count_points": 1, "latitude": 48.00184, "longitude": 37.37124, "city": "Kurakhovo", "images": []}, {"id": 425084, "min_date": "2019-07-29T23:06:00Z", "max_date": "2019-07-30T00:42:00Z", "count_points": 2, "latitude": 47.53686, "longitude": 36.72381, "city": "Kuybysheve", "images": []}, {"id": 425085, "min_date": "2019-07-29T23:06:00Z", "max_date": "2019-07-29T23:06:00Z", "count_points": 1, "latitude": 48.76212, "longitude": 37.2658, "city": "Krasnotorka", "images": []}, {"id": 425086, "min_date": "2019-07-29T23:06:00Z", "max_date": "2019-07-30T10:30:00Z", "count_points": 4, "latitude": 49.1608, "longitude": 36.28671, "city": "Krasnopavlivka", "images": []}, {"id": 425087, "min_date": "2019-07-29T23:06:00Z", "max_date": "2019-07-30T00:42:00Z", "count_points": 2, "latitude": 49.04223, "longitude": 37.14781, "city": "Barvinkove", "images": []}, {"id": 425088, "min_date": "2019-07-29T23:06:00Z", "max_date": "2019-07-29T23:06:00Z", "count_points": 1, "latitude": 49.56018, "longitude": 37.63872, "city": "Kivsharivka", "images": []}, {"id": 425089, "min_date": "2019-07-29T23:06:00Z", "max_date": "2019-07-29T23:06:00Z", "count_points": 2, "latitude": 49.5274, "longitude": 33.17445, "city": "Semenivka", "images": []}, {"id": 425090, "min_date": "2019-07-29T23:06:00Z", "max_date": "2019-07-30T00:42:00Z", "count_points": 2, "latitude": 49.79954, "longitude": 37.28625, "city": "Shevchenkove", "images": []}, {"id": 425091, "min_date": "2019-07-29T23:06:00Z", "max_date": "2019-08-01T10:38:00Z", "count_points": 4, "latitude": 47.93166, "longitude": 39.74544, "city": "Biryukove", "images": []}, {"id": 425092, "min_date": "2019-07-29T23:06:00Z", "max_date": "2019-08-04T10:36:00Z", "count_points": 7, "latitude": 49.2224, "longitude": 29.67967, "city": "Tetiiv", "images": []}, {"id": 425093, "min_date": "2019-07-29T23:06:00Z", "max_date": "2019-07-30T00:42:00Z", "count_points": 3, "latitude": 48.24285, "longitude": 37.53577, "city": "Avdiyivka", "images": []}, {"id": 425094, "min_date": "2019-07-29T23:06:00Z", "max_date": "2019-08-03T23:12:00Z", "count_points": 7, "latitude": 48.03337, "longitude": 39.67202, "city": "Sverdlovs\u2019k", "images": []}, {"id": 425095, "min_date": "2019-07-29T23:06:00Z", "max_date": "2019-08-01T10:38:00Z", "count_points": 2, "latitude": 47.70034, "longitude": 38.20439, "city": "Kuteynykove", "images": []}, {"id": 425096, "min_date": "2019-07-29T23:06:00Z", "max_date": "2019-07-31T08:12:00Z", "count_points": 2, "latitude": 47.11823, "longitude": 37.48357, "city": "Staryy Krym", "images": []}, {"id": 425097, "min_date": "2019-07-29T23:06:00Z", "max_date": "2019-08-04T09:24:00Z", "count_points": 6, "latitude": 50.41385, "longitude": 28.85107, "city": "Holovyne", "images": []}, {"id": 425098, "min_date": "2019-07-29T23:06:00Z", "max_date": "2019-07-29T23:06:00Z", "count_points": 1, "latitude": 48.1306, "longitude": 36.86249, "city": "Mezhova", "images": []}, {"id": 425099, "min_date": "2019-07-29T23:06:00Z", "max_date": "2019-07-30T00:42:00Z", "count_points": 2, "latitude": 47.32884, "longitude": 37.28782, "city": "Volodars\u2019ke", "images": []}, {"id": 425100, "min_date": "2019-07-29T23:06:00Z", "max_date": "2019-08-01T00:06:00Z", "count_points": 7, "latitude": 46.80593, "longitude": 36.01798, "city": "Novovasylivka", "images": []}, {"id": 425101, "min_date": "2019-07-29T23:06:00Z", "max_date": "2019-07-29T10:08:00Z", "count_points": 4, "latitude": 48.32265, "longitude": 36.9527, "city": "Dobropillya", "images": []}, {"id": 425102, "min_date": "2019-07-29T23:06:00Z", "max_date": "2019-07-29T23:06:00Z", "count_points": 1, "latitude": 48.47239, "longitude": 36.356, "city": "Petropavlivka", "images": []}, {"id": 425103, "min_date": "2019-07-29T23:06:00Z", "max_date": "2019-07-30T00:42:00Z", "count_points": 6, "latitude": 48.35367, "longitude": 36.2279, "city": "Petropavlivka", "images": []}, {"id": 425104, "min_date": "2019-07-29T23:06:00Z", "max_date": "2019-07-29T23:06:00Z", "count_points": 1, "latitude": 48.20544, "longitude": 35.8227, "city": "Vasyl\u2019kivka", "images": []}, {"id": 425105, "min_date": "2019-07-29T23:06:00Z", "max_date": "2019-07-31T00:24:00Z", "count_points": 5, "latitude": 48.29935, "longitude": 35.95729, "city": "Vasyl\u2019kivka", "images": []}, {"id": 425106, "min_date": "2019-07-29T23:06:00Z", "max_date": "2019-07-29T23:06:00Z", "count_points": 1, "latitude": 48.2532, "longitude": 36.23149, "city": "Vasyl\u2019kivka", "images": []}, {"id": 425107, "min_date": "2019-07-29T23:06:00Z", "max_date": "2019-07-29T23:06:00Z", "count_points": 1, "latitude": 47.76018, "longitude": 36.61343, "city": "Velyka Novosilka", "images": []}, {"id": 425108, "min_date": "2019-07-29T23:06:00Z", "max_date": "2019-07-31T10:12:00Z", "count_points": 2, "latitude": 47.77825, "longitude": 37.07053, "city": "Velyka Novosilka", "images": []}, {"id": 425109, "min_date": "2019-07-29T23:06:00Z", "max_date": "2019-07-29T19:33:00Z", "count_points": 9, "latitude": 47.08157, "longitude": 35.04004, "city": "Matviyivka", "images": []}, {"id": 425110, "min_date": "2019-07-29T23:06:00Z", "max_date": "2019-07-30T10:30:00Z", "count_points": 2, "latitude": 47.24462, "longitude": 34.53366, "city": "Velyka Bilozerka", "images": []}, {"id": 425111, "min_date": "2019-07-29T23:06:00Z", "max_date": "2019-07-29T19:33:00Z", "count_points": 3, "latitude": 46.87038, "longitude": 34.60025, "city": "Ivanivka", "images": []}, {"id": 425112, "min_date": "2019-07-29T23:06:00Z", "max_date": "2019-08-03T08:42:00Z", "count_points": 17, "latitude": 46.54526, "longitude": 34.82184, "city": "Partyzany", "images": []}, {"id": 425113, "min_date": "2019-07-29T23:06:00Z", "max_date": "2019-07-31T10:12:00Z", "count_points": 4, "latitude": 47.17671, "longitude": 35.03172, "city": "Tymoshivka", "images": []}, {"id": 425114, "min_date": "2019-07-29T23:06:00Z", "max_date": "2019-07-29T08:24:00Z", "count_points": 13, "latitude": 46.68016, "longitude": 35.7079, "city": "Pryazovs\u2019ke", "images": []}, {"id": 425115, "min_date": "2019-07-29T23:06:00Z", "max_date": "2019-07-29T23:06:00Z", "count_points": 1, "latitude": 48.41632, "longitude": 35.67035, "city": "Synel\u2019nykove", "images": []}, {"id": 425116, "min_date": "2019-07-29T23:06:00Z", "max_date": "2019-07-29T19:33:00Z", "count_points": 3, "latitude": 46.76907, "longitude": 36.18911, "city": "Prymors\u2019k", "images": []}, {"id": 425117, "min_date": "2019-07-29T23:06:00Z", "max_date": "2019-08-01T10:38:00Z", "count_points": 10, "latitude": 47.03245, "longitude": 36.01389, "city": "Chernihivka", "images": []}, {"id": 425118, "min_date": "2019-07-29T23:06:00Z", "max_date": "2019-07-29T23:06:00Z", "count_points": 1, "latitude": 47.37207, "longitude": 36.82493, "city": "Komysh-Zorya", "images": []}, {"id": 425119, "min_date": "2019-07-29T23:06:00Z", "max_date": "2019-07-29T23:06:00Z", "count_points": 1, "latitude": 47.55939, "longitude": 37.15073, "city": "Rozivka", "images": []}, {"id": 425120, "min_date": "2019-07-29T23:06:00Z", "max_date": "2019-07-29T23:06:00Z", "count_points": 1, "latitude": 47.21664, "longitude": 35.86707, "city": "Tokmak", "images": []}, {"id": 425121, "min_date": "2019-07-29T23:06:00Z", "max_date": "2019-07-29T08:24:00Z", "count_points": 5, "latitude": 46.69023, "longitude": 35.57542, "city": "Pryazovs\u2019ke", "images": []}, {"id": 425122, "min_date": "2019-07-29T23:06:00Z", "max_date": "2019-08-01T23:48:00Z", "count_points": 12, "latitude": 47.13539, "longitude": 36.75664, "city": "Komysh-Zorya", "images": []}, {"id": 425123, "min_date": "2019-07-29T23:06:00Z", "max_date": "2019-07-29T23:06:00Z", "count_points": 1, "latitude": 47.18271, "longitude": 36.69987, "city": "Komysh-Zorya", "images": []}, {"id": 425124, "min_date": "2019-07-29T23:06:00Z", "max_date": "2019-07-30T10:30:00Z", "count_points": 5, "latitude": 45.42776, "longitude": 36.33543, "city": "Bagerovo", "images": []}, {"id": 425125, "min_date": "2019-07-29T23:06:00Z", "max_date": "2019-07-29T23:06:00Z", "count_points": 1, "latitude": 47.24232, "longitude": 35.2537, "city": "Mykhaylivka", "images": []}, {"id": 425126, "min_date": "2019-07-29T23:06:00Z", "max_date": "2019-07-29T23:06:00Z", "count_points": 2, "latitude": 46.73566, "longitude": 35.48939, "city": "Kostyantynivka", "images": []}, {"id": 425127, "min_date": "2019-07-29T23:06:00Z", "max_date": "2019-07-29T23:06:00Z", "count_points": 3, "latitude": 47.32124, "longitude": 35.39419, "city": "Pryshyb", "images": []}, {"id": 425128, "min_date": "2019-07-29T23:06:00Z", "max_date": "2019-07-29T23:06:00Z", "count_points": 1, "latitude": 47.16443, "longitude": 35.17828, "city": "Tymoshivka", "images": []}, {"id": 425129, "min_date": "2019-07-29T23:06:00Z", "max_date": "2019-08-01T11:36:00Z", "count_points": 4, "latitude": 47.18312, "longitude": 35.54594, "city": "Tokmak", "images": []}, {"id": 425130, "min_date": "2019-07-29T23:06:00Z", "max_date": "2019-07-30T00:42:00Z", "count_points": 3, "latitude": 49.59142, "longitude": 37.92944, "city": "Kivsharivka", "images": []}, {"id": 425131, "min_date": "2019-07-29T23:06:00Z", "max_date": "2019-07-30T09:06:00Z", "count_points": 15, "latitude": 49.04178, "longitude": 37.9653, "city": "Krasnyy Lyman", "images": []}, {"id": 425132, "min_date": "2019-07-29T23:06:00Z", "max_date": "2019-07-30T08:48:00Z", "count_points": 5, "latitude": 48.76973, "longitude": 38.1867, "city": "Soledar", "images": []}, {"id": 425133, "min_date": "2019-07-29T23:06:00Z", "max_date": "2019-07-30T10:30:00Z", "count_points": 3, "latitude": 49.09186, "longitude": 38.05279, "city": "Kreminna", "images": []}, {"id": 425134, "min_date": "2019-07-29T23:06:00Z", "max_date": "2019-07-30T09:07:00Z", "count_points": 8, "latitude": 48.04713, "longitude": 34.86528, "city": "Solone", "images": []}, {"id": 425135, "min_date": "2019-07-29T23:06:00Z", "max_date": "2019-07-29T23:06:00Z", "count_points": 1, "latitude": 47.23974, "longitude": 34.94589, "city": "Mala Bilozerka", "images": []}, {"id": 425136, "min_date": "2019-07-29T23:06:00Z", "max_date": "2019-07-29T23:06:00Z", "count_points": 1, "latitude": 46.34406, "longitude": 34.36807, "city": "Novotroyits\u2019ke", "images": []}, {"id": 425137, "min_date": "2019-07-29T23:06:00Z", "max_date": "2019-07-29T23:06:00Z", "count_points": 1, "latitude": 47.99174, "longitude": 34.40889, "city": "Novopokrovka", "images": []}, {"id": 425138, "min_date": "2019-07-29T23:06:00Z", "max_date": "2019-07-29T23:06:00Z", "count_points": 1, "latitude": 46.63285, "longitude": 31.77874, "city": "Parutyne", "images": []}, {"id": 425139, "min_date": "2019-07-29T23:06:00Z", "max_date": "2019-07-30T10:30:00Z", "count_points": 7, "latitude": 47.48252, "longitude": 36.46079, "city": "Chapayevka", "images": []}, {"id": 425140, "min_date": "2019-07-29T23:06:00Z", "max_date": "2019-07-29T23:06:00Z", "count_points": 1, "latitude": 47.43472, "longitude": 36.40242, "city": "Chapayevka", "images": []}, {"id": 425141, "min_date": "2019-07-29T23:06:00Z", "max_date": "2019-07-29T23:06:00Z", "count_points": 1, "latitude": 46.50558, "longitude": 30.37022, "city": "Teplodar", "images": []}, {"id": 425142, "min_date": "2019-07-30T00:42:00Z", "max_date": "2019-07-30T00:42:00Z", "count_points": 1, "latitude": 49.89746, "longitude": 35.26579, "city": "Kolomak", "images": []}, {"id": 425143, "min_date": "2019-07-30T00:42:00Z", "max_date": "2019-08-02T11:18:00Z", "count_points": 4, "latitude": 49.68964, "longitude": 28.36123, "city": "Ulaniv", "images": []}, {"id": 425144, "min_date": "2019-07-30T00:42:00Z", "max_date": "2019-07-31T19:21:00Z", "count_points": 5, "latitude": 49.64085, "longitude": 28.14999, "city": "Ulaniv", "images": []}, {"id": 425145, "min_date": "2019-07-30T00:42:00Z", "max_date": "2019-07-30T00:42:00Z", "count_points": 1, "latitude": 48.80547, "longitude": 37.29478, "city": "Krasnotorka", "images": []}, {"id": 425146, "min_date": "2019-07-30T00:42:00Z", "max_date": "2019-07-30T00:42:00Z", "count_points": 1, "latitude": 48.7296, "longitude": 36.51607, "city": "Blyznyuky", "images": []}, {"id": 425147, "min_date": "2019-07-30T00:42:00Z", "max_date": "2019-07-30T00:42:00Z", "count_points": 1, "latitude": 49.53397, "longitude": 37.06998, "city": "Savyntsi", "images": []}, {"id": 425148, "min_date": "2019-07-30T00:42:00Z", "max_date": "2019-07-30T00:42:00Z", "count_points": 1, "latitude": 49.27658, "longitude": 36.30679, "city": "Krasnopavlivka", "images": []}, {"id": 425149, "min_date": "2019-07-30T00:42:00Z", "max_date": "2019-07-30T00:42:00Z", "count_points": 2, "latitude": 47.41584, "longitude": 37.0704, "city": "Rozivka", "images": []}, {"id": 425150, "min_date": "2019-07-30T00:42:00Z", "max_date": "2019-07-30T00:42:00Z", "count_points": 1, "latitude": 50.44803, "longitude": 26.05307, "city": "Mizoch", "images": []}, {"id": 425151, "min_date": "2019-07-30T00:42:00Z", "max_date": "2019-07-30T00:42:00Z", "count_points": 1, "latitude": 49.61312, "longitude": 34.74332, "city": "Poltava", "images": []}, {"id": 425152, "min_date": "2019-07-30T00:42:00Z", "max_date": "2019-07-30T00:42:00Z", "count_points": 1, "latitude": 47.2286, "longitude": 36.5718, "city": "Kuybysheve", "images": []}, {"id": 425153, "min_date": "2019-07-30T00:42:00Z", "max_date": "2019-07-30T00:42:00Z", "count_points": 1, "latitude": 49.7272, "longitude": 33.75605, "city": "Velyka Bahachka", "images": []}, {"id": 425154, "min_date": "2019-07-30T08:48:00Z", "max_date": "2019-07-30T08:48:00Z", "count_points": 1, "latitude": 49.02988, "longitude": 38.7668, "city": "Novoaydar", "images": []}, {"id": 425155, "min_date": "2019-07-30T08:48:00Z", "max_date": "2019-07-30T08:48:00Z", "count_points": 1, "latitude": 49.24786, "longitude": 38.15342, "city": "Svatove", "images": []}, {"id": 425156, "min_date": "2019-07-30T08:48:00Z", "max_date": "2019-07-30T09:06:00Z", "count_points": 7, "latitude": 49.03824, "longitude": 38.81407, "city": "Novoaydar", "images": []}, {"id": 425157, "min_date": "2019-07-30T08:48:00Z", "max_date": "2019-07-30T08:48:00Z", "count_points": 1, "latitude": 48.77084, "longitude": 38.24454, "city": "Bilohorivka", "images": []}, {"id": 425158, "min_date": "2019-07-30T08:48:00Z", "max_date": "2019-07-30T08:48:00Z", "count_points": 3, "latitude": 49.09881, "longitude": 37.89885, "city": "Krasnyy Lyman", "images": []}, {"id": 425159, "min_date": "2019-07-30T08:48:00Z", "max_date": "2019-07-30T08:48:00Z", "count_points": 1, "latitude": 49.00718, "longitude": 38.78565, "city": "Novoaydar", "images": []}, {"id": 425160, "min_date": "2019-07-30T08:48:00Z", "max_date": "2019-07-30T08:48:00Z", "count_points": 1, "latitude": 48.58715, "longitude": 38.16729, "city": "Soledar", "images": []}, {"id": 425161, "min_date": "2019-07-30T08:48:00Z", "max_date": "2019-07-30T09:06:00Z", "count_points": 3, "latitude": 49.17333, "longitude": 37.64266, "city": "Svyatogorsk", "images": []}, {"id": 425162, "min_date": "2019-07-30T08:48:00Z", "max_date": "2019-07-30T10:30:00Z", "count_points": 2, "latitude": 49.13061, "longitude": 35.76342, "city": "Sakhnovshchyna", "images": []}, {"id": 425163, "min_date": "2019-07-30T08:48:00Z", "max_date": "2019-07-30T10:30:00Z", "count_points": 5, "latitude": 49.09049, "longitude": 36.84991, "city": "Petrivs\u2019ke", "images": []}, {"id": 425164, "min_date": "2019-07-30T08:48:00Z", "max_date": "2019-07-30T08:48:00Z", "count_points": 2, "latitude": 48.55218, "longitude": 36.16795, "city": "Yur\u201dyivka", "images": []}, {"id": 425165, "min_date": "2019-07-30T08:48:00Z", "max_date": "2019-07-30T09:06:00Z", "count_points": 11, "latitude": 49.6209, "longitude": 36.10485, "city": "Utkivka", "images": []}, {"id": 425166, "min_date": "2019-07-30T08:48:00Z", "max_date": "2019-07-30T10:30:00Z", "count_points": 2, "latitude": 49.84813, "longitude": 37.29311, "city": "Shevchenkove", "images": []}, {"id": 425167, "min_date": "2019-07-30T08:48:00Z", "max_date": "2019-07-29T19:33:00Z", "count_points": 7, "latitude": 49.33283, "longitude": 36.57511, "city": "Komsomol\u2019s\u2019ke", "images": []}, {"id": 425168, "min_date": "2019-07-30T08:48:00Z", "max_date": "2019-07-30T08:54:00Z", "count_points": 6, "latitude": 50.1051, "longitude": 37.48069, "city": "Velykyy Burluk", "images": []}, {"id": 425169, "min_date": "2019-07-30T08:48:00Z", "max_date": "2019-07-30T09:06:00Z", "count_points": 6, "latitude": 49.39106, "longitude": 36.14007, "city": "Pervomays\u2019kyy", "images": []}, {"id": 425170, "min_date": "2019-07-30T08:48:00Z", "max_date": "2019-07-29T19:33:00Z", "count_points": 4, "latitude": 49.43974, "longitude": 36.03997, "city": "Pervomays\u2019kyy", "images": []}, {"id": 425171, "min_date": "2019-07-30T08:48:00Z", "max_date": "2019-07-30T08:48:00Z", "count_points": 2, "latitude": 49.1323, "longitude": 38.94943, "city": "Starobil\u2019s\u2019k", "images": []}, {"id": 425172, "min_date": "2019-07-30T08:48:00Z", "max_date": "2019-07-30T09:13:00Z", "count_points": 6, "latitude": 49.0256, "longitude": 39.11519, "city": "Novoaydar", "images": []}, {"id": 425173, "min_date": "2019-07-30T08:48:00Z", "max_date": "2019-07-30T08:48:00Z", "count_points": 3, "latitude": 47.98537, "longitude": 36.99238, "city": "Velyka Novosilka", "images": []}, {"id": 425174, "min_date": "2019-07-30T08:48:00Z", "max_date": "2019-07-30T10:30:00Z", "count_points": 5, "latitude": 47.75053, "longitude": 37.18075, "city": "Blahodatne", "images": []}, {"id": 425175, "min_date": "2019-07-30T08:48:00Z", "max_date": "2019-07-31T10:12:00Z", "count_points": 4, "latitude": 47.90631, "longitude": 37.31006, "city": "Kurakhovo", "images": []}, {"id": 425176, "min_date": "2019-07-30T08:48:00Z", "max_date": "2019-07-30T08:48:00Z", "count_points": 1, "latitude": 49.72563, "longitude": 37.70603, "city": "Kupjansk", "images": []}, {"id": 425177, "min_date": "2019-07-30T08:48:00Z", "max_date": "2019-07-30T10:51:00Z", "count_points": 8, "latitude": 49.07364, "longitude": 37.80005, "city": "Krasnyy Lyman", "images": []}, {"id": 425178, "min_date": "2019-07-30T08:48:00Z", "max_date": "2019-07-30T08:48:00Z", "count_points": 1, "latitude": 48.7588, "longitude": 35.63582, "city": "Melioratyvne", "images": []}, {"id": 425179, "min_date": "2019-07-30T08:54:00Z", "max_date": "2019-07-30T09:06:00Z", "count_points": 6, "latitude": 50.14233, "longitude": 35.72194, "city": "Staryy Merchyk", "images": []}, {"id": 425180, "min_date": "2019-07-30T10:30:00Z", "max_date": "2019-08-01T09:54:00Z", "count_points": 2, "latitude": 47.69927, "longitude": 38.36468, "city": "Kuteynykove", "images": []}, {"id": 425181, "min_date": "2019-07-30T10:30:00Z", "max_date": "2019-08-01T10:39:00Z", "count_points": 8, "latitude": 48.52051, "longitude": 33.32563, "city": "Novyy Starodub", "images": []}, {"id": 425182, "min_date": "2019-07-30T10:30:00Z", "max_date": "2019-07-30T10:30:00Z", "count_points": 4, "latitude": 48.54107, "longitude": 37.50909, "city": "Druzhkivka", "images": []}, {"id": 425183, "min_date": "2019-07-30T10:30:00Z", "max_date": "2019-07-30T10:30:00Z", "count_points": 1, "latitude": 51.82675, "longitude": 32.51929, "city": "Kholmy", "images": []}, {"id": 425184, "min_date": "2019-07-30T10:30:00Z", "max_date": "2019-07-30T10:30:00Z", "count_points": 1, "latitude": 49.5102, "longitude": 39.77937, "city": "Markivka", "images": []}, {"id": 425185, "min_date": "2019-07-30T10:30:00Z", "max_date": "2019-07-30T10:30:00Z", "count_points": 3, "latitude": 48.6198, "longitude": 36.42204, "city": "Petropavlivka", "images": []}, {"id": 425186, "min_date": "2019-07-30T10:30:00Z", "max_date": "2019-07-30T10:30:00Z", "count_points": 4, "latitude": 48.78645, "longitude": 35.44629, "city": "Melioratyvne", "images": []}, {"id": 425187, "min_date": "2019-07-30T10:30:00Z", "max_date": "2019-07-30T10:30:00Z", "count_points": 2, "latitude": 49.51378, "longitude": 23.62007, "city": "Komarno", "images": []}, {"id": 425188, "min_date": "2019-07-30T10:30:00Z", "max_date": "2019-07-30T09:07:00Z", "count_points": 10, "latitude": 46.72962, "longitude": 35.59887, "city": "Pryazovs\u2019ke", "images": []}, {"id": 425189, "min_date": "2019-07-30T10:30:00Z", "max_date": "2019-07-30T09:07:00Z", "count_points": 2, "latitude": 48.00488, "longitude": 29.40622, "city": "Slobidka", "images": []}, {"id": 425190, "min_date": "2019-07-30T10:30:00Z", "max_date": "2019-07-30T10:30:00Z", "count_points": 1, "latitude": 47.61813, "longitude": 36.38706, "city": "Hulyaypole", "images": []}, {"id": 425191, "min_date": "2019-07-30T10:30:00Z", "max_date": "2019-07-30T10:30:00Z", "count_points": 1, "latitude": 49.74954, "longitude": 33.54313, "city": "Velyka Bahachka", "images": []}, {"id": 425192, "min_date": "2019-07-30T10:30:00Z", "max_date": "2019-07-30T10:51:00Z", "count_points": 13, "latitude": 48.48701, "longitude": 29.1088, "city": "Tsybulevka", "images": []}, {"id": 425193, "min_date": "2019-07-30T10:30:00Z", "max_date": "2019-07-30T10:30:00Z", "count_points": 1, "latitude": 49.58101, "longitude": 25.62754, "city": "Ternopil", "images": []}, {"id": 425194, "min_date": "2019-07-30T10:30:00Z", "max_date": "2019-07-31T11:54:00Z", "count_points": 5, "latitude": 47.87303, "longitude": 29.63418, "city": "Balta", "images": []}, {"id": 425195, "min_date": "2019-07-30T10:30:00Z", "max_date": "2019-07-30T10:30:00Z", "count_points": 2, "latitude": 48.872, "longitude": 36.3636, "city": "Lozova", "images": []}, {"id": 425196, "min_date": "2019-07-30T10:30:00Z", "max_date": "2019-08-01T08:54:00Z", "count_points": 3, "latitude": 48.63443, "longitude": 28.98254, "city": "Tulchyn", "images": []}, {"id": 425197, "min_date": "2019-07-30T10:30:00Z", "max_date": "2019-07-30T10:30:00Z", "count_points": 1, "latitude": 48.986, "longitude": 37.43653, "city": "Studenok", "images": []}, {"id": 425198, "min_date": "2019-07-30T10:30:00Z", "max_date": "2019-07-30T10:51:00Z", "count_points": 3, "latitude": 48.58995, "longitude": 28.91406, "city": "Tulchyn", "images": []}, {"id": 425199, "min_date": "2019-07-30T10:30:00Z", "max_date": "2019-07-30T10:30:00Z", "count_points": 3, "latitude": 48.61079, "longitude": 28.68163, "city": "Vapnyarka", "images": []}, {"id": 425200, "min_date": "2019-07-30T10:30:00Z", "max_date": "2019-07-30T10:30:00Z", "count_points": 1, "latitude": 48.67939, "longitude": 37.21299, "city": "Novodonets\u2019ke", "images": []}, {"id": 425201, "min_date": "2019-07-30T10:30:00Z", "max_date": "2019-07-30T10:30:00Z", "count_points": 1, "latitude": 49.37206, "longitude": 28.88244, "city": "Turbiv", "images": []}, {"id": 425202, "min_date": "2019-07-30T10:30:00Z", "max_date": "2019-07-30T10:30:00Z", "count_points": 1, "latitude": 48.62569, "longitude": 36.59904, "city": "Petropavlivka", "images": []}, {"id": 425203, "min_date": "2019-07-30T10:30:00Z", "max_date": "2019-07-30T10:51:00Z", "count_points": 2, "latitude": 48.67082, "longitude": 29.80698, "city": "Teplyk", "images": []}, {"id": 425204, "min_date": "2019-07-30T10:30:00Z", "max_date": "2019-07-30T10:30:00Z", "count_points": 1, "latitude": 49.02706, "longitude": 36.08917, "city": "Panyutyne", "images": []}, {"id": 425205, "min_date": "2019-07-30T10:30:00Z", "max_date": "2019-07-30T09:07:00Z", "count_points": 2, "latitude": 48.65862, "longitude": 28.56219, "city": "Tomashpil\u2019", "images": []}, {"id": 425206, "min_date": "2019-07-30T10:30:00Z", "max_date": "2019-07-30T10:30:00Z", "count_points": 1, "latitude": 49.20402, "longitude": 39.45306, "city": "Bilovodsk", "images": []}, {"id": 425207, "min_date": "2019-07-30T10:30:00Z", "max_date": "2019-07-30T10:30:00Z", "count_points": 2, "latitude": 48.83493, "longitude": 35.72816, "city": "Yur\u201dyivka", "images": []}, {"id": 425208, "min_date": "2019-07-30T10:30:00Z", "max_date": "2019-07-30T10:30:00Z", "count_points": 2, "latitude": 49.16767, "longitude": 36.93957, "city": "Petrivs\u2019ke", "images": []}, {"id": 425209, "min_date": "2019-07-30T10:30:00Z", "max_date": "2019-07-30T10:30:00Z", "count_points": 1, "latitude": 49.1149, "longitude": 36.94101, "city": "Petrivs\u2019ke", "images": []}, {"id": 425210, "min_date": "2019-07-30T10:30:00Z", "max_date": "2019-07-30T10:30:00Z", "count_points": 4, "latitude": 47.531, "longitude": 37.62825, "city": "Volnovakha", "images": []}, {"id": 425211, "min_date": "2019-07-30T10:30:00Z", "max_date": "2019-08-01T09:54:00Z", "count_points": 3, "latitude": 47.85162, "longitude": 37.58929, "city": "Mareyka", "images": []}, {"id": 425212, "min_date": "2019-07-30T10:30:00Z", "max_date": "2019-07-30T10:30:00Z", "count_points": 1, "latitude": 48.9375, "longitude": 31.55209, "city": "Lebedyn", "images": []}, {"id": 425213, "min_date": "2019-07-30T10:30:00Z", "max_date": "2019-07-30T10:30:00Z", "count_points": 2, "latitude": 49.44024, "longitude": 36.96062, "city": "Savyntsi", "images": []}, {"id": 425214, "min_date": "2019-07-30T10:30:00Z", "max_date": "2019-07-30T10:30:00Z", "count_points": 4, "latitude": 48.67234, "longitude": 30.14065, "city": "Uman\u2019", "images": []}, {"id": 425215, "min_date": "2019-07-30T10:30:00Z", "max_date": "2019-07-30T09:07:00Z", "count_points": 3, "latitude": 48.62876, "longitude": 28.75391, "city": "Vapnyarka", "images": []}, {"id": 425216, "min_date": "2019-07-30T10:30:00Z", "max_date": "2019-07-30T10:30:00Z", "count_points": 4, "latitude": 48.6587, "longitude": 28.71455, "city": "Vapnyarka", "images": []}, {"id": 425217, "min_date": "2019-07-30T10:30:00Z", "max_date": "2019-07-30T10:30:00Z", "count_points": 1, "latitude": 49.70216, "longitude": 32.22117, "city": "Chornobay", "images": []}, {"id": 425218, "min_date": "2019-07-30T10:30:00Z", "max_date": "2019-07-30T10:30:00Z", "count_points": 1, "latitude": 48.66269, "longitude": 37.06716, "city": "Novodonets\u2019ke", "images": []}, {"id": 425219, "min_date": "2019-07-30T10:30:00Z", "max_date": "2019-07-30T10:30:00Z", "count_points": 1, "latitude": 48.81911, "longitude": 36.03885, "city": "Yur\u201dyivka", "images": []}, {"id": 425220, "min_date": "2019-07-30T10:30:00Z", "max_date": "2019-07-30T10:30:00Z", "count_points": 1, "latitude": 49.60673, "longitude": 37.22136, "city": "Shevchenkove", "images": []}, {"id": 425221, "min_date": "2019-07-30T10:30:00Z", "max_date": "2019-07-30T10:30:00Z", "count_points": 1, "latitude": 48.77502, "longitude": 31.65462, "city": "Novomyrhorod", "images": []}, {"id": 425222, "min_date": "2019-07-30T10:30:00Z", "max_date": "2019-07-30T10:30:00Z", "count_points": 2, "latitude": 49.7855, "longitude": 28.44689, "city": "Berdychiv", "images": []}, {"id": 425223, "min_date": "2019-07-30T10:30:00Z", "max_date": "2019-07-30T10:30:00Z", "count_points": 3, "latitude": 47.89441, "longitude": 35.68581, "city": "Komyshuvakha", "images": []}, {"id": 425224, "min_date": "2019-07-30T10:30:00Z", "max_date": "2019-07-30T10:30:00Z", "count_points": 1, "latitude": 48.5982, "longitude": 27.94356, "city": "Vendychany", "images": []}, {"id": 425225, "min_date": "2019-07-30T10:30:00Z", "max_date": "2019-07-30T10:30:00Z", "count_points": 1, "latitude": 47.80915, "longitude": 30.73645, "city": "Vradiyivka", "images": []}, {"id": 425226, "min_date": "2019-07-30T10:30:00Z", "max_date": "2019-07-30T10:30:00Z", "count_points": 1, "latitude": 48.93444, "longitude": 28.26129, "city": "Zhmerynka", "images": []}, {"id": 425227, "min_date": "2019-07-30T10:30:00Z", "max_date": "2019-07-30T10:30:00Z", "count_points": 1, "latitude": 48.5537, "longitude": 28.14448, "city": "Chernivtsi", "images": []}, {"id": 425228, "min_date": "2019-07-30T10:30:00Z", "max_date": "2019-07-30T10:51:00Z", "count_points": 4, "latitude": 49.65555, "longitude": 28.43999, "city": "Pavlovka", "images": []}, {"id": 425229, "min_date": "2019-07-30T10:30:00Z", "max_date": "2019-07-29T08:24:00Z", "count_points": 2, "latitude": 47.51606, "longitude": 36.7808, "city": "Kuybysheve", "images": []}, {"id": 425230, "min_date": "2019-07-30T10:30:00Z", "max_date": "2019-07-30T10:51:00Z", "count_points": 15, "latitude": 47.61945, "longitude": 29.82618, "city": "Ananyiv Pershyi", "images": []}, {"id": 425231, "min_date": "2019-07-30T10:30:00Z", "max_date": "2019-07-30T10:50:00Z", "count_points": 5, "latitude": 45.68175, "longitude": 34.46793, "city": "Pobednoye", "images": []}, {"id": 425232, "min_date": "2019-07-30T10:30:00Z", "max_date": "2019-07-30T10:30:00Z", "count_points": 1, "latitude": 47.52705, "longitude": 30.66935, "city": "Mykolayivka", "images": []}, {"id": 425233, "min_date": "2019-07-30T10:30:00Z", "max_date": "2019-07-30T10:30:00Z", "count_points": 1, "latitude": 47.63515, "longitude": 30.71592, "city": "Mykolayivka", "images": []}, {"id": 425234, "min_date": "2019-07-30T10:30:00Z", "max_date": "2019-07-30T09:07:00Z", "count_points": 2, "latitude": 46.92858, "longitude": 35.19464, "city": "Matviyivka", "images": []}, {"id": 425235, "min_date": "2019-07-30T10:30:00Z", "max_date": "2019-07-30T10:30:00Z", "count_points": 1, "latitude": 50.1698, "longitude": 31.88919, "city": "Chernyakhivka", "images": []}, {"id": 425236, "min_date": "2019-07-30T10:30:00Z", "max_date": "2019-07-30T10:30:00Z", "count_points": 2, "latitude": 46.76002, "longitude": 35.24661, "city": "Yakymivka", "images": []}, {"id": 425237, "min_date": "2019-07-30T10:30:00Z", "max_date": "2019-07-30T10:30:00Z", "count_points": 1, "latitude": 48.90237, "longitude": 35.27862, "city": "Hubynykha", "images": []}, {"id": 425238, "min_date": "2019-07-30T10:30:00Z", "max_date": "2019-07-30T10:30:00Z", "count_points": 2, "latitude": 49.30163, "longitude": 35.65057, "city": "Kehychivka", "images": []}, {"id": 425239, "min_date": "2019-07-30T10:30:00Z", "max_date": "2019-07-30T10:30:00Z", "count_points": 1, "latitude": 48.69314, "longitude": 28.30951, "city": "Sharhorod", "images": []}, {"id": 425240, "min_date": "2019-07-30T10:30:00Z", "max_date": "2019-07-30T10:30:00Z", "count_points": 1, "latitude": 49.29153, "longitude": 38.09133, "city": "Svatove", "images": []}, {"id": 425241, "min_date": "2019-07-30T10:30:00Z", "max_date": "2019-07-31T08:12:00Z", "count_points": 7, "latitude": 47.51651, "longitude": 35.51268, "city": "Komyshuvakha", "images": []}, {"id": 425242, "min_date": "2019-07-30T10:30:00Z", "max_date": "2019-08-01T10:38:00Z", "count_points": 4, "latitude": 47.17095, "longitude": 34.51237, "city": "Verkhniy Rohachyk", "images": []}, {"id": 425243, "min_date": "2019-07-30T10:30:00Z", "max_date": "2019-07-30T10:30:00Z", "count_points": 1, "latitude": 45.60066, "longitude": 28.56857, "city": "Vynohradivka", "images": []}, {"id": 425244, "min_date": "2019-07-30T10:30:00Z", "max_date": "2019-07-30T10:30:00Z", "count_points": 1, "latitude": 46.52599, "longitude": 34.87237, "city": "Partyzany", "images": []}, {"id": 425245, "min_date": "2019-07-30T10:30:00Z", "max_date": "2019-07-30T09:07:00Z", "count_points": 4, "latitude": 45.68445, "longitude": 28.78373, "city": "Kalcheva", "images": []}, {"id": 425246, "min_date": "2019-07-30T10:30:00Z", "max_date": "2019-07-31T10:12:00Z", "count_points": 3, "latitude": 47.13905, "longitude": 35.00972, "city": "Tymoshivka", "images": []}, {"id": 425247, "min_date": "2019-07-30T10:30:00Z", "max_date": "2019-07-30T10:30:00Z", "count_points": 1, "latitude": 47.38453, "longitude": 34.73712, "city": "Velyka Bilozerka", "images": []}, {"id": 425248, "min_date": "2019-07-30T10:30:00Z", "max_date": "2019-07-30T10:30:00Z", "count_points": 1, "latitude": 46.25152, "longitude": 28.96643, "city": "Serpneve", "images": []}, {"id": 425249, "min_date": "2019-07-30T10:30:00Z", "max_date": "2019-07-30T10:30:00Z", "count_points": 1, "latitude": 48.17008, "longitude": 33.34099, "city": "Lozuvatka", "images": []}, {"id": 425250, "min_date": "2019-07-30T10:30:00Z", "max_date": "2019-07-30T10:30:00Z", "count_points": 1, "latitude": 45.42893, "longitude": 34.9209, "city": "Nekrasovka", "images": []}, {"id": 425251, "min_date": "2019-07-30T10:30:00Z", "max_date": "2019-07-30T10:30:00Z", "count_points": 1, "latitude": 48.67388, "longitude": 38.69612, "city": "Frunze", "images": []}, {"id": 425252, "min_date": "2019-07-30T10:30:00Z", "max_date": "2019-07-30T10:30:00Z", "count_points": 1, "latitude": 49.4673, "longitude": 38.78721, "city": "Bilokurakyne", "images": []}, {"id": 425253, "min_date": "2019-07-30T10:30:00Z", "max_date": "2019-07-30T10:51:00Z", "count_points": 5, "latitude": 49.07467, "longitude": 38.84778, "city": "Novoaydar", "images": []}, {"id": 425254, "min_date": "2019-07-30T10:30:00Z", "max_date": "2019-07-30T09:06:00Z", "count_points": 2, "latitude": 49.14294, "longitude": 38.41157, "city": "Rubizhne", "images": []}, {"id": 425255, "min_date": "2019-07-30T10:30:00Z", "max_date": "2019-07-30T10:30:00Z", "count_points": 1, "latitude": 49.90965, "longitude": 34.15406, "city": "Shyshaky", "images": []}, {"id": 425256, "min_date": "2019-07-30T10:30:00Z", "max_date": "2019-07-30T10:30:00Z", "count_points": 1, "latitude": 48.97784, "longitude": 26.64666, "city": "Makiv", "images": []}, {"id": 425257, "min_date": "2019-07-30T10:30:00Z", "max_date": "2019-07-30T10:30:00Z", "count_points": 1, "latitude": 49.06121, "longitude": 26.60485, "city": "Horodok", "images": []}, {"id": 425258, "min_date": "2019-07-30T10:30:00Z", "max_date": "2019-07-30T10:30:00Z", "count_points": 1, "latitude": 48.80853, "longitude": 26.28154, "city": "Skala-Podil\u2019s\u2019ka", "images": []}, {"id": 425259, "min_date": "2019-07-30T10:30:00Z", "max_date": "2019-07-30T10:51:00Z", "count_points": 9, "latitude": 48.93491, "longitude": 26.60531, "city": "Makiv", "images": []}, {"id": 425260, "min_date": "2019-07-30T10:30:00Z", "max_date": "2019-07-30T10:51:00Z", "count_points": 3, "latitude": 48.68986, "longitude": 25.07987, "city": "Obertyn", "images": []}, {"id": 425261, "min_date": "2019-07-30T10:30:00Z", "max_date": "2019-07-31T10:12:00Z", "count_points": 2, "latitude": 49.59935, "longitude": 35.13996, "city": "Varvarivka", "images": []}, {"id": 425262, "min_date": "2019-07-30T10:30:00Z", "max_date": "2019-07-30T10:30:00Z", "count_points": 2, "latitude": 48.8475, "longitude": 26.74799, "city": "Makiv", "images": []}, {"id": 425263, "min_date": "2019-07-30T10:30:00Z", "max_date": "2019-07-30T10:30:00Z", "count_points": 2, "latitude": 47.00533, "longitude": 32.29389, "city": "Shevchenkove", "images": []}, {"id": 425264, "min_date": "2019-07-30T10:30:00Z", "max_date": "2019-07-30T10:30:00Z", "count_points": 1, "latitude": 46.74121, "longitude": 31.97876, "city": "Parutyne", "images": []}, {"id": 425265, "min_date": "2019-07-30T10:30:00Z", "max_date": "2019-07-30T12:12:00Z", "count_points": 2, "latitude": 48.87275, "longitude": 26.01732, "city": "Borshchiv", "images": []}, {"id": 425266, "min_date": "2019-07-30T10:30:00Z", "max_date": "2019-07-30T09:07:00Z", "count_points": 8, "latitude": 46.95168, "longitude": 32.42648, "city": "Shevchenkove", "images": []}, {"id": 425267, "min_date": "2019-07-30T10:30:00Z", "max_date": "2019-07-30T10:30:00Z", "count_points": 3, "latitude": 50.49779, "longitude": 35.34523, "city": "Mezenivka", "images": []}, {"id": 425268, "min_date": "2019-07-30T10:30:00Z", "max_date": "2019-07-30T10:30:00Z", "count_points": 1, "latitude": 47.2315, "longitude": 32.59958, "city": "Bashtanka", "images": []}, {"id": 425269, "min_date": "2019-07-30T10:30:00Z", "max_date": "2019-07-30T10:30:00Z", "count_points": 1, "latitude": 46.64525, "longitude": 32.46599, "city": "Bilozerka", "images": []}, {"id": 425270, "min_date": "2019-07-30T10:30:00Z", "max_date": "2019-07-30T10:30:00Z", "count_points": 4, "latitude": 47.53595, "longitude": 30.21726, "city": "Shyryayeve", "images": []}, {"id": 425271, "min_date": "2019-07-30T10:30:00Z", "max_date": "2019-07-30T10:30:00Z", "count_points": 1, "latitude": 47.33356, "longitude": 30.93999, "city": "Berezivka", "images": []}, {"id": 425272, "min_date": "2019-07-30T10:30:00Z", "max_date": "2019-07-30T10:30:00Z", "count_points": 2, "latitude": 50.91459, "longitude": 31.55955, "city": "Nosivka", "images": []}, {"id": 425273, "min_date": "2019-07-30T10:30:00Z", "max_date": "2019-07-30T10:30:00Z", "count_points": 1, "latitude": 49.31, "longitude": 34.03248, "city": "Lutovynivka", "images": []}, {"id": 425274, "min_date": "2019-07-30T10:30:00Z", "max_date": "2019-07-30T10:30:00Z", "count_points": 1, "latitude": 49.40935, "longitude": 35.31145, "city": "Krasnohrad", "images": []}, {"id": 425275, "min_date": "2019-07-30T10:30:00Z", "max_date": "2019-07-30T10:30:00Z", "count_points": 4, "latitude": 49.04734, "longitude": 39.37507, "city": "Bilovodsk", "images": []}, {"id": 425276, "min_date": "2019-07-30T10:30:00Z", "max_date": "2019-07-30T10:30:00Z", "count_points": 1, "latitude": 51.05082, "longitude": 33.99627, "city": "Terny", "images": []}, {"id": 425277, "min_date": "2019-07-30T10:30:00Z", "max_date": "2019-07-30T10:30:00Z", "count_points": 1, "latitude": 50.37116, "longitude": 31.68857, "city": "Yahotyn", "images": []}, {"id": 425278, "min_date": "2019-07-30T10:30:00Z", "max_date": "2019-07-30T10:52:00Z", "count_points": 4, "latitude": 50.79461, "longitude": 31.75765, "city": "Nosivka", "images": []}, {"id": 425279, "min_date": "2019-07-30T10:30:00Z", "max_date": "2019-07-30T10:30:00Z", "count_points": 2, "latitude": 50.03547, "longitude": 36.87873, "city": "Staryy Saltiv", "images": []}, {"id": 425280, "min_date": "2019-07-30T10:30:00Z", "max_date": "2019-07-30T10:30:00Z", "count_points": 2, "latitude": 50.23841, "longitude": 37.28724, "city": "Prykolotne", "images": []}, {"id": 425281, "min_date": "2019-07-30T10:30:00Z", "max_date": "2019-07-30T10:30:00Z", "count_points": 1, "latitude": 47.00618, "longitude": 33.75171, "city": "Hornostayivka", "images": []}, {"id": 425282, "min_date": "2019-07-30T10:30:00Z", "max_date": "2019-07-30T09:07:00Z", "count_points": 8, "latitude": 48.69053, "longitude": 26.73789, "city": "Makiv", "images": []}, {"id": 425283, "min_date": "2019-07-30T10:30:00Z", "max_date": "2019-07-30T10:30:00Z", "count_points": 2, "latitude": 47.81641, "longitude": 33.98569, "city": "Sholokhove", "images": []}, {"id": 425284, "min_date": "2019-07-30T10:30:00Z", "max_date": "2019-07-30T10:30:00Z", "count_points": 1, "latitude": 47.26718, "longitude": 34.0847, "city": "Velyka Lepetykha", "images": []}, {"id": 425285, "min_date": "2019-07-30T10:30:00Z", "max_date": "2019-07-30T10:30:00Z", "count_points": 1, "latitude": 46.25107, "longitude": 33.98183, "city": "Askaniya-Nova", "images": []}, {"id": 425286, "min_date": "2019-07-30T10:30:00Z", "max_date": "2019-07-30T10:30:00Z", "count_points": 1, "latitude": 49.10156, "longitude": 25.60334, "city": "Druzhba", "images": []}, {"id": 425287, "min_date": "2019-07-30T10:30:00Z", "max_date": "2019-07-30T10:30:00Z", "count_points": 1, "latitude": 47.14818, "longitude": 34.1308, "city": "Velyka Lepetykha", "images": []}, {"id": 425288, "min_date": "2019-07-30T10:30:00Z", "max_date": "2019-07-30T10:30:00Z", "count_points": 3, "latitude": 50.72549, "longitude": 30.74138, "city": "Pukhivka", "images": []}, {"id": 425289, "min_date": "2019-07-30T10:30:00Z", "max_date": "2019-07-30T10:30:00Z", "count_points": 1, "latitude": 48.10276, "longitude": 36.15758, "city": "Pokrovs\u2019ke", "images": []},