[{"id": 434973, "min_date": "2019-10-10T09:42:00Z", "max_date": "2019-10-10T11:18:00Z", "count_points": 2, "latitude": 45.45129, "longitude": 28.93366, "city": "Izmayil", "images": []}, {"id": 434803, "min_date": "2019-10-07T00:48:00Z", "max_date": "2019-10-07T09:25:00Z", "count_points": 2, "latitude": 49.40001, "longitude": 29.43028, "city": "Pohrebyshche", "images": []}, {"id": 434804, "min_date": "2019-10-07T08:54:00Z", "max_date": "2019-10-07T08:54:00Z", "count_points": 1, "latitude": 46.81923, "longitude": 36.41351, "city": "Prymors\u2019k", "images": []}, {"id": 434805, "min_date": "2019-10-07T08:54:00Z", "max_date": "2019-10-07T08:54:00Z", "count_points": 2, "latitude": 47.13388, "longitude": 37.24894, "city": "Manhush", "images": []}, {"id": 434806, "min_date": "2019-10-07T10:36:00Z", "max_date": "2019-10-13T10:33:00Z", "count_points": 21, "latitude": 48.5706, "longitude": 30.35032, "city": "Perehonivka", "images": []}, {"id": 434807, "min_date": "2019-10-07T10:36:00Z", "max_date": "2019-10-07T11:09:00Z", "count_points": 4, "latitude": 47.573, "longitude": 37.60856, "city": "Volnovakha", "images": []}, {"id": 434808, "min_date": "2019-10-07T10:36:00Z", "max_date": "2019-10-07T10:36:00Z", "count_points": 1, "latitude": 49.29135, "longitude": 39.87769, "city": "Milove", "images": []}, {"id": 434809, "min_date": "2019-10-07T10:36:00Z", "max_date": "2019-10-08T11:53:00Z", "count_points": 18, "latitude": 48.68848, "longitude": 28.96633, "city": "Tulchyn", "images": []}, {"id": 434810, "min_date": "2019-10-07T10:36:00Z", "max_date": "2019-10-07T10:36:00Z", "count_points": 3, "latitude": 49.52762, "longitude": 30.25886, "city": "Stavyshche", "images": []}, {"id": 434811, "min_date": "2019-10-07T10:36:00Z", "max_date": "2019-10-07T10:36:00Z", "count_points": 2, "latitude": 47.92498, "longitude": 39.75743, "city": "Biryukove", "images": []}, {"id": 434812, "min_date": "2019-10-07T10:36:00Z", "max_date": "2019-10-13T12:06:00Z", "count_points": 4, "latitude": 48.3092, "longitude": 29.3241, "city": "Chechelnyk", "images": []}, {"id": 434813, "min_date": "2019-10-07T10:36:00Z", "max_date": "2019-10-07T11:09:00Z", "count_points": 2, "latitude": 46.89815, "longitude": 36.26194, "city": "Prymors\u2019k", "images": []}, {"id": 434814, "min_date": "2019-10-07T10:36:00Z", "max_date": "2019-10-10T10:02:00Z", "count_points": 2, "latitude": 49.17212, "longitude": 39.58359, "city": "Bilovodsk", "images": []}, {"id": 434815, "min_date": "2019-10-07T10:36:00Z", "max_date": "2019-10-07T11:09:00Z", "count_points": 7, "latitude": 47.68647, "longitude": 38.11726, "city": "Starobesheve", "images": []}, {"id": 434816, "min_date": "2019-10-07T10:36:00Z", "max_date": "2019-10-07T11:09:00Z", "count_points": 2, "latitude": 47.6443, "longitude": 38.20058, "city": "Kuteynykove", "images": []}, {"id": 434817, "min_date": "2019-10-07T10:36:00Z", "max_date": "2019-10-07T10:36:00Z", "count_points": 1, "latitude": 47.25923, "longitude": 38.05264, "city": "Novoazovsk", "images": []}, {"id": 434818, "min_date": "2019-10-07T10:36:00Z", "max_date": "2019-10-07T10:36:00Z", "count_points": 1, "latitude": 50.58332, "longitude": 30.03225, "city": "Klavdiyevo-Tarasove", "images": []}, {"id": 434819, "min_date": "2019-10-07T10:36:00Z", "max_date": "2019-10-07T10:36:00Z", "count_points": 2, "latitude": 48.51517, "longitude": 29.59515, "city": "Viytivka", "images": []}, {"id": 434820, "min_date": "2019-10-07T10:36:00Z", "max_date": "2019-10-08T12:00:00Z", "count_points": 2, "latitude": 48.02036, "longitude": 29.89772, "city": "Peschana", "images": []}, {"id": 434821, "min_date": "2019-10-07T10:36:00Z", "max_date": "2019-10-07T11:09:00Z", "count_points": 8, "latitude": 48.17795, "longitude": 30.33116, "city": "Blahovishchens\u2019ke", "images": []}, {"id": 434822, "min_date": "2019-10-07T10:36:00Z", "max_date": "2019-10-07T11:09:00Z", "count_points": 4, "latitude": 48.36976, "longitude": 31.02259, "city": "Lypnyazhka", "images": []}, {"id": 434823, "min_date": "2019-10-07T10:36:00Z", "max_date": "2019-10-07T11:09:00Z", "count_points": 2, "latitude": 48.103, "longitude": 30.37501, "city": "Kryve Ozero", "images": []}, {"id": 434824, "min_date": "2019-10-07T10:36:00Z", "max_date": "2019-10-07T11:09:00Z", "count_points": 4, "latitude": 48.45404, "longitude": 29.69788, "city": "Viytivka", "images": []}, {"id": 434825, "min_date": "2019-10-07T10:36:00Z", "max_date": "2019-10-07T10:36:00Z", "count_points": 1, "latitude": 48.53954, "longitude": 39.81784, "city": "Uralo-Kavkaz", "images": []}, {"id": 434826, "min_date": "2019-10-07T22:48:00Z", "max_date": "2019-10-08T00:30:00Z", "count_points": 3, "latitude": 49.07434, "longitude": 32.17504, "city": "Kamianka", "images": []}, {"id": 434827, "min_date": "2019-10-08T00:30:00Z", "max_date": "2019-10-13T00:36:00Z", "count_points": 3, "latitude": 51.41013, "longitude": 26.54606, "city": "Sarny", "images": []}, {"id": 434828, "min_date": "2019-10-08T00:30:00Z", "max_date": "2019-10-08T00:30:00Z", "count_points": 1, "latitude": 50.73425, "longitude": 30.93628, "city": "Semypolky", "images": []}, {"id": 434829, "min_date": "2019-10-08T10:18:00Z", "max_date": "2019-10-08T10:18:00Z", "count_points": 1, "latitude": 50.77993, "longitude": 26.85502, "city": "Velyki Mezhyrichi", "images": []}, {"id": 434830, "min_date": "2019-10-08T10:18:00Z", "max_date": "2019-10-08T10:18:00Z", "count_points": 1, "latitude": 49.65523, "longitude": 28.1349, "city": "Ulaniv", "images": []}, {"id": 434831, "min_date": "2019-10-08T10:18:00Z", "max_date": "2019-10-13T10:32:00Z", "count_points": 3, "latitude": 47.55072, "longitude": 33.90499, "city": "Novovorontsovka", "images": []}, {"id": 434832, "min_date": "2019-10-08T10:18:00Z", "max_date": "2019-10-08T10:18:00Z", "count_points": 1, "latitude": 50.45745, "longitude": 34.36893, "city": "Lebedyn", "images": []}, {"id": 434833, "min_date": "2019-10-08T10:18:00Z", "max_date": "2019-10-08T10:18:00Z", "count_points": 2, "latitude": 50.35654, "longitude": 31.19118, "city": "Kirove", "images": []}, {"id": 434834, "min_date": "2019-10-08T10:18:00Z", "max_date": "2019-10-08T10:14:00Z", "count_points": 2, "latitude": 47.62016, "longitude": 30.65953, "city": "Mykolayivka", "images": []}, {"id": 434835, "min_date": "2019-10-08T10:18:00Z", "max_date": "2019-10-08T10:18:00Z", "count_points": 1, "latitude": 50.3016, "longitude": 33.84696, "city": "Hadyach", "images": []}, {"id": 434836, "min_date": "2019-10-08T10:18:00Z", "max_date": "2019-10-08T10:15:00Z", "count_points": 3, "latitude": 51.63647, "longitude": 32.82711, "city": "Korop", "images": []}, {"id": 434837, "min_date": "2019-10-08T10:18:00Z", "max_date": "2019-10-13T10:33:00Z", "count_points": 21, "latitude": 47.86982, "longitude": 29.39366, "city": "Slobidka", "images": []}, {"id": 434838, "min_date": "2019-10-08T10:18:00Z", "max_date": "2019-10-08T10:15:00Z", "count_points": 4, "latitude": 50.57334, "longitude": 31.58967, "city": "Korniyivka", "images": []}, {"id": 434839, "min_date": "2019-10-08T10:18:00Z", "max_date": "2019-10-08T10:18:00Z", "count_points": 1, "latitude": 50.28494, "longitude": 33.68618, "city": "Komyshnya", "images": []}, {"id": 434840, "min_date": "2019-10-08T10:18:00Z", "max_date": "2019-10-08T10:18:00Z", "count_points": 2, "latitude": 50.51586, "longitude": 32.3231, "city": "Pryluky", "images": []}, {"id": 434841, "min_date": "2019-10-08T10:18:00Z", "max_date": "2019-10-08T10:18:00Z", "count_points": 1, "latitude": 50.24296, "longitude": 33.96443, "city": "Hadyach", "images": []}, {"id": 434842, "min_date": "2019-10-08T10:18:00Z", "max_date": "2019-10-12T11:28:00Z", "count_points": 3, "latitude": 47.60248, "longitude": 29.88526, "city": "Ananyiv Pershyi", "images": []}, {"id": 434843, "min_date": "2019-10-08T10:18:00Z", "max_date": "2019-10-08T10:18:00Z", "count_points": 1, "latitude": 49.50085, "longitude": 30.54197, "city": "Tarashcha", "images": []}, {"id": 434844, "min_date": "2019-10-08T10:18:00Z", "max_date": "2019-10-08T10:15:00Z", "count_points": 2, "latitude": 49.77903, "longitude": 30.47284, "city": "Uzyn", "images": []}, {"id": 434845, "min_date": "2019-10-08T10:18:00Z", "max_date": "2019-10-08T10:18:00Z", "count_points": 1, "latitude": 49.30873, "longitude": 30.48354, "city": "Kalynove", "images": []}, {"id": 434846, "min_date": "2019-10-08T10:18:00Z", "max_date": "2019-10-13T12:06:00Z", "count_points": 10, "latitude": 48.58297, "longitude": 29.68292, "city": "Teplyk", "images": []}, {"id": 434847, "min_date": "2019-10-08T10:18:00Z", "max_date": "2019-10-08T10:18:00Z", "count_points": 1, "latitude": 50.04939, "longitude": 31.09909, "city": "Rzhyshchiv", "images": []}, {"id": 434848, "min_date": "2019-10-08T10:18:00Z", "max_date": "2019-10-08T10:18:00Z", "count_points": 1, "latitude": 49.39455, "longitude": 30.41325, "city": "Kalynove", "images": []}, {"id": 434849, "min_date": "2019-10-08T10:18:00Z", "max_date": "2019-10-08T10:18:00Z", "count_points": 2, "latitude": 48.59124, "longitude": 29.85637, "city": "Teplyk", "images": []}, {"id": 434850, "min_date": "2019-10-08T10:18:00Z", "max_date": "2019-10-08T10:18:00Z", "count_points": 1, "latitude": 49.268, "longitude": 29.59268, "city": "Orativ", "images": []}, {"id": 434851, "min_date": "2019-10-08T10:18:00Z", "max_date": "2019-10-08T10:18:00Z", "count_points": 9, "latitude": 48.74712, "longitude": 29.87054, "city": "Teplyk", "images": []}, {"id": 434852, "min_date": "2019-10-08T10:18:00Z", "max_date": "2019-10-08T10:18:00Z", "count_points": 2, "latitude": 50.41301, "longitude": 28.11533, "city": "Dovbysh", "images": []}, {"id": 434853, "min_date": "2019-10-08T10:18:00Z", "max_date": "2019-10-08T10:18:00Z", "count_points": 1, "latitude": 50.8246, "longitude": 28.47699, "city": "Nova Borova", "images": []}, {"id": 434854, "min_date": "2019-10-08T10:18:00Z", "max_date": "2019-10-08T10:18:00Z", "count_points": 2, "latitude": 51.24233, "longitude": 25.42351, "city": "Manevychi", "images": []}, {"id": 434855, "min_date": "2019-10-08T10:18:00Z", "max_date": "2019-10-08T10:18:00Z", "count_points": 2, "latitude": 50.76914, "longitude": 28.83347, "city": "Chopovychi", "images": []}, {"id": 434856, "min_date": "2019-10-08T10:18:00Z", "max_date": "2019-10-08T10:18:00Z", "count_points": 1, "latitude": 50.76894, "longitude": 30.11259, "city": "Katyuzhanka", "images": []}, {"id": 434857, "min_date": "2019-10-08T10:18:00Z", "max_date": "2019-10-08T10:18:00Z", "count_points": 1, "latitude": 51.05485, "longitude": 28.74179, "city": "Korosten\u2019", "images": []}, {"id": 434858, "min_date": "2019-10-08T10:18:00Z", "max_date": "2019-10-08T10:18:00Z", "count_points": 1, "latitude": 51.10776, "longitude": 30.75822, "city": "Desna", "images": []}, {"id": 434859, "min_date": "2019-10-08T10:18:00Z", "max_date": "2019-10-08T10:18:00Z", "count_points": 2, "latitude": 50.58768, "longitude": 30.29516, "city": "Hostomel", "images": []}, {"id": 434860, "min_date": "2019-10-08T10:18:00Z", "max_date": "2019-10-08T10:18:00Z", "count_points": 1, "latitude": 50.42749, "longitude": 28.66609, "city": "Cherniakhiv", "images": []}, {"id": 434861, "min_date": "2019-10-08T10:18:00Z", "max_date": "2019-10-08T10:18:00Z", "count_points": 2, "latitude": 48.19724, "longitude": 29.64313, "city": "Peschana", "images": []}, {"id": 434862, "min_date": "2019-10-08T10:18:00Z", "max_date": "2019-10-09T09:13:00Z", "count_points": 16, "latitude": 47.83855, "longitude": 30.31134, "city": "Lyubashivka", "images": []}, {"id": 434863, "min_date": "2019-10-08T10:18:00Z", "max_date": "2019-10-08T10:14:00Z", "count_points": 2, "latitude": 48.45713, "longitude": 30.84835, "city": "Tyshkivka", "images": []}, {"id": 434864, "min_date": "2019-10-08T10:18:00Z", "max_date": "2019-10-09T09:13:00Z", "count_points": 2, "latitude": 47.98467, "longitude": 30.01706, "city": "Savran", "images": []}, {"id": 434865, "min_date": "2019-10-08T10:18:00Z", "max_date": "2019-10-08T10:18:00Z", "count_points": 1, "latitude": 48.29695, "longitude": 29.08361, "city": "Torkanivka", "images": []}, {"id": 434866, "min_date": "2019-10-08T10:18:00Z", "max_date": "2019-10-13T10:24:00Z", "count_points": 4, "latitude": 48.30917, "longitude": 30.56788, "city": "Holovanivs\u2019k", "images": []}, {"id": 434867, "min_date": "2019-10-08T10:18:00Z", "max_date": "2019-10-12T11:28:00Z", "count_points": 3, "latitude": 48.16451, "longitude": 30.78956, "city": "Vil\u2019shanka", "images": []}, {"id": 434868, "min_date": "2019-10-08T10:18:00Z", "max_date": "2019-10-08T10:18:00Z", "count_points": 1, "latitude": 50.47467, "longitude": 33.52736, "city": "Romny", "images": []}, {"id": 434869, "min_date": "2019-10-08T10:18:00Z", "max_date": "2019-10-08T10:18:00Z", "count_points": 1, "latitude": 48.23734, "longitude": 31.05992, "city": "Lysa Hora", "images": []}, {"id": 434870, "min_date": "2019-10-08T10:18:00Z", "max_date": "2019-10-08T10:18:00Z", "count_points": 1, "latitude": 50.21939, "longitude": 31.34435, "city": "Baryshivka", "images": []}, {"id": 434871, "min_date": "2019-10-08T10:18:00Z", "max_date": "2019-10-12T10:42:00Z", "count_points": 2, "latitude": 47.8265, "longitude": 30.05059, "city": "Ananyiv Pershyi", "images": []}, {"id": 434872, "min_date": "2019-10-08T10:18:00Z", "max_date": "2019-10-08T10:18:00Z", "count_points": 2, "latitude": 51.83579, "longitude": 32.64796, "city": "Kholmy", "images": []}, {"id": 434873, "min_date": "2019-10-08T10:18:00Z", "max_date": "2019-10-08T10:18:00Z", "count_points": 1, "latitude": 51.78041, "longitude": 32.73625, "city": "Kholmy", "images": []}, {"id": 434874, "min_date": "2019-10-08T10:18:00Z", "max_date": "2019-10-08T10:15:00Z", "count_points": 6, "latitude": 49.76267, "longitude": 33.83695, "city": "Velyka Bahachka", "images": []}, {"id": 434875, "min_date": "2019-10-08T10:18:00Z", "max_date": "2019-10-08T10:18:00Z", "count_points": 1, "latitude": 49.45438, "longitude": 25.28638, "city": "Kozova", "images": []}, {"id": 434876, "min_date": "2019-10-08T10:18:00Z", "max_date": "2019-10-08T10:18:00Z", "count_points": 1, "latitude": 48.14381, "longitude": 29.9044, "city": "Zavallya", "images": []}, {"id": 434877, "min_date": "2019-10-08T10:18:00Z", "max_date": "2019-10-08T10:07:00Z", "count_points": 7, "latitude": 49.3225, "longitude": 25.76476, "city": "Terebovlya", "images": []}, {"id": 434878, "min_date": "2019-10-08T12:00:00Z", "max_date": "2019-10-08T12:00:00Z", "count_points": 5, "latitude": 49.27897, "longitude": 29.26567, "city": "Illintsi", "images": []}, {"id": 434879, "min_date": "2019-10-08T12:00:00Z", "max_date": "2019-10-08T12:00:00Z", "count_points": 1, "latitude": 48.82768, "longitude": 29.71722, "city": "Teplyk", "images": []}, {"id": 434880, "min_date": "2019-10-08T12:00:00Z", "max_date": "2019-10-08T11:53:00Z", "count_points": 2, "latitude": 49.00341, "longitude": 29.85142, "city": "Nove-Misto", "images": []}, {"id": 434881, "min_date": "2019-10-08T12:00:00Z", "max_date": "2019-10-08T12:00:00Z", "count_points": 1, "latitude": 49.81326, "longitude": 30.16225, "city": "Bila Tserkva", "images": []}, {"id": 434882, "min_date": "2019-10-08T12:00:00Z", "max_date": "2019-10-08T12:00:00Z", "count_points": 2, "latitude": 48.60164, "longitude": 29.72836, "city": "Teplyk", "images": []}, {"id": 434883, "min_date": "2019-10-08T12:00:00Z", "max_date": "2019-10-08T12:00:00Z", "count_points": 1, "latitude": 48.62793, "longitude": 28.69603, "city": "Vapnyarka", "images": []}, {"id": 434884, "min_date": "2019-10-08T12:00:00Z", "max_date": "2019-10-08T11:53:00Z", "count_points": 6, "latitude": 49.26137, "longitude": 29.93716, "city": "Zhashkiv", "images": []}, {"id": 434885, "min_date": "2019-10-08T12:00:00Z", "max_date": "2019-10-13T10:24:00Z", "count_points": 2, "latitude": 49.4193, "longitude": 30.40168, "city": "Kalynove", "images": []}, {"id": 434886, "min_date": "2019-10-08T12:00:00Z", "max_date": "2019-10-08T12:00:00Z", "count_points": 4, "latitude": 49.43334, "longitude": 30.35318, "city": "Kalynove", "images": []}, {"id": 434887, "min_date": "2019-10-08T12:00:00Z", "max_date": "2019-10-08T12:00:00Z", "count_points": 2, "latitude": 49.57478, "longitude": 29.35802, "city": "Topory", "images": []}, {"id": 434888, "min_date": "2019-10-08T12:00:00Z", "max_date": "2019-10-13T10:24:00Z", "count_points": 3, "latitude": 49.57235, "longitude": 27.63714, "city": "Stara Syniava", "images": []}, {"id": 434889, "min_date": "2019-10-08T12:00:00Z", "max_date": "2019-10-08T12:00:00Z", "count_points": 2, "latitude": 49.81934, "longitude": 27.49852, "city": "Novoselytsya", "images": []}, {"id": 434890, "min_date": "2019-10-08T12:00:00Z", "max_date": "2019-10-08T11:52:00Z", "count_points": 9, "latitude": 48.16062, "longitude": 29.43582, "city": "Chechelnyk", "images": []}, {"id": 434891, "min_date": "2019-10-08T12:00:00Z", "max_date": "2019-10-08T12:00:00Z", "count_points": 4, "latitude": 48.46505, "longitude": 28.46232, "city": "Klembivka", "images": []}, {"id": 434892, "min_date": "2019-10-08T12:00:00Z", "max_date": "2019-10-08T12:00:00Z", "count_points": 2, "latitude": 47.93852, "longitude": 29.67296, "city": "Balta", "images": []}, {"id": 434893, "min_date": "2019-10-08T12:00:00Z", "max_date": "2019-10-08T12:00:00Z", "count_points": 2, "latitude": 50.11913, "longitude": 29.38258, "city": "Kornyn", "images": []}, {"id": 434894, "min_date": "2019-10-08T12:00:00Z", "max_date": "2019-10-08T12:00:00Z", "count_points": 4, "latitude": 47.43501, "longitude": 29.68989, "city": "Zakharivka", "images": []}, {"id": 434895, "min_date": "2019-10-08T12:00:00Z", "max_date": "2019-10-10T10:02:00Z", "count_points": 11, "latitude": 47.64547, "longitude": 29.9503, "city": "Ananyiv Pershyi", "images": []}, {"id": 434896, "min_date": "2019-10-08T12:00:00Z", "max_date": "2019-10-13T10:33:00Z", "count_points": 10, "latitude": 48.10188, "longitude": 29.70454, "city": "Peschana", "images": []}, {"id": 434897, "min_date": "2019-10-08T12:00:00Z", "max_date": "2019-10-09T09:13:00Z", "count_points": 4, "latitude": 48.3765, "longitude": 29.29713, "city": "Obodivka", "images": []}, {"id": 434898, "min_date": "2019-10-09T00:12:00Z", "max_date": "2019-10-13T10:33:00Z", "count_points": 22, "latitude": 50.75717, "longitude": 32.12973, "city": "Lisovi Sorochyntsi", "images": []}, {"id": 434899, "min_date": "2019-10-09T00:12:00Z", "max_date": "2019-10-09T09:13:00Z", "count_points": 4, "latitude": 48.13461, "longitude": 29.84926, "city": "Peschana", "images": []}, {"id": 434900, "min_date": "2019-10-09T00:12:00Z", "max_date": "2019-10-09T00:12:00Z", "count_points": 2, "latitude": 47.80842, "longitude": 29.93696, "city": "Ananyiv Pershyi", "images": []}, {"id": 434901, "min_date": "2019-10-09T10:00:00Z", "max_date": "2019-10-10T11:40:00Z", "count_points": 16, "latitude": 48.46784, "longitude": 31.01193, "city": "Lypnyazhka", "images": []}, {"id": 434902, "min_date": "2019-10-09T10:00:00Z", "max_date": "2019-10-09T10:57:00Z", "count_points": 3, "latitude": 48.02038, "longitude": 29.81594, "city": "Peschana", "images": []}, {"id": 434903, "min_date": "2019-10-09T10:00:00Z", "max_date": "2019-10-09T10:00:00Z", "count_points": 1, "latitude": 48.06445, "longitude": 29.82747, "city": "Peschana", "images": []}, {"id": 434904, "min_date": "2019-10-09T10:00:00Z", "max_date": "2019-10-09T10:56:00Z", "count_points": 6, "latitude": 46.40202, "longitude": 34.80388, "city": "Partyzany", "images": []}, {"id": 434905, "min_date": "2019-10-09T10:00:00Z", "max_date": "2019-10-09T10:00:00Z", "count_points": 1, "latitude": 48.4543, "longitude": 30.08226, "city": "Blahovishchens\u2019ke", "images": []}, {"id": 434906, "min_date": "2019-10-09T10:00:00Z", "max_date": "2019-10-09T10:00:00Z", "count_points": 2, "latitude": 47.50655, "longitude": 30.00972, "city": "Zatyshshya", "images": []}, {"id": 434907, "min_date": "2019-10-09T10:00:00Z", "max_date": "2019-10-09T10:00:00Z", "count_points": 1, "latitude": 47.57601, "longitude": 37.81757, "city": "Dokuchayevs\u2019k", "images": []}, {"id": 434908, "min_date": "2019-10-09T10:00:00Z", "max_date": "2019-10-09T10:00:00Z", "count_points": 1, "latitude": 48.28134, "longitude": 30.43381, "city": "Holovanivs\u2019k", "images": []}, {"id": 434909, "min_date": "2019-10-09T10:00:00Z", "max_date": "2019-10-09T10:00:00Z", "count_points": 1, "latitude": 48.79697, "longitude": 31.45938, "city": "Lebedyn", "images": []}, {"id": 434910, "min_date": "2019-10-09T10:00:00Z", "max_date": "2019-10-09T10:57:00Z", "count_points": 8, "latitude": 48.52313, "longitude": 31.21009, "city": "Dobrovelychkivka", "images": []}, {"id": 434911, "min_date": "2019-10-09T10:00:00Z", "max_date": "2019-10-09T10:00:00Z", "count_points": 1, "latitude": 48.60902, "longitude": 31.21779, "city": "Lypnyazhka", "images": []}, {"id": 434912, "min_date": "2019-10-09T10:00:00Z", "max_date": "2019-10-09T10:00:00Z", "count_points": 1, "latitude": 48.43506, "longitude": 39.39223, "city": "Rozkishne", "images": []}, {"id": 434913, "min_date": "2019-10-09T10:00:00Z", "max_date": "2019-10-09T10:00:00Z", "count_points": 1, "latitude": 45.6724, "longitude": 34.9744, "city": "Izobil\u2019noye", "images": []}, {"id": 434914, "min_date": "2019-10-09T10:00:00Z", "max_date": "2019-10-09T09:13:00Z", "count_points": 3, "latitude": 48.03389, "longitude": 30.10826, "city": "Savran", "images": []}, {"id": 434915, "min_date": "2019-10-09T10:00:00Z", "max_date": "2019-10-13T08:48:00Z", "count_points": 2, "latitude": 48.38851, "longitude": 33.39297, "city": "Zhovti Vody", "images": []}, {"id": 434916, "min_date": "2019-10-09T10:00:00Z", "max_date": "2019-10-10T11:24:00Z", "count_points": 2, "latitude": 48.26374, "longitude": 30.67512, "city": "Pobugskoye", "images": []}, {"id": 434917, "min_date": "2019-10-09T10:00:00Z", "max_date": "2019-10-09T10:00:00Z", "count_points": 2, "latitude": 48.50744, "longitude": 31.2468, "city": "Dobrovelychkivka", "images": []}, {"id": 434918, "min_date": "2019-10-09T10:00:00Z", "max_date": "2019-10-09T10:00:00Z", "count_points": 1, "latitude": 48.26329, "longitude": 30.55648, "city": "Pobugskoye", "images": []}, {"id": 434919, "min_date": "2019-10-09T10:00:00Z", "max_date": "2019-10-09T09:13:00Z", "count_points": 2, "latitude": 48.30313, "longitude": 29.92334, "city": "Hayvoron", "images": []}, {"id": 434920, "min_date": "2019-10-09T11:42:00Z", "max_date": "2019-10-09T10:57:00Z", "count_points": 5, "latitude": 47.93077, "longitude": 30.92847, "city": "Myhiya", "images": []}, {"id": 434921, "min_date": "2019-10-09T11:42:00Z", "max_date": "2019-10-09T11:42:00Z", "count_points": 1, "latitude": 47.78378, "longitude": 30.91351, "city": "Domanivka", "images": []}, {"id": 434922, "min_date": "2019-10-09T11:42:00Z", "max_date": "2019-10-09T11:42:00Z", "count_points": 3, "latitude": 45.13555, "longitude": 34.17948, "city": "Novozhilovka", "images": []}, {"id": 434923, "min_date": "2019-10-09T11:42:00Z", "max_date": "2019-10-09T10:57:00Z", "count_points": 3, "latitude": 47.85339, "longitude": 30.43248, "city": "Kryve Ozero", "images": []}, {"id": 434924, "min_date": "2019-10-09T11:42:00Z", "max_date": "2019-10-10T10:01:00Z", "count_points": 12, "latitude": 46.56337, "longitude": 34.70889, "city": "Ivanivka", "images": []}, {"id": 434925, "min_date": "2019-10-09T11:42:00Z", "max_date": "2019-10-09T11:42:00Z", "count_points": 1, "latitude": 49.19369, "longitude": 25.58945, "city": "Terebovlya", "images": []}, {"id": 434926, "min_date": "2019-10-09T23:54:00Z", "max_date": "2019-10-09T23:54:00Z", "count_points": 1, "latitude": 49.04376, "longitude": 29.75601, "city": "Monastyryshche", "images": []}, {"id": 434927, "min_date": "2019-10-09T23:54:00Z", "max_date": "2019-10-09T23:54:00Z", "count_points": 2, "latitude": 48.3503, "longitude": 28.63097, "city": "Vapnyarka", "images": []}, {"id": 434928, "min_date": "2019-10-09T23:54:00Z", "max_date": "2019-10-09T23:54:00Z", "count_points": 2, "latitude": 49.63575, "longitude": 27.64888, "city": "Stara Syniava", "images": []}, {"id": 434929, "min_date": "2019-10-10T09:42:00Z", "max_date": "2019-10-10T10:02:00Z", "count_points": 5, "latitude": 48.42532, "longitude": 29.21236, "city": "Obodivka", "images": []}, {"id": 434930, "min_date": "2019-10-10T09:42:00Z", "max_date": "2019-10-10T09:42:00Z", "count_points": 2, "latitude": 47.99521, "longitude": 30.60417, "city": "Vradiyivka", "images": []}, {"id": 434931, "min_date": "2019-10-10T09:42:00Z", "max_date": "2019-10-10T09:42:00Z", "count_points": 2, "latitude": 48.12015, "longitude": 29.76008, "city": "Peschana", "images": []}, {"id": 434932, "min_date": "2019-10-10T09:42:00Z", "max_date": "2019-10-10T09:42:00Z", "count_points": 1, "latitude": 48.27194, "longitude": 29.99069, "city": "Zavallya", "images": []}, {"id": 434933, "min_date": "2019-10-10T09:42:00Z", "max_date": "2019-10-10T11:40:00Z", "count_points": 8, "latitude": 48.21147, "longitude": 31.46233, "city": "Pomichna", "images": []}, {"id": 434934, "min_date": "2019-10-10T09:42:00Z", "max_date": "2019-10-10T10:02:00Z", "count_points": 6, "latitude": 48.42906, "longitude": 31.71749, "city": "Zlynka", "images": []}, {"id": 434935, "min_date": "2019-10-10T09:42:00Z", "max_date": "2019-10-10T09:42:00Z", "count_points": 2, "latitude": 47.1312, "longitude": 30.50829, "city": "Ivanivka", "images": []}, {"id": 434936, "min_date": "2019-10-10T09:42:00Z", "max_date": "2019-10-10T09:55:00Z", "count_points": 5, "latitude": 48.80994, "longitude": 26.26688, "city": "Skala-Podil\u2019s\u2019ka", "images": []}, {"id": 434937, "min_date": "2019-10-10T09:42:00Z", "max_date": "2019-10-10T09:42:00Z", "count_points": 1, "latitude": 45.90463, "longitude": 33.93359, "city": "Novopavlovka", "images": []}, {"id": 434938, "min_date": "2019-10-10T09:42:00Z", "max_date": "2019-10-10T09:42:00Z", "count_points": 1, "latitude": 47.27806, "longitude": 36.20242, "city": "Chernihivka", "images": []}, {"id": 434939, "min_date": "2019-10-10T09:42:00Z", "max_date": "2019-10-10T09:42:00Z", "count_points": 1, "latitude": 50.77848, "longitude": 29.92885, "city": "Borodianka", "images": []}, {"id": 434940, "min_date": "2019-10-10T09:42:00Z", "max_date": "2019-10-10T09:42:00Z", "count_points": 2, "latitude": 48.44765, "longitude": 36.30235, "city": "Petropavlivka", "images": []}, {"id": 434941, "min_date": "2019-10-10T09:42:00Z", "max_date": "2019-10-10T09:42:00Z", "count_points": 1, "latitude": 47.93664, "longitude": 36.49932, "city": "Pokrovs\u2019ke", "images": []}, {"id": 434942, "min_date": "2019-10-10T09:42:00Z", "max_date": "2019-10-10T10:02:00Z", "count_points": 4, "latitude": 47.78518, "longitude": 35.83953, "city": "Kirove", "images": []}, {"id": 434943, "min_date": "2019-10-10T09:42:00Z", "max_date": "2019-10-09T10:57:00Z", "count_points": 2, "latitude": 47.96726, "longitude": 29.54961, "city": "Balta", "images": []}, {"id": 434944, "min_date": "2019-10-10T09:42:00Z", "max_date": "2019-10-10T09:42:00Z", "count_points": 1, "latitude": 47.66864, "longitude": 30.39678, "city": "Lyubashivka", "images": []}, {"id": 434945, "min_date": "2019-10-10T09:42:00Z", "max_date": "2019-10-10T11:40:00Z", "count_points": 16, "latitude": 47.95232, "longitude": 29.91874, "city": "Savran", "images": []}, {"id": 434946, "min_date": "2019-10-10T09:42:00Z", "max_date": "2019-10-10T09:42:00Z", "count_points": 2, "latitude": 47.42051, "longitude": 36.28183, "city": "Polohy", "images": []}, {"id": 434947, "min_date": "2019-10-10T09:42:00Z", "max_date": "2019-10-10T09:42:00Z", "count_points": 2, "latitude": 48.8992, "longitude": 35.99592, "city": "Yur\u201dyivka", "images": []}, {"id": 434948, "min_date": "2019-10-10T09:42:00Z", "max_date": "2019-10-10T09:42:00Z", "count_points": 3, "latitude": 48.85332, "longitude": 31.74397, "city": "Kapitanivka", "images": []}, {"id": 434949, "min_date": "2019-10-10T09:42:00Z", "max_date": "2019-10-10T09:42:00Z", "count_points": 3, "latitude": 48.04192, "longitude": 39.60559, "city": "Sverdlovs\u2019k", "images": []}, {"id": 434950, "min_date": "2019-10-10T09:42:00Z", "max_date": "2019-10-10T09:42:00Z", "count_points": 2, "latitude": 48.12276, "longitude": 39.74757, "city": "Chervonopartyzans\u2019k", "images": []}, {"id": 434951, "min_date": "2019-10-10T09:42:00Z", "max_date": "2019-10-10T09:42:00Z", "count_points": 1, "latitude": 49.75962, "longitude": 32.31338, "city": "Chornobay", "images": []}, {"id": 434952, "min_date": "2019-10-10T09:42:00Z", "max_date": "2019-10-10T10:02:00Z", "count_points": 9, "latitude": 48.7139, "longitude": 30.38317, "city": "Babanka", "images": []}, {"id": 434953, "min_date": "2019-10-10T09:42:00Z", "max_date": "2019-10-10T09:42:00Z", "count_points": 6, "latitude": 48.71409, "longitude": 31.58871, "city": "Mala Vyska", "images": []}, {"id": 434954, "min_date": "2019-10-10T09:42:00Z", "max_date": "2019-10-10T08:17:00Z", "count_points": 3, "latitude": 48.69305, "longitude": 31.50789, "city": "Mala Vyska", "images": []}, {"id": 434955, "min_date": "2019-10-10T09:42:00Z", "max_date": "2019-10-10T10:02:00Z", "count_points": 15, "latitude": 48.27229, "longitude": 39.36213, "city": "Klenovyy", "images": []}, {"id": 434956, "min_date": "2019-10-10T09:42:00Z", "max_date": "2019-10-10T09:42:00Z", "count_points": 1, "latitude": 48.76404, "longitude": 31.3713, "city": "Shpola", "images": []}, {"id": 434957, "min_date": "2019-10-10T09:42:00Z", "max_date": "2019-10-10T11:40:00Z", "count_points": 13, "latitude": 48.66149, "longitude": 30.62247, "city": "Perehonivka", "images": []}, {"id": 434958, "min_date": "2019-10-10T09:42:00Z", "max_date": "2019-10-10T08:17:00Z", "count_points": 4, "latitude": 48.54277, "longitude": 31.50484, "city": "Zlynka", "images": []}, {"id": 434959, "min_date": "2019-10-10T09:42:00Z", "max_date": "2019-10-10T09:42:00Z", "count_points": 1, "latitude": 48.67478, "longitude": 36.15982, "city": "Yur\u201dyivka", "images": []}, {"id": 434960, "min_date": "2019-10-10T09:42:00Z", "max_date": "2019-10-10T09:42:00Z", "count_points": 1, "latitude": 49.0565, "longitude": 31.30354, "city": "Shpola", "images": []}, {"id": 434961, "min_date": "2019-10-10T09:42:00Z", "max_date": "2019-10-10T10:02:00Z", "count_points": 11, "latitude": 48.89887, "longitude": 36.151, "city": "Panyutyne", "images": []}, {"id": 434962, "min_date": "2019-10-10T09:42:00Z", "max_date": "2019-10-12T09:43:00Z", "count_points": 4, "latitude": 48.62237, "longitude": 29.60435, "city": "Teplyk", "images": []}, {"id": 434963, "min_date": "2019-10-10T09:42:00Z", "max_date": "2019-10-10T10:02:00Z", "count_points": 17, "latitude": 48.71051, "longitude": 29.81504, "city": "Teplyk", "images": []}, {"id": 434964, "min_date": "2019-10-10T09:42:00Z", "max_date": "2019-10-10T09:42:00Z", "count_points": 1, "latitude": 48.7969, "longitude": 31.54329, "city": "Novomyrhorod", "images": []}, {"id": 434965, "min_date": "2019-10-10T09:42:00Z", "max_date": "2019-10-10T11:40:00Z", "count_points": 5, "latitude": 47.75226, "longitude": 29.98689, "city": "Ananyiv Pershyi", "images": []}, {"id": 434966, "min_date": "2019-10-10T09:42:00Z", "max_date": "2019-10-10T09:42:00Z", "count_points": 1, "latitude": 47.87786, "longitude": 30.8818, "city": "Pervomays\u2019k", "images": []}, {"id": 434967, "min_date": "2019-10-10T09:42:00Z", "max_date": "2019-10-10T09:42:00Z", "count_points": 1, "latitude": 46.4575, "longitude": 34.96825, "city": "Partyzany", "images": []}, {"id": 434968, "min_date": "2019-10-10T09:42:00Z", "max_date": "2019-10-10T09:42:00Z", "count_points": 1, "latitude": 48.0545, "longitude": 30.49517, "city": "Pobugskoye", "images": []}, {"id": 434969, "min_date": "2019-10-10T09:42:00Z", "max_date": "2019-10-10T09:42:00Z", "count_points": 1, "latitude": 48.04089, "longitude": 29.3667, "city": "Slobidka", "images": []}, {"id": 434970, "min_date": "2019-10-10T09:42:00Z", "max_date": "2019-10-10T11:40:00Z", "count_points": 4, "latitude": 47.85186, "longitude": 29.61042, "city": "Balta", "images": []}, {"id": 434971, "min_date": "2019-10-10T09:42:00Z", "max_date": "2019-10-10T11:24:00Z", "count_points": 2, "latitude": 48.21252, "longitude": 30.31645, "city": "Blahovishchens\u2019ke", "images": []}, {"id": 434972, "min_date": "2019-10-10T09:42:00Z", "max_date": "2019-10-10T09:42:00Z", "count_points": 2, "latitude": 48.16057, "longitude": 30.74411, "city": "Vil\u2019shanka", "images": []}, {"id": 434974, "min_date": "2019-10-10T09:42:00Z", "max_date": "2019-10-10T09:42:00Z", "count_points": 3, "latitude": 49.03829, "longitude": 35.24145, "city": "Zachepylivka", "images": []}, {"id": 434975, "min_date": "2019-10-10T09:42:00Z", "max_date": "2019-10-10T09:42:00Z", "count_points": 2, "latitude": 48.4406, "longitude": 39.53404, "city": "Simeykyne", "images": []}, {"id": 434976, "min_date": "2019-10-10T09:42:00Z", "max_date": "2019-10-10T10:02:00Z", "count_points": 4, "latitude": 49.76376, "longitude": 39.00092, "city": "Novopskov", "images": []}, {"id": 434977, "min_date": "2019-10-10T09:42:00Z", "max_date": "2019-10-10T10:02:00Z", "count_points": 5, "latitude": 48.34585, "longitude": 39.5325, "city": "Simeykyne", "images": []}, {"id": 434978, "min_date": "2019-10-10T09:42:00Z", "max_date": "2019-10-10T10:01:00Z", "count_points": 6, "latitude": 46.67624, "longitude": 35.23652, "city": "Yakymivka", "images": []}, {"id": 434979, "min_date": "2019-10-10T09:42:00Z", "max_date": "2019-10-10T09:55:00Z", "count_points": 3, "latitude": 49.89588, "longitude": 27.49919, "city": "Novoselytsya", "images": []}, {"id": 434980, "min_date": "2019-10-10T09:42:00Z", "max_date": "2019-10-10T11:40:00Z", "count_points": 7, "latitude": 47.93978, "longitude": 30.86982, "city": "Pervomays\u2019k", "images": []}, {"id": 434981, "min_date": "2019-10-10T09:42:00Z", "max_date": "2019-10-10T09:42:00Z", "count_points": 2, "latitude": 46.80894, "longitude": 30.17127, "city": "Rozdil\u2019na", "images": []}, {"id": 434982, "min_date": "2019-10-10T09:42:00Z", "max_date": "2019-10-10T09:42:00Z", "count_points": 3, "latitude": 48.01086, "longitude": 38.20562, "city": "Zuhres", "images": []}, {"id": 434983, "min_date": "2019-10-10T11:18:00Z", "max_date": "2019-10-13T08:48:00Z", "count_points": 4, "latitude": 47.87618, "longitude": 38.13855, "city": "Ilovays\u2019k", "images": []}, {"id": 434984, "min_date": "2019-10-10T11:18:00Z", "max_date": "2019-10-10T11:18:00Z", "count_points": 2, "latitude": 47.88597, "longitude": 38.04882, "city": "Mospyne", "images": []}, {"id": 434985, "min_date": "2019-10-10T11:18:00Z", "max_date": "2019-10-10T11:24:00Z", "count_points": 2, "latitude": 48.18776, "longitude": 37.83879, "city": "Yasynuvata", "images": []}, {"id": 434986, "min_date": "2019-10-10T11:18:00Z", "max_date": "2019-10-10T11:18:00Z", "count_points": 1, "latitude": 47.82765, "longitude": 29.95814, "city": "Ananyiv Pershyi", "images": []}, {"id": 434987, "min_date": "2019-10-10T11:18:00Z", "max_date": "2019-10-10T11:24:00Z", "count_points": 4, "latitude": 48.16855, "longitude": 35.98485, "city": "Vasyl\u2019kivka", "images": []}, {"id": 434988, "min_date": "2019-10-10T11:18:00Z", "max_date": "2019-10-10T11:40:00Z", "count_points": 9, "latitude": 47.5441, "longitude": 29.22409, "city": "Okny", "images": []}, {"id": 434989, "min_date": "2019-10-10T11:18:00Z", "max_date": "2019-10-10T11:40:00Z", "count_points": 2, "latitude": 47.14999, "longitude": 29.85136, "city": "Kuchurhan", "images": []}, {"id": 434990, "min_date": "2019-10-10T11:18:00Z", "max_date": "2019-10-10T11:18:00Z", "count_points": 1, "latitude": 47.3701, "longitude": 38.011, "city": "Tel\u2019manove", "images": []}, {"id": 434991, "min_date": "2019-10-10T11:18:00Z", "max_date": "2019-10-10T11:18:00Z", "count_points": 4, "latitude": 47.16997, "longitude": 35.86823, "city": "Tokmak", "images": []}, {"id": 434992, "min_date": "2019-10-10T11:18:00Z", "max_date": "2019-10-10T11:18:00Z", "count_points": 7, "latitude": 47.45049, "longitude": 29.76527, "city": "Zakharivka", "images": []}, {"id": 434993, "min_date": "2019-10-10T11:18:00Z", "max_date": "2019-10-10T11:18:00Z", "count_points": 1, "latitude": 47.41097, "longitude": 29.79985, "city": "Zakharivka", "images": []}, {"id": 434994, "min_date": "2019-10-10T11:18:00Z", "max_date": "2019-10-10T11:18:00Z", "count_points": 1, "latitude": 47.56707, "longitude": 29.30005, "city": "Okny", "images": []}, {"id": 434995, "min_date": "2019-10-10T11:18:00Z", "max_date": "2019-10-10T11:40:00Z", "count_points": 2, "latitude": 47.67573, "longitude": 30.63479, "city": "Mykolayivka", "images": []}, {"id": 434996, "min_date": "2019-10-10T11:18:00Z", "max_date": "2019-10-10T11:18:00Z", "count_points": 2, "latitude": 46.38437, "longitude": 34.59162, "city": "Novooleksiyivka", "images": []}, {"id": 434997, "min_date": "2019-10-10T11:18:00Z", "max_date": "2019-10-10T11:18:00Z", "count_points": 1, "latitude": 47.5133, "longitude": 29.41354, "city": "Okny", "images": []}, {"id": 434998, "min_date": "2019-10-10T11:18:00Z", "max_date": "2019-10-10T11:18:00Z", "count_points": 6, "latitude": 47.10636, "longitude": 35.16209, "city": "Matviyivka", "images": []}, {"id": 434999, "min_date": "2019-10-10T11:18:00Z", "max_date": "2019-10-10T11:18:00Z", "count_points": 1, "latitude": 46.20386, "longitude": 33.40371, "city": "Kalanchak", "images": []}, {"id": 435000, "min_date": "2019-10-10T11:18:00Z", "max_date": "2019-10-10T11:18:00Z", "count_points": 1, "latitude": 46.39048, "longitude": 34.93531, "city": "Partyzany", "images": []}, {"id": 435001, "min_date": "2019-10-10T11:18:00Z", "max_date": "2019-10-10T11:18:00Z", "count_points": 1, "latitude": 47.27136, "longitude": 34.67672, "city": "Velyka Bilozerka", "images": []}, {"id": 435002, "min_date": "2019-10-10T11:24:00Z", "max_date": "2019-10-10T11:24:00Z", "count_points": 9, "latitude": 51.09405, "longitude": 28.89661, "city": "Narodychi", "images": []}, {"id": 435003, "min_date": "2019-10-10T11:24:00Z", "max_date": "2019-10-10T11:24:00Z", "count_points": 1, "latitude": 50.68647, "longitude": 29.43205, "city": "Bila Krynytsya", "images": []}, {"id": 435004, "min_date": "2019-10-10T11:24:00Z", "max_date": "2019-10-10T11:24:00Z", "count_points": 1, "latitude": 50.52751, "longitude": 29.11081, "city": "Radomyshl", "images": []}, {"id": 435005, "min_date": "2019-10-10T11:24:00Z", "max_date": "2019-10-10T11:24:00Z", "count_points": 2, "latitude": 50.50259, "longitude": 29.55402, "city": "Kodra", "images": []}, {"id": 435006, "min_date": "2019-10-10T11:24:00Z", "max_date": "2019-10-10T11:24:00Z", "count_points": 4, "latitude": 49.21504, "longitude": 38.14655, "city": "Kreminna", "images": []}, {"id": 435007, "min_date": "2019-10-10T11:24:00Z", "max_date": "2019-10-10T11:24:00Z", "count_points": 2, "latitude": 48.67107, "longitude": 38.44637, "city": "Hirs\u2019ke", "images": []}, {"id": 435008, "min_date": "2019-10-10T11:24:00Z", "max_date": "2019-10-10T11:24:00Z", "count_points": 2, "latitude": 48.41941, "longitude": 31.6343, "city": "Zlynka", "images": []}, {"id": 435009, "min_date": "2019-10-10T11:24:00Z", "max_date": "2019-10-10T11:24:00Z", "count_points": 1, "latitude": 47.99612, "longitude": 30.08334, "city": "Savran", "images": []}, {"id": 435010, "min_date": "2019-10-10T11:24:00Z", "max_date": "2019-10-10T11:40:00Z", "count_points": 9, "latitude": 49.59841, "longitude": 28.48243, "city": "Kalynivka", "images": []}, {"id": 435011, "min_date": "2019-10-10T11:24:00Z", "max_date": "2019-10-10T11:40:00Z", "count_points": 5, "latitude": 49.17669, "longitude": 29.82858, "city": "Tsibulev", "images": []}, {"id": 435012, "min_date": "2019-10-10T11:24:00Z", "max_date": "2019-10-10T11:24:00Z", "count_points": 5, "latitude": 49.62082, "longitude": 29.71944, "city": "Skvyra", "images": []}, {"id": 435013, "min_date": "2019-10-10T11:24:00Z", "max_date": "2019-10-10T11:24:00Z", "count_points": 1, "latitude": 49.78349, "longitude": 28.60596, "city": "Berdychiv", "images": []}, {"id": 435014, "min_date": "2019-10-10T11:24:00Z", "max_date": "2019-10-13T10:33:00Z", "count_points": 3, "latitude": 49.50661, "longitude": 32.55526, "city": "Chornobay", "images": []}, {"id": 435015, "min_date": "2019-10-10T11:24:00Z", "max_date": "2019-10-10T11:24:00Z", "count_points": 2, "latitude": 48.59788, "longitude": 28.91613, "city": "Tulchyn", "images": []}, {"id": 435016, "min_date": "2019-10-10T11:24:00Z", "max_date": "2019-10-10T11:24:00Z", "count_points": 1, "latitude": 48.80726, "longitude": 35.6739, "city": "Melioratyvne", "images": []}, {"id": 435017, "min_date": "2019-10-10T11:24:00Z", "max_date": "2019-10-10T11:40:00Z", "count_points": 2, "latitude": 49.6647, "longitude": 28.72547, "city": "Kozyatyn", "images": []}, {"id": 435018, "min_date": "2019-10-10T11:24:00Z", "max_date": "2019-10-10T11:24:00Z", "count_points": 1, "latitude": 48.50186, "longitude": 36.42072, "city": "Petropavlivka", "images": []}, {"id": 435019, "min_date": "2019-10-10T11:24:00Z", "max_date": "2019-10-10T11:24:00Z", "count_points": 4, "latitude": 49.82401, "longitude": 37.5763, "city": "Dvorichna", "images": []}, {"id": 435020, "min_date": "2019-10-10T11:24:00Z", "max_date": "2019-10-12T10:42:00Z", "count_points": 2, "latitude": 49.1406, "longitude": 37.22363, "city": "Izyum", "images": []}, {"id": 435021, "min_date": "2019-10-10T11:24:00Z", "max_date": "2019-10-10T11:24:00Z", "count_points": 2, "latitude": 48.28645, "longitude": 39.57161, "city": "Krasnodon", "images": []}, {"id": 435022, "min_date": "2019-10-10T11:24:00Z", "max_date": "2019-10-10T11:24:00Z", "count_points": 1, "latitude": 49.09446, "longitude": 29.59451, "city": "Orativ", "images": []}, {"id": 435023, "min_date": "2019-10-10T11:24:00Z", "max_date": "2019-10-13T10:33:00Z", "count_points": 6, "latitude": 48.63079, "longitude": 30.82873, "city": "Novoarkhanhel\u2019s\u2019k", "images": []}, {"id": 435024, "min_date": "2019-10-10T11:24:00Z", "max_date": "2019-10-10T11:40:00Z", "count_points": 7, "latitude": 49.72105, "longitude": 30.67559, "city": "Karapyshi", "images": []}, {"id": 435025, "min_date": "2019-10-10T11:24:00Z", "max_date": "2019-10-10T11:24:00Z", "count_points": 1, "latitude": 48.54875, "longitude": 29.5583, "city": "Viytivka", "images": []}, {"id": 435026, "min_date": "2019-10-10T11:24:00Z", "max_date": "2019-10-10T11:24:00Z", "count_points": 3, "latitude": 48.54873, "longitude": 29.51767, "city": "Viytivka", "images": []}, {"id": 435027, "min_date": "2019-10-10T11:24:00Z", "max_date": "2019-10-10T11:24:00Z", "count_points": 6, "latitude": 48.65016, "longitude": 28.88965, "city": "Tulchyn", "images": []}, {"id": 435028, "min_date": "2019-10-10T11:24:00Z", "max_date": "2019-10-10T11:24:00Z", "count_points": 5, "latitude": 48.88772, "longitude": 37.2075, "city": "Barvinkove", "images": []}, {"id": 435029, "min_date": "2019-10-10T11:24:00Z", "max_date": "2019-10-10T11:24:00Z", "count_points": 2, "latitude": 48.62268, "longitude": 29.76628, "city": "Teplyk", "images": []}, {"id": 435030, "min_date": "2019-10-10T11:24:00Z", "max_date": "2019-10-10T11:40:00Z", "count_points": 5, "latitude": 48.56645, "longitude": 30.02557, "city": "Verkhnyachka", "images": []}, {"id": 435031, "min_date": "2019-10-10T11:24:00Z", "max_date": "2019-10-10T11:40:00Z", "count_points": 6, "latitude": 48.92746, "longitude": 31.14722, "city": "Yurkivka", "images": []}, {"id": 435032, "min_date": "2019-10-10T11:24:00Z", "max_date": "2019-10-10T11:24:00Z", "count_points": 1, "latitude": 48.6521, "longitude": 29.96782, "city": "Khrystynivka", "images": []}, {"id": 435033, "min_date": "2019-10-10T11:24:00Z", "max_date": "2019-10-10T11:40:00Z", "count_points": 6, "latitude": 48.23769, "longitude": 30.00771, "city": "Zavallya", "images": []}, {"id": 435034, "min_date": "2019-10-10T11:24:00Z", "max_date": "2019-10-10T11:24:00Z", "count_points": 1, "latitude": 49.32056, "longitude": 25.55456, "city": "Mikulintsy", "images": []}, {"id": 435035, "min_date": "2019-10-10T11:24:00Z", "max_date": "2019-10-12T10:42:00Z", "count_points": 5, "latitude": 48.8281, "longitude": 33.62627, "city": "Kamennyye Potoki", "images": []}, {"id": 435036, "min_date": "2019-10-10T11:24:00Z", "max_date": "2019-10-10T11:40:00Z", "count_points": 3, "latitude": 49.7203, "longitude": 27.04321, "city": "Krasyliv", "images": []}, {"id": 435037, "min_date": "2019-10-10T11:24:00Z", "max_date": "2019-10-13T10:24:00Z", "count_points": 3, "latitude": 48.16438, "longitude": 29.98577, "city": "Zavallya", "images": []}, {"id": 435038, "min_date": "2019-10-10T11:24:00Z", "max_date": "2019-10-10T11:40:00Z", "count_points": 5, "latitude": 48.37757, "longitude": 31.34225, "city": "Dobrovelychkivka", "images": []}, {"id": 435039, "min_date": "2019-10-10T11:24:00Z", "max_date": "2019-10-10T11:24:00Z", "count_points": 4, "latitude": 48.41041, "longitude": 29.98641, "city": "Hayvoron", "images": []}, {"id": 435040, "min_date": "2019-10-10T11:24:00Z", "max_date": "2019-10-13T10:24:00Z", "count_points": 2, "latitude": 48.48568, "longitude": 29.87009, "city": "Hayvoron", "images": []}, {"id": 435041, "min_date": "2019-10-10T11:24:00Z", "max_date": "2019-10-10T11:24:00Z", "count_points": 3, "latitude": 48.44053, "longitude": 29.58415, "city": "Viytivka", "images": []}, {"id": 435042, "min_date": "2019-10-10T11:24:00Z", "max_date": "2019-10-10T10:02:00Z", "count_points": 7, "latitude": 48.1528, "longitude": 29.69941, "city": "Peschana", "images": []}, {"id": 435043, "min_date": "2019-10-10T11:24:00Z", "max_date": "2019-10-10T11:24:00Z", "count_points": 1, "latitude": 48.29503, "longitude": 30.99402, "city": "Vil\u2019shanka", "images": []}, {"id": 435044, "min_date": "2019-10-10T11:24:00Z", "max_date": "2019-10-10T11:24:00Z", "count_points": 1, "latitude": 47.96746, "longitude": 29.81416, "city": "Peschana", "images": []}, {"id": 435045, "min_date": "2019-10-10T11:24:00Z", "max_date": "2019-10-10T11:24:00Z", "count_points": 1, "latitude": 48.21085, "longitude": 30.80935, "city": "Vil\u2019shanka", "images": []}, {"id": 435046, "min_date": "2019-10-10T11:24:00Z", "max_date": "2019-10-10T11:24:00Z", "count_points": 2, "latitude": 48.02976, "longitude": 29.61067, "city": "Balta", "images": []}, {"id": 435047, "min_date": "2019-10-10T11:24:00Z", "max_date": "2019-10-10T11:24:00Z", "count_points": 1, "latitude": 48.28616, "longitude": 30.33991, "city": "Blahovishchens\u2019ke", "images": []}, {"id": 435048, "min_date": "2019-10-10T11:24:00Z", "max_date": "2019-10-13T10:33:00Z", "count_points": 6, "latitude": 47.94854, "longitude": 28.97356, "city": "Zagnitkiv", "images": []}, {"id": 435049, "min_date": "2019-10-10T11:24:00Z", "max_date": "2019-10-12T10:42:00Z", "count_points": 4, "latitude": 48.32515, "longitude": 31.57923, "city": "Novoukrayinka", "images": []}, {"id": 435050, "min_date": "2019-10-10T11:24:00Z", "max_date": "2019-10-10T11:24:00Z", "count_points": 1, "latitude": 49.47881, "longitude": 24.22742, "city": "Khodoriv", "images": []}, {"id": 435051, "min_date": "2019-10-10T11:24:00Z", "max_date": "2019-10-10T11:24:00Z", "count_points": 4, "latitude": 48.01681, "longitude": 30.28902, "city": "Kryve Ozero", "images": []}, {"id": 435052, "min_date": "2019-10-10T11:24:00Z", "max_date": "2019-10-10T11:24:00Z", "count_points": 2, "latitude": 48.02948, "longitude": 29.97773, "city": "Savran", "images": []}, {"id": 435053, "min_date": "2019-10-10T11:24:00Z", "max_date": "2019-10-10T11:24:00Z", "count_points": 4, "latitude": 48.74125, "longitude": 27.7314, "city": "Kopayhorod", "images": []}, {"id": 435054, "min_date": "2019-10-10T11:24:00Z", "max_date": "2019-10-10T11:24:00Z", "count_points": 1, "latitude": 49.13483, "longitude": 27.73349, "city": "Bar", "images": []}, {"id": 435055, "min_date": "2019-10-10T11:24:00Z", "max_date": "2019-10-10T11:24:00Z", "count_points": 2, "latitude": 49.58726, "longitude": 27.47685, "city": "Stara Syniava", "images": []}, {"id": 435056, "min_date": "2019-10-10T11:24:00Z", "max_date": "2019-10-10T11:24:00Z", "count_points": 1, "latitude": 49.56383, "longitude": 28.03161, "city": "Khmilnyk", "images": []}, {"id": 435057, "min_date": "2019-10-10T11:24:00Z", "max_date": "2019-10-10T11:40:00Z", "count_points": 2, "latitude": 48.30622, "longitude": 30.71498, "city": "Vil\u2019shanka", "images": []}, {"id": 435058, "min_date": "2019-10-10T11:24:00Z", "max_date": "2019-10-10T11:24:00Z", "count_points": 2, "latitude": 48.41748, "longitude": 39.21399, "city": "Lutuhyne", "images": []}, {"id": 435059, "min_date": "2019-10-10T11:24:00Z", "max_date": "2019-10-10T11:24:00Z", "count_points": 1, "latitude": 48.93058, "longitude": 34.97951, "city": "Mahdalynivka", "images": []}, {"id": 435060, "min_date": "2019-10-10T23:36:00Z", "max_date": "2019-10-10T23:36:00Z", "count_points": 1, "latitude": 48.43258, "longitude": 25.64227, "city": "Sniatyn", "images": []}, {"id": 435061, "min_date": "2019-10-11T09:24:00Z", "max_date": "2019-10-11T09:00:00Z", "count_points": 3, "latitude": 49.52434, "longitude": 33.01619, "city": "Semenivka", "images": []}, {"id": 435062, "min_date": "2019-10-11T09:24:00Z", "max_date": "2019-10-11T09:24:00Z", "count_points": 1, "latitude": 48.80691, "longitude": 32.81862, "city": "Dmytrivka", "images": []}, {"id": 435063, "min_date": "2019-10-11T09:24:00Z", "max_date": "2019-10-11T10:45:00Z", "count_points": 3, "latitude": 50.51474, "longitude": 33.0626, "city": "Sribne", "images": []}, {"id": 435064, "min_date": "2019-10-11T09:24:00Z", "max_date": "2019-10-13T08:47:00Z", "count_points": 6, "latitude": 49.92832, "longitude": 34.15804, "city": "Shyshaky", "images": []}, {"id": 435065, "min_date": "2019-10-11T09:24:00Z", "max_date": "2019-10-11T09:24:00Z", "count_points": 2, "latitude": 48.49475, "longitude": 32.73511, "city": "Novhorodka", "images": []}, {"id": 435066, "min_date": "2019-10-11T09:24:00Z", "max_date": "2019-10-11T08:59:00Z", "count_points": 2, "latitude": 51.29386, "longitude": 32.03992, "city": "Kruty", "images": []}, {"id": 435067, "min_date": "2019-10-11T09:24:00Z", "max_date": "2019-10-11T09:24:00Z", "count_points": 1, "latitude": 51.07461, "longitude": 33.7571, "city": "Buryn\u2019", "images": []}, {"id": 435068, "min_date": "2019-10-11T09:24:00Z", "max_date": "2019-10-11T09:00:00Z", "count_points": 2, "latitude": 50.69521, "longitude": 31.90816, "city": "Zgurovka", "images": []}, {"id": 435069, "min_date": "2019-10-11T11:00:00Z", "max_date": "2019-10-11T11:00:00Z", "count_points": 1, "latitude": 50.09827, "longitude": 32.575, "city": "Hrebinka", "images": []}, {"id": 435070, "min_date": "2019-10-11T11:00:00Z", "max_date": "2019-10-11T11:00:00Z", "count_points": 1, "latitude": 49.33134, "longitude": 34.72118, "city": "Mashivka", "images": []}, {"id": 435071, "min_date": "2019-10-11T11:00:00Z", "max_date": "2019-10-13T10:33:00Z", "count_points": 19, "latitude": 49.90395, "longitude": 32.98926, "city": "Lubny", "images": []}, {"id": 435072, "min_date": "2019-10-11T11:00:00Z", "max_date": "2019-10-11T11:00:00Z", "count_points": 1, "latitude": 48.63523, "longitude": 34.63044, "city": "Petrykivka", "images": []}, {"id": 435073, "min_date": "2019-10-11T11:00:00Z", "max_date": "2019-10-11T11:00:00Z", "count_points": 2, "latitude": 48.22564, "longitude": 26.15966, "city": "Boyany", "images": []}, {"id": 435074, "min_date": "2019-10-11T11:00:00Z", "max_date": "2019-10-11T11:00:00Z", "count_points": 1, "latitude": 50.30313, "longitude": 29.53499, "city": "Brusyliv", "images": []}, {"id": 435075, "min_date": "2019-10-11T11:00:00Z", "max_date": "2019-10-11T11:00:00Z", "count_points": 1, "latitude": 48.48037, "longitude": 26.79194, "city": "Kel\u2019mentsi", "images": []}, {"id": 435076, "min_date": "2019-10-11T11:00:00Z", "max_date": "2019-10-11T11:00:00Z", "count_points": 1, "latitude": 48.37348, "longitude": 22.46835, "city": "Batiovo", "images": []}, {"id": 435077, "min_date": "2019-10-11T11:00:00Z", "max_date": "2019-10-13T10:33:00Z", "count_points": 7, "latitude": 49.02158, "longitude": 26.74957, "city": "Dunayivtsi", "images": []}, {"id": 435078, "min_date": "2019-10-11T11:00:00Z", "max_date": "2019-10-12T11:28:00Z", "count_points": 3, "latitude": 49.00963, "longitude": 26.10701, "city": "Husiatyn", "images": []}, {"id": 435079, "min_date": "2019-10-11T11:00:00Z", "max_date": "2019-10-11T11:00:00Z", "count_points": 4, "latitude": 50.0102, "longitude": 33.72536, "city": "Myrhorod", "images": []}, {"id": 435080, "min_date": "2019-10-11T11:00:00Z", "max_date": "2019-10-11T11:00:00Z", "count_points": 2, "latitude": 49.23597, "longitude": 29.85269, "city": "Tsibulev", "images": []}, {"id": 435081, "min_date": "2019-10-11T11:00:00Z", "max_date": "2019-10-11T11:00:00Z", "count_points": 4, "latitude": 48.75991, "longitude": 31.45455, "city": "Novomyrhorod", "images": []}, {"id": 435082, "min_date": "2019-10-11T11:00:00Z", "max_date": "2019-10-11T10:45:00Z", "count_points": 4, "latitude": 48.74945, "longitude": 31.40664, "city": "Novomyrhorod", "images": []}, {"id": 435083, "min_date": "2019-10-11T11:00:00Z", "max_date": "2019-10-11T11:00:00Z", "count_points": 1, "latitude": 49.54538, "longitude": 28.88239, "city": "Kozyatyn", "images": []}, {"id": 435084, "min_date": "2019-10-11T11:00:00Z", "max_date": "2019-10-11T11:00:00Z", "count_points": 1, "latitude": 48.88629, "longitude": 32.56311, "city": "Dmytrivka", "images": []}, {"id": 435085, "min_date": "2019-10-11T11:00:00Z", "max_date": "2019-10-11T11:00:00Z", "count_points": 1, "latitude": 49.72539, "longitude": 32.38021, "city": "Chornobay", "images": []}, {"id": 435086, "min_date": "2019-10-11T11:00:00Z", "max_date": "2019-10-11T11:00:00Z", "count_points": 2, "latitude": 48.75719, "longitude": 31.57094, "city": "Novomyrhorod", "images": []}, {"id": 435087, "min_date": "2019-10-11T11:00:00Z", "max_date": "2019-10-11T11:00:00Z", "count_points": 1, "latitude": 48.6695, "longitude": 31.89385, "city": "Mala Vyska", "images": []}, {"id": 435088, "min_date": "2019-10-11T11:00:00Z", "max_date": "2019-10-11T11:00:00Z", "count_points": 1, "latitude": 48.4525, "longitude": 33.03097, "city": "Novyy Starodub", "images": []}, {"id": 435089, "min_date": "2019-10-11T11:00:00Z", "max_date": "2019-10-11T11:00:00Z", "count_points": 1, "latitude": 49.22717, "longitude": 25.38532, "city": "Buchach", "images": []}, {"id": 435090, "min_date": "2019-10-11T11:00:00Z", "max_date": "2019-10-11T10:45:00Z", "count_points": 5, "latitude": 49.29253, "longitude": 26.14683, "city": "Hrymayliv", "images": []}, {"id": 435091, "min_date": "2019-10-11T11:00:00Z", "max_date": "2019-10-11T11:00:00Z", "count_points": 1, "latitude": 49.17038, "longitude": 28.31803, "city": "Brailiv", "images": []}, {"id": 435092, "min_date": "2019-10-11T11:00:00Z", "max_date": "2019-10-11T11:00:00Z", "count_points": 2, "latitude": 49.17759, "longitude": 34.43176, "city": "Novi Sanzhary", "images": []}, {"id": 435093, "min_date": "2019-10-11T11:00:00Z", "max_date": "2019-10-11T11:00:00Z", "count_points": 1, "latitude": 50.03776, "longitude": 34.86513, "city": "Kotel\u2019va", "images": []}, {"id": 435094, "min_date": "2019-10-11T11:00:00Z", "max_date": "2019-10-11T11:00:00Z", "count_points": 2, "latitude": 50.31446, "longitude": 28.11582, "city": "Bykivka", "images": []}, {"id": 435095, "min_date": "2019-10-11T11:00:00Z", "max_date": "2019-10-11T10:45:00Z", "count_points": 2, "latitude": 49.03924, "longitude": 35.58987, "city": "Kehychivka", "images": []}, {"id": 435096, "min_date": "2019-10-11T11:06:00Z", "max_date": "2019-10-11T11:06:00Z", "count_points": 1, "latitude": 51.46428, "longitude": 24.67244, "city": "Stara Vyzhivka", "images": []}, {"id": 435097, "min_date": "2019-10-11T11:06:00Z", "max_date": "2019-10-11T11:06:00Z", "count_points": 1, "latitude": 51.09718, "longitude": 24.65936, "city": "Kovel", "images": []}, {"id": 435098, "min_date": "2019-10-11T11:06:00Z", "max_date": "2019-10-11T11:06:00Z", "count_points": 1, "latitude": 51.29112, "longitude": 29.20988, "city": "Narodychi", "images": []}, {"id": 435099, "min_date": "2019-10-11T11:06:00Z", "max_date": "2019-10-11T11:06:00Z", "count_points": 1, "latitude": 51.63945, "longitude": 25.58003, "city": "Lyubeshiv", "images": []}, {"id": 435100, "min_date": "2019-10-11T23:18:00Z", "max_date": "2019-10-12T00:54:00Z", "count_points": 2, "latitude": 50.08961, "longitude": 35.5969, "city": "Bohodukhiv", "images": []}, {"id": 435101, "min_date": "2019-10-11T23:18:00Z", "max_date": "2019-10-11T23:18:00Z", "count_points": 1, "latitude": 50.36195, "longitude": 31.07741, "city": "Kirove", "images": []}, {"id": 435102, "min_date": "2019-10-11T23:18:00Z", "max_date": "2019-10-11T23:18:00Z", "count_points": 1, "latitude": 44.82511, "longitude": 33.65063, "city": "Vilino", "images": []}, {"id": 435103, "min_date": "2019-10-11T23:18:00Z", "max_date": "2019-10-12T01:00:00Z", "count_points": 3, "latitude": 46.11219, "longitude": 30.31927, "city": "Shabo", "images": []}, {"id": 435104, "min_date": "2019-10-12T00:54:00Z", "max_date": "2019-10-12T00:54:00Z", "count_points": 2, "latitude": 50.30669, "longitude": 30.29614, "city": "Boyarka", "images": []}, {"id": 435105, "min_date": "2019-10-12T10:42:00Z", "max_date": "2019-10-12T10:42:00Z", "count_points": 2, "latitude": 49.6501, "longitude": 37.55937, "city": "Kupjansk", "images": []}, {"id": 435106, "min_date": "2019-10-12T10:42:00Z", "max_date": "2019-10-12T10:42:00Z", "count_points": 1, "latitude": 45.2365, "longitude": 34.28664, "city": "Kolodeznoye", "images": []}, {"id": 435107, "min_date": "2019-10-12T10:42:00Z", "max_date": "2019-10-12T10:42:00Z", "count_points": 1, "latitude": 45.2914, "longitude": 34.6721, "city": "Zhemchuzhina", "images": []}, {"id": 435108, "min_date": "2019-10-12T10:42:00Z", "max_date": "2019-10-12T10:42:00Z", "count_points": 1, "latitude": 47.26864, "longitude": 34.89155, "city": "Mala Bilozerka", "images": []}, {"id": 435109, "min_date": "2019-10-12T10:42:00Z", "max_date": "2019-10-09T09:13:00Z", "count_points": 3, "latitude": 45.32587, "longitude": 28.85443, "city": "Izmayil", "images": []}, {"id": 435110, "min_date": "2019-10-12T10:42:00Z", "max_date": "2019-10-12T10:42:00Z", "count_points": 1, "latitude": 48.21887, "longitude": 30.22201, "city": "Blahovishchens\u2019ke", "images": []}, {"id": 435111, "min_date": "2019-10-12T10:42:00Z", "max_date": "2019-10-12T11:29:00Z", "count_points": 3, "latitude": 51.83452, "longitude": 25.24847, "city": "Lyubeshiv", "images": []}, {"id": 435112, "min_date": "2019-10-12T10:42:00Z", "max_date": "2019-10-12T11:28:00Z", "count_points": 2, "latitude": 49.933, "longitude": 26.30053, "city": "Lyakhovtsy", "images": []}, {"id": 435113, "min_date": "2019-10-12T10:42:00Z", "max_date": "2019-10-12T10:42:00Z", "count_points": 4, "latitude": 49.66048, "longitude": 33.42261, "city": "Khorol", "images": []}, {"id": 435114, "min_date": "2019-10-12T10:42:00Z", "max_date": "2019-10-12T10:42:00Z", "count_points": 1, "latitude": 49.67479, "longitude": 35.31191, "city": "Chutove", "images": []}, {"id": 435115, "min_date": "2019-10-12T10:42:00Z", "max_date": "2019-10-12T10:42:00Z", "count_points": 1, "latitude": 49.49674, "longitude": 33.945, "city": "Reshetylivka", "images": []}, {"id": 435116, "min_date": "2019-10-12T10:42:00Z", "max_date": "2019-10-12T09:42:00Z", "count_points": 7, "latitude": 49.74992, "longitude": 33.39605, "city": "Khorol", "images": []}, {"id": 435117, "min_date": "2019-10-12T10:42:00Z", "max_date": "2019-10-12T09:43:00Z", "count_points": 13, "latitude": 48.37616, "longitude": 31.55087, "city": "Novoukrayinka", "images": []}, {"id": 435118, "min_date": "2019-10-12T10:42:00Z", "max_date": "2019-10-12T10:42:00Z", "count_points": 1, "latitude": 47.92316, "longitude": 30.13678, "city": "Lyubashivka", "images": []}, {"id": 435119, "min_date": "2019-10-12T10:42:00Z", "max_date": "2019-10-12T10:42:00Z", "count_points": 1, "latitude": 51.00634, "longitude": 24.59893, "city": "Turiys\u2019k", "images": []}, {"id": 435120, "min_date": "2019-10-12T10:42:00Z", "max_date": "2019-10-12T10:42:00Z", "count_points": 1, "latitude": 47.72127, "longitude": 29.26928, "city": "Slobidka", "images": []}, {"id": 435121, "min_date": "2019-10-12T10:42:00Z", "max_date": "2019-10-12T10:42:00Z", "count_points": 1, "latitude": 51.50998, "longitude": 25.06345, "city": "Kamin-Kashyrskyi", "images": []}, {"id": 435122, "min_date": "2019-10-12T10:42:00Z", "max_date": "2019-10-13T10:33:00Z", "count_points": 4, "latitude": 49.63889, "longitude": 33.89624, "city": "Reshetylivka", "images": []}, {"id": 435123, "min_date": "2019-10-12T10:42:00Z", "max_date": "2019-10-12T10:42:00Z", "count_points": 2, "latitude": 48.92968, "longitude": 35.3556, "city": "Hubynykha", "images": []}, {"id": 435124, "min_date": "2019-10-12T10:42:00Z", "max_date": "2019-10-12T10:42:00Z", "count_points": 1, "latitude": 49.93336, "longitude": 33.80918, "city": "Velyki Sorochyntsi", "images": []}, {"id": 435125, "min_date": "2019-10-12T10:42:00Z", "max_date": "2019-10-13T08:48:00Z", "count_points": 2, "latitude": 49.00941, "longitude": 33.87068, "city": "Kozel\u2019shchyna", "images": []}, {"id": 435126, "min_date": "2019-10-12T10:42:00Z", "max_date": "2019-10-12T09:50:00Z", "count_points": 3, "latitude": 49.63619, "longitude": 38.71481, "city": "Pavlivka", "images": []}, {"id": 435127, "min_date": "2019-10-12T10:42:00Z", "max_date": "2019-10-12T10:42:00Z", "count_points": 4, "latitude": 48.86142, "longitude": 33.40913, "city": "Onufriyivka", "images": []}, {"id": 435128, "min_date": "2019-10-12T10:42:00Z", "max_date": "2019-10-09T09:13:00Z", "count_points": 2, "latitude": 48.08023, "longitude": 30.725, "city": "Pervomays\u2019k", "images": []}, {"id": 435129, "min_date": "2019-10-12T10:42:00Z", "max_date": "2019-10-13T10:33:00Z", "count_points": 8, "latitude": 49.3308, "longitude": 34.17278, "city": "Novi Sanzhary", "images": []}, {"id": 435130, "min_date": "2019-10-12T10:42:00Z", "max_date": "2019-10-12T10:42:00Z", "count_points": 1, "latitude": 49.42547, "longitude": 34.2319, "city": "Novi Sanzhary", "images": []}, {"id": 435131, "min_date": "2019-10-12T10:42:00Z", "max_date": "2019-10-12T10:42:00Z", "count_points": 3, "latitude": 48.42746, "longitude": 30.27284, "city": "Blahovishchens\u2019ke", "images": []}, {"id": 435132, "min_date": "2019-10-12T10:42:00Z", "max_date": "2019-10-12T09:50:00Z", "count_points": 9, "latitude": 48.21645, "longitude": 31.67711, "city": "Rivne", "images": []}, {"id": 435133, "min_date": "2019-10-12T10:42:00Z", "max_date": "2019-10-12T10:42:00Z", "count_points": 1, "latitude": 48.33623, "longitude": 32.4784, "city": "Novhorodka", "images": []}, {"id": 435134, "min_date": "2019-10-12T10:42:00Z", "max_date": "2019-10-12T10:42:00Z", "count_points": 1, "latitude": 47.80109, "longitude": 30.18524, "city": "Lyubashivka", "images": []}, {"id": 435135, "min_date": "2019-10-12T10:42:00Z", "max_date": "2019-10-12T10:42:00Z", "count_points": 1, "latitude": 48.45599, "longitude": 29.76622, "city": "Hayvoron", "images": []}, {"id": 435136, "min_date": "2019-10-12T10:42:00Z", "max_date": "2019-10-12T10:42:00Z", "count_points": 2, "latitude": 45.75895, "longitude": 34.48464, "city": "Zarechnoye", "images": []}, {"id": 435137, "min_date": "2019-10-12T10:42:00Z", "max_date": "2019-10-12T10:42:00Z", "count_points": 1, "latitude": 45.44716, "longitude": 34.27395, "city": "Mar\u2019yanovka", "images": []}, {"id": 435138, "min_date": "2019-10-12T10:42:00Z", "max_date": "2019-10-12T10:42:00Z", "count_points": 1, "latitude": 48.25875, "longitude": 28.43221, "city": "Klembivka", "images": []}, {"id": 435139, "min_date": "2019-10-12T10:42:00Z", "max_date": "2019-10-13T12:06:00Z", "count_points": 12, "latitude": 47.64901, "longitude": 29.39459, "city": "Okny", "images": []}, {"id": 435140, "min_date": "2019-10-12T10:42:00Z", "max_date": "2019-10-12T10:42:00Z", "count_points": 1, "latitude": 48.52237, "longitude": 25.99443, "city": "Zastavna", "images": []}, {"id": 435141, "min_date": "2019-10-12T10:42:00Z", "max_date": "2019-10-13T10:33:00Z", "count_points": 6, "latitude": 48.73082, "longitude": 26.49636, "city": "Smotrych", "images": []}, {"id": 435142, "min_date": "2019-10-12T10:42:00Z", "max_date": "2019-10-12T09:43:00Z", "count_points": 2, "latitude": 47.4975, "longitude": 29.60653, "city": "Okny", "images": []}, {"id": 435143, "min_date": "2019-10-12T10:42:00Z", "max_date": "2019-10-12T10:42:00Z", "count_points": 1, "latitude": 48.38908, "longitude": 22.69515, "city": "Mukacheve", "images": []}, {"id": 435144, "min_date": "2019-10-12T10:42:00Z", "max_date": "2019-10-12T10:42:00Z", "count_points": 1, "latitude": 49.03376, "longitude": 26.7016, "city": "Dunayivtsi", "images": []}, {"id": 435145, "min_date": "2019-10-12T10:42:00Z", "max_date": "2019-10-12T10:42:00Z", "count_points": 1, "latitude": 47.11538, "longitude": 31.90673, "city": "Olshanskoye", "images": []}, {"id": 435146, "min_date": "2019-10-12T10:42:00Z", "max_date": "2019-10-12T10:42:00Z", "count_points": 2, "latitude": 49.41538, "longitude": 31.08846, "city": "Stebl\u00ebv", "images": []}, {"id": 435147, "min_date": "2019-10-12T10:42:00Z", "max_date": "2019-10-12T09:50:00Z", "count_points": 4, "latitude": 49.48458, "longitude": 37.03239, "city": "Savyntsi", "images": []}, {"id": 435148, "min_date": "2019-10-12T10:42:00Z", "max_date": "2019-10-12T10:42:00Z", "count_points": 1, "latitude": 49.69493, "longitude": 28.49107, "city": "Berdychiv", "images": []}, {"id": 435149, "min_date": "2019-10-12T10:42:00Z", "max_date": "2019-10-12T10:42:00Z", "count_points": 1, "latitude": 49.34539, "longitude": 30.96954, "city": "Stebl\u00ebv", "images": []}, {"id": 435150, "min_date": "2019-10-12T10:42:00Z", "max_date": "2019-10-12T10:42:00Z", "count_points": 4, "latitude": 48.54561, "longitude": 32.11991, "city": "Kropyvnytskyi", "images": []}, {"id": 435151, "min_date": "2019-10-12T10:42:00Z", "max_date": "2019-10-12T10:42:00Z", "count_points": 3, "latitude": 48.53736, "longitude": 32.01073, "city": "Kropyvnytskyi", "images": []}, {"id": 435152, "min_date": "2019-10-12T10:42:00Z", "max_date": "2019-10-12T10:42:00Z", "count_points": 2, "latitude": 49.28726, "longitude": 35.82897, "city": "Kehychivka", "images": []}, {"id": 435153, "min_date": "2019-10-12T10:42:00Z", "max_date": "2019-10-12T10:42:00Z", "count_points": 1, "latitude": 49.57665, "longitude": 31.06986, "city": "Myronivka", "images": []}, {"id": 435154, "min_date": "2019-10-12T10:42:00Z", "max_date": "2019-10-12T10:42:00Z", "count_points": 1, "latitude": 49.62396, "longitude": 31.28717, "city": "Korsun-Shevchenkivskyi", "images": []}, {"id": 435155, "min_date": "2019-10-12T10:42:00Z", "max_date": "2019-10-12T10:42:00Z", "count_points": 1, "latitude": 49.76249, "longitude": 37.42927, "city": "Kupjansk", "images": []}, {"id": 435156, "min_date": "2019-10-12T10:42:00Z", "max_date": "2019-10-12T10:42:00Z", "count_points": 23, "latitude": 49.19032, "longitude": 33.62941, "city": "Horishni Plavni", "images": []}, {"id": 435157, "min_date": "2019-10-12T10:42:00Z", "max_date": "2019-10-12T10:42:00Z", "count_points": 1, "latitude": 49.16927, "longitude": 26.93951, "city": "Yarmolyntsi", "images": []}, {"id": 435158, "min_date": "2019-10-12T10:42:00Z", "max_date": "2019-10-12T10:42:00Z", "count_points": 1, "latitude": 47.41127, "longitude": 29.38026, "city": "Okny", "images": []}, {"id": 435159, "min_date": "2019-10-12T10:42:00Z", "max_date": "2019-10-12T10:42:00Z", "count_points": 2, "latitude": 49.32912, "longitude": 26.52162, "city": "Horodok", "images": []}, {"id": 435160, "min_date": "2019-10-12T10:42:00Z", "max_date": "2019-10-12T10:42:00Z", "count_points": 1, "latitude": 50.4537, "longitude": 33.84695, "city": "Lypova Dolyna", "images": []}, {"id": 435161, "min_date": "2019-10-12T10:42:00Z", "max_date": "2019-10-12T11:28:00Z", "count_points": 7, "latitude": 49.34171, "longitude": 26.45988, "city": "Horodok", "images": []}, {"id": 435162, "min_date": "2019-10-12T10:42:00Z", "max_date": "2019-10-12T10:42:00Z", "count_points": 1, "latitude": 49.62008, "longitude": 38.23663, "city": "Nyzhnya Duvanka", "images": []}, {"id": 435163, "min_date": "2019-10-12T10:42:00Z", "max_date": "2019-10-12T10:42:00Z", "count_points": 4, "latitude": 48.16784, "longitude": 29.24779, "city": "Chechelnyk", "images": []}, {"id": 435164, "min_date": "2019-10-12T10:42:00Z", "max_date": "2019-10-12T10:42:00Z", "count_points": 1, "latitude": 49.90107, "longitude": 27.05482, "city": "Antoniny", "images": []}, {"id": 435165, "min_date": "2019-10-12T10:42:00Z", "max_date": "2019-10-12T10:42:00Z", "count_points": 1, "latitude": 50.2692, "longitude": 37.44292, "city": "Prykolotne", "images": []}, {"id": 435166, "min_date": "2019-10-12T10:42:00Z", "max_date": "2019-10-12T10:42:00Z", "count_points": 2, "latitude": 48.316, "longitude": 33.92241, "city": "Vyshneve", "images": []}, {"id": 435167, "min_date": "2019-10-12T10:42:00Z", "max_date": "2019-10-12T10:42:00Z", "count_points": 1, "latitude": 48.44078, "longitude": 33.54029, "city": "Zhovti Vody", "images": []}, {"id": 435168, "min_date": "2019-10-12T10:42:00Z", "max_date": "2019-10-13T10:24:00Z", "count_points": 2, "latitude": 48.90678, "longitude": 26.45625, "city": "Chemerivtsi", "images": []}, {"id": 435169, "min_date": "2019-10-12T10:42:00Z", "max_date": "2019-10-12T10:42:00Z", "count_points": 1, "latitude": 48.92701, "longitude": 26.38437, "city": "Chemerivtsi", "images": []}, {"id": 435170, "min_date": "2019-10-12T10:42:00Z", "max_date": "2019-10-12T10:42:00Z", "count_points": 1, "latitude": 48.38357, "longitude": 34.06388, "city": "Vyshneve", "images": []}, {"id": 435171, "min_date": "2019-10-12T10:42:00Z", "max_date": "2019-10-12T10:42:00Z", "count_points": 1, "latitude": 49.08351, "longitude": 25.31226, "city": "Buchach", "images": []}, {"id": 435172, "min_date": "2019-10-12T10:42:00Z", "max_date": "2019-10-12T11:28:00Z", "count_points": 4, "latitude": 49.09802, "longitude": 26.6785, "city": "Horodok", "images": []}, {"id": 435173, "min_date": "2019-10-12T10:42:00Z", "max_date": "2019-10-12T09:43:00Z", "count_points": 2, "latitude": 48.26819, "longitude": 32.0681, "city": "Kompaniyivka", "images": []}, {"id": 435174, "min_date": "2019-10-12T10:42:00Z", "max_date": "2019-10-13T10:33:00Z", "count_points": 14, "latitude": 48.21852, "longitude": 30.1073, "city": "Zavallya", "images": []}, {"id": 435175, "min_date": "2019-10-12T10:42:00Z", "max_date": "2019-10-12T10:42:00Z", "count_points": 1, "latitude": 47.88623, "longitude": 30.65929, "city": "Vradiyivka", "images": []}, {"id": 435176, "min_date": "2019-10-12T10:42:00Z", "max_date": "2019-10-12T10:42:00Z", "count_points": 1, "latitude": 48.34426, "longitude": 31.1003, "city": "Dobrovelychkivka", "images": []}, {"id": 435177, "min_date": "2019-10-12T22:54:00Z", "max_date": "2019-10-13T10:33:00Z", "count_points": 7, "latitude": 51.08602, "longitude": 34.14344, "city": "Vorozhba", "images": []}, {"id": 435178, "min_date": "2019-10-12T22:54:00Z", "max_date": "2019-10-13T22:36:00Z", "count_points": 2, "latitude": 51.17315, "longitude": 34.14028, "city": "Vorozhba", "images": []}, {"id": 435179, "min_date": "2019-10-12T22:54:00Z", "max_date": "2019-10-12T22:54:00Z", "count_points": 1, "latitude": 50.65851, "longitude": 34.22676, "city": "Lebedyn", "images": []}, {"id": 435180, "min_date": "2019-10-12T22:54:00Z", "max_date": "2019-10-13T10:33:00Z", "count_points": 26, "latitude": 50.08121, "longitude": 31.52518, "city": "Pereyaslav-Khmel\u2019nyts\u2019kyy", "images": []}, {"id": 435181, "min_date": "2019-10-12T22:54:00Z", "max_date": "2019-10-12T22:54:00Z", "count_points": 2, "latitude": 50.76009, "longitude": 33.50632, "city": "Romny", "images": []}, {"id": 435182, "min_date": "2019-10-12T22:54:00Z", "max_date": "2019-10-13T19:58:00Z", "count_points": 68, "latitude": 50.17348, "longitude": 32.83397, "city": "Chornukhy", "images": []}, {"id": 435183, "min_date": "2019-10-12T22:54:00Z", "max_date": "2019-10-13T10:33:00Z", "count_points": 9, "latitude": 49.61818, "longitude": 36.56437, "city": "Komsomol\u2019s\u2019ke", "images": []}, {"id": 435184, "min_date": "2019-10-12T22:54:00Z", "max_date": "2019-10-13T00:36:00Z", "count_points": 3, "latitude": 50.30758, "longitude": 31.77416, "city": "Yahotyn", "images": []}, {"id": 435185, "min_date": "2019-10-12T22:54:00Z", "max_date": "2019-10-12T22:54:00Z", "count_points": 1, "latitude": 49.62823, "longitude": 36.42522, "city": "Lyman", "images": []}, {"id": 435186, "min_date": "2019-10-12T22:54:00Z", "max_date": "2019-10-13T10:33:00Z", "count_points": 13, "latitude": 49.50989, "longitude": 30.65945, "city": "Tarashcha", "images": []}, {"id": 435187, "min_date": "2019-10-12T22:54:00Z", "max_date": "2019-10-13T08:47:00Z", "count_points": 9, "latitude": 50.88684, "longitude": 31.87472, "city": "Talalayivka", "images": []}, {"id": 435188, "min_date": "2019-10-12T22:54:00Z", "max_date": "2019-10-13T10:33:00Z", "count_points": 6, "latitude": 50.07225, "longitude": 30.73892, "city": "Trypillia", "images": []}, {"id": 435189, "min_date": "2019-10-12T22:54:00Z", "max_date": "2019-10-12T19:15:00Z", "count_points": 14, "latitude": 51.87565, "longitude": 33.10725, "city": "Novhorod-Sivers\u2019kyy", "images": []}, {"id": 435190, "min_date": "2019-10-12T22:54:00Z", "max_date": "2019-10-12T22:54:00Z", "count_points": 2, "latitude": 51.82717, "longitude": 32.70119, "city": "Kholmy", "images": []}, {"id": 435191, "min_date": "2019-10-12T22:54:00Z", "max_date": "2019-10-13T00:36:00Z", "count_points": 2, "latitude": 51.93834, "longitude": 33.38366, "city": "Shostka", "images": []}, {"id": 435192, "min_date": "2019-10-12T23:00:00Z", "max_date": "2019-10-12T23:00:00Z", "count_points": 2, "latitude": 48.051, "longitude": 29.77707, "city": "Peschana", "images": []}, {"id": 435193, "min_date": "2019-10-12T23:00:00Z", "max_date": "2019-10-13T10:33:00Z", "count_points": 14, "latitude": 49.18025, "longitude": 29.89025, "city": "Tsibulev", "images": []}, {"id": 435194, "min_date": "2019-10-13T00:36:00Z", "max_date": "2019-10-13T00:36:00Z", "count_points": 1, "latitude": 50.46385, "longitude": 26.26123, "city": "Zdovbytsya", "images": []}, {"id": 435195, "min_date": "2019-10-13T00:36:00Z", "max_date": "2019-10-13T10:24:00Z", "count_points": 2, "latitude": 49.85967, "longitude": 30.60798, "city": "Mirovka", "images": []}, {"id": 435196, "min_date": "2019-10-13T00:36:00Z", "max_date": "2019-10-13T00:36:00Z", "count_points": 1, "latitude": 49.38372, "longitude": 29.45865, "city": "Tetiiv", "images": []}, {"id": 435197, "min_date": "2019-10-13T00:36:00Z", "max_date": "2019-10-13T00:36:00Z", "count_points": 1, "latitude": 49.69964, "longitude": 27.11661, "city": "Starokostiantyniv", "images": []}, {"id": 435198, "min_date": "2019-10-13T08:42:00Z", "max_date": "2019-10-13T08:47:00Z", "count_points": 4, "latitude": 50.126, "longitude": 36.4089, "city": "Kulynychi", "images": []}, {"id": 435199, "min_date": "2019-10-13T08:42:00Z", "max_date": "2019-10-13T08:48:00Z", "count_points": 5, "latitude": 47.58992, "longitude": 37.89651, "city": "Starobesheve", "images": []}, {"id": 435200, "min_date": "2019-10-13T08:42:00Z", "max_date": "2019-10-13T08:47:00Z", "count_points": 2, "latitude": 49.75343, "longitude": 38.90675, "city": "Lozno-Oleksandrivka", "images": []}, {"id": 435201, "min_date": "2019-10-13T10:24:00Z", "max_date": "2019-10-13T10:24:00Z", "count_points": 1, "latitude": 49.0744, "longitude": 31.27532, "city": "Shpola", "images": []}, {"id": 435202, "min_date": "2019-10-13T10:24:00Z", "max_date": "2019-10-13T08:48:00Z", "count_points": 3, "latitude": 49.60226, "longitude": 28.71965, "city": "Kozyatyn", "images": []}, {"id": 435203, "min_date": "2019-10-13T10:24:00Z", "max_date": "2019-10-13T08:48:00Z", "count_points": 2, "latitude": 49.04065, "longitude": 29.37409, "city": "Dashiv", "images": []}, {"id": 435204, "min_date": "2019-10-13T10:24:00Z", "max_date": "2019-10-13T10:24:00Z", "count_points": 1, "latitude": 49.3268, "longitude": 28.65119, "city": "Sobolivka", "images": []}, {"id": 435205, "min_date": "2019-10-13T10:24:00Z", "max_date": "2019-10-13T10:24:00Z", "count_points": 3, "latitude": 48.61884, "longitude": 28.98399, "city": "Tulchyn", "images": []}, {"id": 435206, "min_date": "2019-10-13T10:24:00Z", "max_date": "2019-10-13T10:33:00Z", "count_points": 4, "latitude": 48.953, "longitude": 30.9488, "city": "Katerynopil", "images": []}, {"id": 435207, "min_date": "2019-10-13T10:24:00Z", "max_date": "2019-10-13T10:24:00Z", "count_points": 1, "latitude": 49.34026, "longitude": 32.2976, "city": "Chervona Sloboda", "images": []}, {"id": 435208, "min_date": "2019-10-13T10:24:00Z", "max_date": "2019-10-13T10:24:00Z", "count_points": 2, "latitude": 49.25616, "longitude": 29.36972, "city": "Orativ", "images": []}, {"id": 435209, "min_date": "2019-10-13T10:24:00Z", "max_date": "2019-10-13T10:24:00Z", "count_points": 1, "latitude": 49.28007, "longitude": 31.11182, "city": "Stebl\u00ebv", "images": []}, {"id": 435210, "min_date": "2019-10-13T10:24:00Z", "max_date": "2019-10-13T10:33:00Z", "count_points": 3, "latitude": 49.15539, "longitude": 28.7312, "city": "Voronovytsya", "images": []}, {"id": 435211, "min_date": "2019-10-13T10:24:00Z", "max_date": "2019-10-13T10:33:00Z", "count_points": 2, "latitude": 48.52357, "longitude": 30.67006, "city": "Perehonivka", "images": []}, {"id": 435212, "min_date": "2019-10-13T10:24:00Z", "max_date": "2019-10-13T10:24:00Z", "count_points": 1, "latitude": 50.01488, "longitude": 32.95351, "city": "Lubny", "images": []}, {"id": 435213, "min_date": "2019-10-13T10:24:00Z", "max_date": "2019-10-13T10:33:00Z", "count_points": 2, "latitude": 50.25079, "longitude": 32.96085, "city": "Chornukhy", "images": []}, {"id": 435214, "min_date": "2019-10-13T10:24:00Z", "max_date": "2019-10-13T12:06:00Z", "count_points": 2, "latitude": 49.58676, "longitude": 29.20486, "city": "Pohrebyshche", "images": []}, {"id": 435215, "min_date": "2019-10-13T10:24:00Z", "max_date": "2019-10-13T19:58:00Z", "count_points": 12, "latitude": 49.43971, "longitude": 30.54874, "city": "Kalynove", "images": []}, {"id": 435216, "min_date": "2019-10-13T10:24:00Z", "max_date": "2019-10-13T10:24:00Z", "count_points": 1, "latitude": 48.74054, "longitude": 30.90867, "city": "Novoarkhanhel\u2019s\u2019k", "images": []}, {"id": 435217, "min_date": "2019-10-13T10:24:00Z", "max_date": "2019-10-13T10:24:00Z", "count_points": 1, "latitude": 48.90361, "longitude": 30.90934, "city": "Katerynopil", "images": []}, {"id": 435218, "min_date": "2019-10-13T10:24:00Z", "max_date": "2019-10-13T08:48:00Z", "count_points": 2, "latitude": 49.63363, "longitude": 30.62064, "city": "Tarashcha", "images": []}, {"id": 435219, "min_date": "2019-10-13T10:24:00Z", "max_date": "2019-10-13T10:24:00Z", "count_points": 1, "latitude": 48.87686, "longitude": 31.47656, "city": "Lebedyn", "images": []}, {"id": 435220, "min_date": "2019-10-13T10:24:00Z", "max_date": "2019-10-13T10:33:00Z", "count_points": 4, "latitude": 48.61319, "longitude": 30.96099, "city": "Tyshkivka", "images": []}, {"id": 435221, "min_date": "2019-10-13T10:24:00Z", "max_date": "2019-10-13T10:33:00Z", "count_points": 4, "latitude": 49.67148, "longitude": 37.63479, "city": "Kupjansk", "images": []}, {"id": 435222, "min_date": "2019-10-13T10:24:00Z", "max_date": "2019-10-13T10:33:00Z", "count_points": 3, "latitude": 49.36607, "longitude": 37.38508, "city": "Chervonyy Oskil", "images": []}, {"id": 435223, "min_date": "2019-10-13T10:24:00Z", "max_date": "2019-10-13T10:33:00Z", "count_points": 5, "latitude": 49.83094, "longitude": 30.83025, "city": "Kaharlyk", "images": []}, {"id": 435224, "min_date": "2019-10-13T10:24:00Z", "max_date": "2019-10-13T10:33:00Z", "count_points": 3, "latitude": 50.119, "longitude": 32.22753, "city": "Drabiv", "images": []}, {"id": 435225, "min_date": "2019-10-13T10:24:00Z", "max_date": "2019-10-13T10:33:00Z", "count_points": 2, "latitude": 50.162, "longitude": 36.01534, "city": "Derhachi", "images": []}, {"id": 435226, "min_date": "2019-10-13T10:24:00Z", "max_date": "2019-10-13T10:24:00Z", "count_points": 1, "latitude": 49.00039, "longitude": 29.28163, "city": "Illintsi", "images": []}, {"id": 435227, "min_date": "2019-10-13T10:24:00Z", "max_date": "2019-10-13T10:24:00Z", "count_points": 1, "latitude": 49.3284, "longitude": 35.7354, "city": "Kehychivka", "images": []}, {"id": 435228, "min_date": "2019-10-13T10:24:00Z", "max_date": "2019-10-13T10:33:00Z", "count_points": 7, "latitude": 48.5638, "longitude": 29.6244, "city": "Teplyk", "images": []}, {"id": 435229, "min_date": "2019-10-13T10:24:00Z", "max_date": "2019-10-13T10:33:00Z", "count_points": 2, "latitude": 48.97433, "longitude": 29.93797, "city": "Nove-Misto", "images": []}, {"id": 435230, "min_date": "2019-10-13T10:24:00Z", "max_date": "2019-10-13T10:24:00Z", "count_points": 1, "latitude": 48.8825, "longitude": 31.80879, "city": "Kapitanivka", "images": []}, {"id": 435231, "min_date": "2019-10-13T10:24:00Z", "max_date": "2019-10-13T10:33:00Z", "count_points": 3, "latitude": 49.08257, "longitude": 31.87566, "city": "Smila", "images": []}, {"id": 435232, "min_date": "2019-10-13T10:24:00Z", "max_date": "2019-10-13T10:24:00Z", "count_points": 1, "latitude": 49.16369, "longitude": 31.35085, "city": "Horodyshche", "images": []}, {"id": 435233, "min_date": "2019-10-13T10:24:00Z", "max_date": "2019-10-13T10:24:00Z", "count_points": 2, "latitude": 49.66815, "longitude": 37.04433, "city": "Shevchenkove", "images": []}, {"id": 435234, "min_date": "2019-10-13T10:24:00Z", "max_date": "2019-10-13T10:33:00Z", "count_points": 3, "latitude": 48.92686, "longitude": 30.64853, "city": "Talne", "images": []}, {"id": 435235, "min_date": "2019-10-13T10:24:00Z", "max_date": "2019-10-13T10:33:00Z", "count_points": 2, "latitude": 49.98519, "longitude": 31.90922, "city": "Chernyakhivka", "images": []}, {"id": 435236, "min_date": "2019-10-13T10:24:00Z", "max_date": "2019-10-13T10:33:00Z", "count_points": 3, "latitude": 48.93212, "longitude": 30.00373, "city": "Verkhnyachka", "images": []}, {"id": 435237, "min_date": "2019-10-13T10:24:00Z", "max_date": "2019-10-13T10:33:00Z", "count_points": 8, "latitude": 48.63055, "longitude": 31.19374, "city": "Lypnyazhka", "images": []}, {"id": 435238, "min_date": "2019-10-13T10:24:00Z", "max_date": "2019-10-13T10:24:00Z", "count_points": 1, "latitude": 48.54558, "longitude": 31.87576, "city": "Mala Vyska", "images": []}, {"id": 435239, "min_date": "2019-10-13T10:24:00Z", "max_date": "2019-10-13T10:24:00Z", "count_points": 1, "latitude": 48.96811, "longitude": 29.67973, "city": "Monastyryshche", "images": []}, {"id": 435240, "min_date": "2019-10-13T10:24:00Z", "max_date": "2019-10-13T10:33:00Z", "count_points": 4, "latitude": 48.6033, "longitude": 29.38415, "city": "Ladyzhyn", "images": []}, {"id": 435241, "min_date": "2019-10-13T10:24:00Z", "max_date": "2019-10-13T10:33:00Z", "count_points": 10, "latitude": 48.59261, "longitude": 31.50707, "city": "Zlynka", "images": []}, {"id": 435242, "min_date": "2019-10-13T10:24:00Z", "max_date": "2019-10-13T10:24:00Z", "count_points": 2, "latitude": 49.32148, "longitude": 36.3701, "city": "Pervomays\u2019kyy", "images": []}, {"id": 435243, "min_date": "2019-10-13T10:24:00Z", "max_date": "2019-10-13T10:33:00Z", "count_points": 2, "latitude": 49.85573, "longitude": 36.7924, "city": "Kochetok", "images": []}, {"id": 435244, "min_date": "2019-10-13T10:24:00Z", "max_date": "2019-10-13T10:33:00Z", "count_points": 2, "latitude": 49.19923, "longitude": 35.83949, "city": "Sakhnovshchyna", "images": []}, {"id": 435245, "min_date": "2019-10-13T10:24:00Z", "max_date": "2019-10-13T10:33:00Z", "count_points": 11, "latitude": 49.44609, "longitude": 28.79823, "city": "Nova Pryluka", "images": []}, {"id": 435246, "min_date": "2019-10-13T10:24:00Z", "max_date": "2019-10-13T10:33:00Z", "count_points": 6, "latitude": 49.63419, "longitude": 37.63729, "city": "Kivsharivka", "images": []}, {"id": 435247, "min_date": "2019-10-13T10:24:00Z", "max_date": "2019-10-13T10:33:00Z", "count_points": 3, "latitude": 49.14493, "longitude": 29.67545, "city": "Orativ", "images": []}, {"id": 435248, "min_date": "2019-10-13T10:24:00Z", "max_date": "2019-10-13T10:24:00Z", "count_points": 1, "latitude": 49.93893, "longitude": 29.50951, "city": "Popilnya", "images": []}, {"id": 435249, "min_date": "2019-10-13T10:24:00Z", "max_date": "2019-10-13T10:33:00Z", "count_points": 2, "latitude": 50.11959, "longitude": 31.95645, "city": "Chernyakhivka", "images": []}, {"id": 435250, "min_date": "2019-10-13T10:24:00Z", "max_date": "2019-10-13T10:24:00Z", "count_points": 1, "latitude": 49.63408, "longitude": 29.90824, "city": "Volodarka", "images": []}, {"id": 435251, "min_date": "2019-10-13T10:24:00Z", "max_date": "2019-10-13T10:24:00Z", "count_points": 1, "latitude": 49.08475, "longitude": 36.53474, "city": "Krasnopavlivka", "images": []}, {"id": 435252, "min_date": "2019-10-13T10:24:00Z", "max_date": "2019-10-13T10:33:00Z", "count_points": 5, "latitude": 49.91236, "longitude": 32.46855, "city": "Hrebinka", "images": []}, {"id": 435253, "min_date": "2019-10-13T10:24:00Z", "max_date": "2019-10-13T10:24:00Z", "count_points": 1, "latitude": 48.75929, "longitude": 31.16741, "city": "Yurkivka", "images": []}, {"id": 435254, "min_date": "2019-10-13T10:24:00Z", "max_date": "2019-10-13T10:24:00Z", "count_points": 1, "latitude": 48.89726, "longitude": 37.04793, "city": "Barvinkove", "images": []}, {"id": 435255, "min_date": "2019-10-13T10:24:00Z", "max_date": "2019-10-13T10:24:00Z", "count_points": 1, "latitude": 48.71329, "longitude": 30.21954, "city": "Uman\u2019", "images": []}, {"id": 435256, "min_date": "2019-10-13T10:24:00Z", "max_date": "2019-10-13T10:24:00Z", "count_points": 2, "latitude": 49.75177, "longitude": 32.04351, "city": "Zolotonosha", "images": []}, {"id": 435257, "min_date": "2019-10-13T10:24:00Z", "max_date": "2019-10-13T10:24:00Z", "count_points": 1, "latitude": 49.74886, "longitude": 31.82002, "city": "Zolotonosha", "images": []}, {"id": 435258, "min_date": "2019-10-13T10:24:00Z", "max_date": "2019-10-13T10:24:00Z", "count_points": 1, "latitude": 49.87261, "longitude": 33.19423, "city": "Khorol", "images": []}, {"id": 435259, "min_date": "2019-10-13T10:24:00Z", "max_date": "2019-10-13T10:33:00Z", "count_points": 3, "latitude": 49.55569, "longitude": 32.25555, "city": "Chornobay", "images": []}, {"id": 435260, "min_date": "2019-10-13T10:24:00Z", "max_date": "2019-10-13T10:24:00Z", "count_points": 2, "latitude": 49.60817, "longitude": 32.49306, "city": "Chornobay", "images": []}, {"id": 435261, "min_date": "2019-10-13T10:24:00Z", "max_date": "2019-10-13T10:24:00Z", "count_points": 1, "latitude": 49.24665, "longitude": 29.80497, "city": "Tsibulev", "images": []}, {"id": 435262, "min_date": "2019-10-13T10:24:00Z", "max_date": "2019-10-13T10:33:00Z", "count_points": 5, "latitude": 49.22029, "longitude": 29.66461, "city": "Orativ", "images": []}, {"id": 435263, "min_date": "2019-10-13T10:24:00Z", "max_date": "2019-10-13T10:33:00Z", "count_points": 3, "latitude": 48.9404, "longitude": 31.08006, "city": "Yurkivka", "images": []}, {"id": 435264, "min_date": "2019-10-13T10:24:00Z", "max_date": "2019-10-13T10:33:00Z", "count_points": 2, "latitude": 48.81381, "longitude": 29.86055, "city": "Khrystynivka", "images": []}, {"id": 435265, "min_date": "2019-10-13T10:24:00Z", "max_date": "2019-10-13T10:24:00Z", "count_points": 1, "latitude": 48.8986, "longitude": 30.74591, "city": "Talne", "images": []}, {"id": 435266, "min_date": "2019-10-13T10:24:00Z", "max_date": "2019-10-12T09:50:00Z", "count_points": 10, "latitude": 48.55147, "longitude": 31.41608, "city": "Zlynka", "images": []}, {"id": 435267, "min_date": "2019-10-13T10:24:00Z", "max_date": "2019-10-13T10:33:00Z", "count_points": 2, "latitude": 49.68987, "longitude": 29.3766, "city": "Topory", "images": []}, {"id": 435268, "min_date": "2019-10-13T10:24:00Z", "max_date": "2019-10-13T10:24:00Z", "count_points": 2, "latitude": 50.01938, "longitude": 34.58366, "city": "Oposhnya", "images": []}, {"id": 435269, "min_date": "2019-10-13T10:24:00Z", "max_date": "2019-10-13T10:24:00Z", "count_points": 1, "latitude": 51.2074, "longitude": 34.29951, "city": "Bilopillya", "images": []}, {"id": 435270, "min_date": "2019-10-13T10:24:00Z", "max_date": "2019-10-13T10:24:00Z", "count_points": 3, "latitude": 52.13429, "longitude": 34.06058, "city": "Seredyna-Buda", "images": []}, {"id": 435271, "min_date": "2019-10-13T10:24:00Z", "max_date": "2019-10-13T10:33:00Z", "count_points": 6, "latitude": 51.12072, "longitude": 33.76109, "city": "Buryn\u2019", "images": []}, {"id": 435272, "min_date": "2019-10-13T10:24:00Z", "max_date": "2019-10-13T10:24:00Z", "count_points": 1, "latitude": 51.07643, "longitude": 33.85047, "city": "Buryn\u2019", "images": []}, {"id": 435273, "min_date": "2019-10-13T10:24:00Z", "max_date": "2019-10-13T10:24:00Z", "count_points": 1, "latitude": 48.53548, "longitude": 34.208, "city": "Novomykolayivka", "images": []}, {"id": 435274, "min_date": "2019-10-13T10:24:00Z", "max_date": "2019-10-13T10:33:00Z", "count_points": 8, "latitude": 51.1192, "longitude": 34.12101, "city": "Vorozhba", "images": []}, {"id": 435275, "min_date": "2019-10-13T10:24:00Z", "max_date": "2019-10-13T10:33:00Z", "count_points": 4, "latitude": 49.83195, "longitude": 35.42652, "city": "Kolomak", "images": []}, {"id": 435276, "min_date": "2019-10-13T10:24:00Z", "max_date": "2019-10-13T10:33:00Z", "count_points": 2, "latitude": 51.14432, "longitude": 31.50031, "city": "Olyshivka", "images": []}, {"id": 435277, "min_date": "2019-10-13T10:24:00Z", "max_date": "2019-10-13T10:33:00Z", "count_points": 3, "latitude": 51.54225, "longitude": 32.63525, "city": "Sosnytsya", "images": []}, {"id": 435278, "min_date": "2019-10-13T10:24:00Z", "max_date": "2019-10-13T10:24:00Z", "count_points": 1, "latitude": 50.21705, "longitude": 34.10885, "city": "Hadyach", "images": []}, {"id": 435279, "min_date": "2019-10-13T10:24:00Z", "max_date": "2019-10-13T10:33:00Z", "count_points": 2, "latitude": 49.28881, "longitude": 35.0564, "city": "Karlivka", "images": []}, {"id": 435280, "min_date": "2019-10-13T10:24:00Z", "max_date": "2019-10-13T10:33:00Z", "count_points": 2, "latitude": 49.49062, "longitude": 35.34218, "city": "Varvarivka", "images": []}, {"id": 435281, "min_date": "2019-10-13T10:24:00Z", "max_date": "2019-10-13T10:24:00Z", "count_points": 2, "latitude": 47.52642, "longitude": 31.46554, "city": "Voznesensk", "images": []}, {"id": 435282, "min_date": "2019-10-13T10:24:00Z", "max_date": "2019-10-13T10:33:00Z", "count_points": 2, "latitude": 50.29303, "longitude": 35.10981, "city": "Kyrykivka", "images": []}, {"id": 435283, "min_date": "2019-10-13T10:24:00Z", "max_date": "2019-10-13T10:33:00Z", "count_points": 3, "latitude": 48.8933, "longitude": 25.60791, "city": "Nyrkiv", "images": []}, {"id": 435284, "min_date": "2019-10-13T10:24:00Z", "max_date": "2019-10-13T10:24:00Z", "count_points": 3, "latitude": 51.18136, "longitude": 33.23307, "city": "Konotop", "images": []}, {"id": 435285, "min_date": "2019-10-13T10:24:00Z", "max_date": "2019-10-13T10:33:00Z", "count_points": 2, "latitude": 49.17943, "longitude": 35.40167, "city": "Zachepylivka", "images": []}, {"id": 435286, "min_date": "2019-10-13T10:24:00Z", "max_date": "2019-10-13T10:24:00Z", "count_points": 1, "latitude": 50.6119, "longitude": 35.37994, "city": "Mezenivka", "images": []}, {"id": 435287, "min_date": "2019-10-13T10:24:00Z", "max_date": "2019-10-13T10:24:00Z", "count_points": 1, "latitude": 48.78149, "longitude": 26.28738, "city": "Skala-Podil\u2019s\u2019ka", "images": []}, {"id": 435288, "min_date": "2019-10-13T10:24:00Z", "max_date": "2019-10-13T10:24:00Z", "count_points": 1, "latitude": 47.49794, "longitude": 31.51863, "city": "Voznesensk", "images": []}, {"id": 435289, "min_date": "2019-10-13T10:24:00Z", "max_date": "2019-10-13T10:33:00Z", "count_points": 2, "latitude": 49.92963, "longitude": 34.09232, "city": "Shyshaky", "images": []}, {"id": 435290, "min_date": "2019-10-13T10:24:00Z", "max_date": "2019-10-13T10:24:00Z", "count_points": 1, "latitude": 48.99918, "longitude": 26.69128, "city": "Dunayivtsi", "images": []}, {"id": 435291, "min_date": "2019-10-13T10:24:00Z", "max_date": "2019-10-13T10:24:00Z", "count_points": 1, "latitude": 48.993, "longitude": 26.79681, "city": "Dunayivtsi", "images": []}, {"id": 435292, "min_date": "2019-10-13T10:24:00Z", "max_date": "2019-10-13T10:24:00Z", "count_points": 1, "latitude": 48.32131, "longitude": 28.53168, "city": "Klembivka", "images": []}, {"id": 435293, "min_date": "2019-10-13T10:24:00Z", "max_date": "2019-10-13T10:24:00Z", "count_points": 1, "latitude": 49.11648, "longitude": 25.41831, "city": "Buchach", "images": []}, {"id": 435294, "min_date": "2019-10-13T10:24:00Z", "max_date": "2019-10-13T10:24:00Z", "count_points": 1, "latitude": 48.35326, "longitude": 28.30194, "city": "Yampil\u2019", "images": []}, {"id": 435295, "min_date": "2019-10-13T10:24:00Z", "max_date": "2019-10-13T08:47:00Z", "count_points": 2, "latitude": 50.89106, "longitude": 34.98372, "city": "Verkhnya Syrovatka", "images": []}, {"id": 435296, "min_date": "2019-10-13T10:24:00Z", "max_date": "2019-10-13T10:24:00Z", "count_points": 1, "latitude": 49.59639, "longitude": 26.55042, "city": "Narkevychi", "images": []}, {"id": 435297, "min_date": "2019-10-13T10:24:00Z", "max_date": "2019-10-13T10:33:00Z", "count_points": 5, "latitude": 48.41394, "longitude": 32.04966, "city": "Kompaniyivka", "images": []}, {"id": 435298, "min_date": "2019-10-13T10:24:00Z", "max_date": "2019-10-13T10:33:00Z", "count_points": 4, "latitude": 48.48525, "longitude": 31.49851, "city": "Zlynka", "images": []}, {"id": 435299, "min_date": "2019-10-13T10:24:00Z", "max_date": "2019-10-13T10:24:00Z", "count_points": 1, "latitude": 45.46879, "longitude": 29.18996, "city": "Kiliya", "images": []}, {"id": 435300, "min_date": "2019-10-13T10:24:00Z", "max_date": "2019-10-13T10:33:00Z", "count_points": 3, "latitude": 47.90812, "longitude": 29.69284, "city": "Balta", "images": []}, {"id": 435301, "min_date": "2019-10-13T10:24:00Z", "max_date": "2019-10-13T10:34:00Z", "count_points": 4, "latitude": 50.71511, "longitude": 24.64972, "city": "Lokachi", "images": []}, {"id": 435302, "min_date": "2019-10-13T10:24:00Z", "max_date": "2019-10-13T10:24:00Z", "count_points": 1, "latitude": 47.69958, "longitude": 31.81961, "city": "Yelanets\u2019", "images": []}, {"id": 435303, "min_date": "2019-10-13T10:24:00Z", "max_date": "2019-10-13T10:24:00Z", "count_points": 1, "latitude": 48.35685, "longitude": 31.97379, "city": "Rivne", "images": []}, {"id": 435304, "min_date": "2019-10-13T10:24:00Z", "max_date": "2019-10-13T10:24:00Z", "count_points": 1, "latitude": 48.41764, "longitude": 31.59685, "city": "Zlynka", "images": []}, {"id": 435305, "min_date": "2019-10-13T10:24:00Z", "max_date": "2019-10-13T10:24:00Z", "count_points": 1, "latitude": 51.40772, "longitude": 26.20352, "city": "Volodymyrets\u2019", "images": []}, {"id": 435306, "min_date": "2019-10-13T10:24:00Z", "max_date": "2019-10-13T10:33:00Z", "count_points": 3, "latitude": 49.35944, "longitude": 34.10392, "city": "Novi Sanzhary", "images": []}, {"id": 435307, "min_date": "2019-10-13T10:24:00Z", "max_date": "2019-10-13T10:32:00Z", "count_points": 3, "latitude": 47.43431, "longitude": 36.9711, "city": "Rozivka", "images": []}, {"id": 435308, "min_date": "2019-10-13T10:24:00Z", "max_date": "2019-10-13T10:33:00Z", "count_points": 2, "latitude": 49.40166, "longitude": 34.71585, "city": "Mashivka", "images": []}, {"id": 435309, "min_date": "2019-10-13T10:24:00Z", "max_date": "2019-10-13T10:33:00Z", "count_points": 5, "latitude": 48.70935, "longitude": 35.00078, "city": "Spas\u2019ke", "images": []}, {"id": 435310, "min_date": "2019-10-13T10:24:00Z", "max_date": "2019-10-13T10:33:00Z", "count_points": 4, "latitude": 48.73568, "longitude": 35.0439, "city": "Spas\u2019ke", "images": []}, {"id": 435311, "min_date": "2019-10-13T10:24:00Z", "max_date": "2019-10-13T10:33:00Z", "count_points": 8, "latitude": 48.8642, "longitude": 33.24555, "city": "Pavlysh", "images": []}, {"id": 435312, "min_date": "2019-10-13T10:24:00Z", "max_date": "2019-10-13T10:24:00Z", "count_points": 1, "latitude": 49.35656, "longitude": 33.60792, "city": "Kozel\u2019shchyna", "images": []}, {"id": 435313, "min_date": "2019-10-13T10:24:00Z", "max_date": "2019-10-13T10:24:00Z", "count_points": 1, "latitude": 48.19957, "longitude": 31.6317, "city": "Rivne", "images": []}, {"id": 435314, "min_date": "2019-10-13T10:24:00Z", "max_date": "2019-10-13T10:24:00Z", "count_points": 1, "latitude": 47.76117, "longitude": 31.92692, "city": "Yelanets\u2019", "images": []}, {"id": 435315, "min_date": "2019-10-13T10:24:00Z", "max_date": "2019-10-13T10:32:00Z", "count_points": 3, "latitude": 45.18429, "longitude": 36.02078, "city": "Marfovka", "images": []}, {"id": 435316, "min_date": "2019-10-13T10:24:00Z", "max_date": "2019-10-13T10:33:00Z", "count_points": 2, "latitude": 51.27467, "longitude": 33.21363, "city": "Konotop", "images": []}, {"id": 435317, "min_date": "2019-10-13T10:24:00Z", "max_date": "2019-10-13T10:24:00Z", "count_points": 1, "latitude": 48.97261, "longitude": 27.15398, "city": "Vinkivtsi", "images": []}, {"id": 435318, "min_date": "2019-10-13T10:24:00Z", "max_date": "2019-10-13T10:33:00Z", "count_points": 2, "latitude": 48.4095, "longitude": 29.77694, "city": "Hayvoron", "images": []}, {"id": 435319, "min_date": "2019-10-13T10:24:00Z", "max_date": "2019-10-13T10:33:00Z", "count_points": 5, "latitude": 48.72661, "longitude": 34.96077, "city": "Spas\u2019ke", "images": []}, {"id": 435320, "min_date": "2019-10-13T10:24:00Z", "max_date": "2019-10-13T10:24:00Z", "count_points": 9, "latitude": 44.95759, "longitude": 33.92352, "city": "Pozharskoye", "images": []}, {"id": 435321, "min_date": "2019-10-13T10:24:00Z", "max_date": "2019-10-13T10:24:00Z", "count_points": 1, "latitude": 45.03688, "longitude": 33.93219, "city": "Rodnikovo", "images": []}, {"id": 435322, "min_date": "2019-10-13T10:24:00Z", "max_date": "2019-10-13T10:24:00Z", "count_points": 1, "latitude": 47.41187, "longitude": 31.51354, "city": "Voznesensk", "images": []}, {"id": 435323, "min_date": "2019-10-13T10:24:00Z", "max_date": "2019-10-13T10:24:00Z", "count_points": 1, "latitude": 47.03711, "longitude": 32.09199, "city": "Mykolayiv", "images": []}, {"id": 435324, "min_date": "2019-10-13T10:24:00Z", "max_date": "2019-10-13T10:33:00Z", "count_points": 5, "latitude": 48.46676, "longitude": 28.97956, "city": "Kryzhopil\u2019", "images": []}, {"id": 435325, "min_date": "2019-10-13T10:24:00Z", "max_date": "2019-10-13T10:24:00Z", "count_points": 1, "latitude": 45.26821, "longitude": 33.90033, "city": "Zernovoye", "images": []}, {"id": 435326, "min_date": "2019-10-13T10:24:00Z", "max_date": "2019-10-13T10:24:00Z", "count_points": 1, "latitude": 47.28949, "longitude": 32.20896, "city": "Bashtanka", "images": []}, {"id": 435327, "min_date": "2019-10-13T10:24:00Z", "max_date": "2019-10-13T10:24:00Z", "count_points": 1, "latitude": 48.44038, "longitude": 30.16984, "city": "Blahovishchens\u2019ke", "images": []}, {"id": 435328, "min_date": "2019-10-13T10:24:00Z", "max_date": "2019-10-13T10:33:00Z", "count_points": 4, "latitude": 48.12991, "longitude": 31.59856, "city": "Rivne", "images": []}, {"id": 435329, "min_date": "2019-10-13T10:24:00Z", "max_date": "2019-10-13T10:24:00Z", "count_points": 2, "latitude": 48.48039, "longitude": 32.11785, "city": "Kropyvnytskyi", "images": []}, {"id": 435330, "min_date": "2019-10-13T10:24:00Z", "max_date": "2019-10-13T10:33:00Z", "count_points": 2, "latitude": 47.92651, "longitude": 29.56447, "city": "Balta", "images": []}, {"id": 435331, "min_date": "2019-10-13T10:24:00Z", "max_date": "2019-10-13T10:33:00Z", "count_points": 3, "latitude": 48.37473, "longitude": 31.90396, "city": "Rivne", "images": []}, {"id": 435332, "min_date": "2019-10-13T10:24:00Z", "max_date": "2019-10-13T10:33:00Z", "count_points": 8, "latitude": 47.9422, "longitude": 29.38333, "city": "Slobidka", "images": []}, {"id": 435333, "min_date": "2019-10-13T10:24:00Z", "max_date": "2019-10-13T08:48:00Z", "count_points": 2, "latitude": 49.31436, "longitude": 34.85878, "city": "Mashivka", "images": []}, {"id": 435334, "min_date": "2019-10-13T10:24:00Z", "max_date": "2019-10-13T10:33:00Z", "count_points": 2, "latitude": 48.47493, "longitude": 33.95521, "city": "Vyshneve", "images": []},