[{"id": 432819, "min_date": "2019-09-16T00:42:00Z", "max_date": "2019-09-16T00:42:00Z", "count_points": 1, "latitude": 47.67771, "longitude": 34.70787, "city": "Marhanets\u2019", "images": []}, {"id": 432820, "min_date": "2019-09-16T00:42:00Z", "max_date": "2019-09-16T10:52:00Z", "count_points": 23, "latitude": 51.30686, "longitude": 32.24948, "city": "Borzna", "images": []}, {"id": 432821, "min_date": "2019-09-16T00:42:00Z", "max_date": "2019-09-16T00:42:00Z", "count_points": 1, "latitude": 48.86512, "longitude": 27.21036, "city": "Nova Ushytsya", "images": []}, {"id": 432822, "min_date": "2019-09-16T00:42:00Z", "max_date": "2019-09-17T10:12:00Z", "count_points": 3, "latitude": 51.91287, "longitude": 33.20859, "city": "Novhorod-Sivers\u2019kyy", "images": []}, {"id": 432823, "min_date": "2019-09-16T00:42:00Z", "max_date": "2019-09-16T22:42:00Z", "count_points": 2, "latitude": 51.89204, "longitude": 33.43285, "city": "Shostka", "images": []}, {"id": 432824, "min_date": "2019-09-16T00:42:00Z", "max_date": "2019-09-16T09:06:00Z", "count_points": 11, "latitude": 49.75739, "longitude": 24.3675, "city": "Verkhnyaya Belka", "images": []}, {"id": 432825, "min_date": "2019-09-16T00:42:00Z", "max_date": "2019-09-16T10:30:00Z", "count_points": 2, "latitude": 48.74037, "longitude": 35.27339, "city": "Hubynykha", "images": []}, {"id": 432826, "min_date": "2019-09-16T00:42:00Z", "max_date": "2019-09-18T00:06:00Z", "count_points": 3, "latitude": 51.84971, "longitude": 30.93182, "city": "Ripky", "images": []}, {"id": 432827, "min_date": "2019-09-16T00:42:00Z", "max_date": "2019-09-16T10:51:00Z", "count_points": 5, "latitude": 47.71091, "longitude": 32.00556, "city": "Yelanets\u2019", "images": []}, {"id": 432828, "min_date": "2019-09-16T00:42:00Z", "max_date": "2019-09-16T09:06:00Z", "count_points": 3, "latitude": 48.11867, "longitude": 30.22267, "city": "Savran", "images": []}, {"id": 432829, "min_date": "2019-09-16T00:42:00Z", "max_date": "2019-09-16T00:42:00Z", "count_points": 2, "latitude": 50.93944, "longitude": 26.28158, "city": "Kostopil\u2019", "images": []}, {"id": 432830, "min_date": "2019-09-16T00:42:00Z", "max_date": "2019-09-17T00:24:00Z", "count_points": 3, "latitude": 51.72061, "longitude": 25.38374, "city": "Lyubeshiv", "images": []}, {"id": 432831, "min_date": "2019-09-16T00:42:00Z", "max_date": "2019-09-16T00:42:00Z", "count_points": 4, "latitude": 50.19962, "longitude": 28.01855, "city": "Romaniv", "images": []}, {"id": 432832, "min_date": "2019-09-16T00:42:00Z", "max_date": "2019-09-16T00:42:00Z", "count_points": 2, "latitude": 50.16989, "longitude": 26.02009, "city": "Shumsk", "images": []}, {"id": 432833, "min_date": "2019-09-16T00:42:00Z", "max_date": "2019-09-17T00:24:00Z", "count_points": 3, "latitude": 51.121, "longitude": 25.92916, "city": "Volodymyrets\u2019", "images": []}, {"id": 432834, "min_date": "2019-09-16T00:42:00Z", "max_date": "2019-09-16T00:42:00Z", "count_points": 2, "latitude": 51.14512, "longitude": 25.81169, "city": "Manevychi", "images": []}, {"id": 432835, "min_date": "2019-09-16T00:42:00Z", "max_date": "2019-09-17T00:24:00Z", "count_points": 2, "latitude": 51.23977, "longitude": 28.15896, "city": "Novi Bilokorovychi", "images": []}, {"id": 432836, "min_date": "2019-09-16T00:42:00Z", "max_date": "2019-09-16T00:42:00Z", "count_points": 1, "latitude": 47.36858, "longitude": 34.86883, "city": "Balky", "images": []}, {"id": 432837, "min_date": "2019-09-16T00:42:00Z", "max_date": "2019-09-16T00:42:00Z", "count_points": 1, "latitude": 49.06064, "longitude": 34.54406, "city": "Tsarychanka", "images": []}, {"id": 432838, "min_date": "2019-09-16T00:42:00Z", "max_date": "2019-09-16T10:51:00Z", "count_points": 4, "latitude": 48.11685, "longitude": 38.32242, "city": "Zuhres", "images": []}, {"id": 432839, "min_date": "2019-09-16T00:42:00Z", "max_date": "2019-09-16T00:42:00Z", "count_points": 1, "latitude": 48.47526, "longitude": 38.53349, "city": "Bayrachky", "images": []}, {"id": 432840, "min_date": "2019-09-16T00:42:00Z", "max_date": "2019-09-16T10:51:00Z", "count_points": 8, "latitude": 49.24014, "longitude": 33.63949, "city": "Kozel\u2019shchyna", "images": []}, {"id": 432841, "min_date": "2019-09-16T00:42:00Z", "max_date": "2019-09-16T00:42:00Z", "count_points": 1, "latitude": 48.71204, "longitude": 27.95929, "city": "Sharhorod", "images": []}, {"id": 432842, "min_date": "2019-09-16T00:42:00Z", "max_date": "2019-09-16T00:42:00Z", "count_points": 1, "latitude": 50.93518, "longitude": 28.58716, "city": "Korosten\u2019", "images": []}, {"id": 432843, "min_date": "2019-09-16T00:42:00Z", "max_date": "2019-09-16T00:42:00Z", "count_points": 2, "latitude": 50.60064, "longitude": 29.69536, "city": "Piskivka", "images": []}, {"id": 432844, "min_date": "2019-09-16T00:42:00Z", "max_date": "2019-09-16T00:42:00Z", "count_points": 1, "latitude": 50.63452, "longitude": 29.81792, "city": "Borodianka", "images": []}, {"id": 432845, "min_date": "2019-09-16T08:48:00Z", "max_date": "2019-09-16T09:06:00Z", "count_points": 3, "latitude": 48.10224, "longitude": 35.89335, "city": "Novomykolayivka", "images": []}, {"id": 432846, "min_date": "2019-09-16T08:48:00Z", "max_date": "2019-09-16T08:48:00Z", "count_points": 1, "latitude": 47.34894, "longitude": 36.93703, "city": "Rozivka", "images": []}, {"id": 432847, "min_date": "2019-09-16T08:48:00Z", "max_date": "2019-09-16T10:51:00Z", "count_points": 7, "latitude": 48.82409, "longitude": 39.51778, "city": "Stanytsya Luhans\u2019ka", "images": []}, {"id": 432848, "min_date": "2019-09-16T08:48:00Z", "max_date": "2019-09-16T08:48:00Z", "count_points": 2, "latitude": 49.06763, "longitude": 35.62609, "city": "Kehychivka", "images": []}, {"id": 432849, "min_date": "2019-09-16T08:48:00Z", "max_date": "2019-09-16T10:51:00Z", "count_points": 8, "latitude": 48.0635, "longitude": 37.4044, "city": "Selydove", "images": []}, {"id": 432850, "min_date": "2019-09-16T08:48:00Z", "max_date": "2019-09-16T10:51:00Z", "count_points": 28, "latitude": 48.93015, "longitude": 35.81246, "city": "Sakhnovshchyna", "images": []}, {"id": 432851, "min_date": "2019-09-16T08:48:00Z", "max_date": "2019-09-16T10:51:00Z", "count_points": 36, "latitude": 48.02212, "longitude": 37.60618, "city": "Avdiyivka", "images": []}, {"id": 432852, "min_date": "2019-09-16T08:48:00Z", "max_date": "2019-09-16T08:48:00Z", "count_points": 1, "latitude": 48.98126, "longitude": 36.54752, "city": "Blyznyuky", "images": []}, {"id": 432853, "min_date": "2019-09-16T08:48:00Z", "max_date": "2019-09-16T09:06:00Z", "count_points": 4, "latitude": 49.1699, "longitude": 36.21651, "city": "Krasnopavlivka", "images": []}, {"id": 432854, "min_date": "2019-09-16T08:48:00Z", "max_date": "2019-09-16T08:48:00Z", "count_points": 1, "latitude": 49.10686, "longitude": 36.81561, "city": "Petrivs\u2019ke", "images": []}, {"id": 432855, "min_date": "2019-09-16T08:48:00Z", "max_date": "2019-09-16T10:51:00Z", "count_points": 13, "latitude": 49.01048, "longitude": 35.96192, "city": "Sakhnovshchyna", "images": []}, {"id": 432856, "min_date": "2019-09-16T08:48:00Z", "max_date": "2019-09-16T10:50:00Z", "count_points": 15, "latitude": 47.12993, "longitude": 38.1482, "city": "Novoazovsk", "images": []}, {"id": 432857, "min_date": "2019-09-16T08:48:00Z", "max_date": "2019-09-16T10:51:00Z", "count_points": 16, "latitude": 49.33823, "longitude": 37.1611, "city": "Savyntsi", "images": []}, {"id": 432858, "min_date": "2019-09-16T08:48:00Z", "max_date": "2019-09-16T10:51:00Z", "count_points": 8, "latitude": 48.14524, "longitude": 37.91852, "city": "Yasynuvata", "images": []}, {"id": 432859, "min_date": "2019-09-16T08:48:00Z", "max_date": "2019-09-16T08:48:00Z", "count_points": 1, "latitude": 48.95992, "longitude": 38.25997, "city": "Bilohorivka", "images": []}, {"id": 432860, "min_date": "2019-09-16T08:48:00Z", "max_date": "2019-09-16T10:51:00Z", "count_points": 14, "latitude": 48.12921, "longitude": 38.12199, "city": "Nyzhnya Krynka", "images": []}, {"id": 432861, "min_date": "2019-09-16T08:48:00Z", "max_date": "2019-09-16T10:51:00Z", "count_points": 14, "latitude": 48.59362, "longitude": 38.42996, "city": "Popasna", "images": []}, {"id": 432862, "min_date": "2019-09-16T08:48:00Z", "max_date": "2019-09-16T10:51:00Z", "count_points": 7, "latitude": 48.1691, "longitude": 38.17738, "city": "Nyzhnya Krynka", "images": []}, {"id": 432863, "min_date": "2019-09-16T08:48:00Z", "max_date": "2019-09-16T10:30:00Z", "count_points": 4, "latitude": 48.31755, "longitude": 38.66646, "city": "Bayrachky", "images": []}, {"id": 432864, "min_date": "2019-09-16T08:48:00Z", "max_date": "2019-09-16T10:51:00Z", "count_points": 18, "latitude": 48.43026, "longitude": 38.36152, "city": "Debal\u2019tseve", "images": []}, {"id": 432865, "min_date": "2019-09-16T08:48:00Z", "max_date": "2019-09-16T10:50:00Z", "count_points": 27, "latitude": 47.52096, "longitude": 38.0003, "city": "Tel\u2019manove", "images": []}, {"id": 432866, "min_date": "2019-09-16T08:48:00Z", "max_date": "2019-09-16T09:06:00Z", "count_points": 2, "latitude": 47.80703, "longitude": 38.48954, "city": "Amvrosiyivka", "images": []}, {"id": 432867, "min_date": "2019-09-16T08:54:00Z", "max_date": "2019-09-16T09:06:00Z", "count_points": 8, "latitude": 50.17717, "longitude": 34.86506, "city": "Okhtyrka", "images": []}, {"id": 432868, "min_date": "2019-09-16T08:54:00Z", "max_date": "2019-09-16T08:54:00Z", "count_points": 2, "latitude": 50.27569, "longitude": 37.42062, "city": "Prykolotne", "images": []}, {"id": 432869, "min_date": "2019-09-16T08:54:00Z", "max_date": "2019-09-16T08:54:00Z", "count_points": 6, "latitude": 50.34129, "longitude": 37.38468, "city": "Prykolotne", "images": []}, {"id": 432870, "min_date": "2019-09-16T10:30:00Z", "max_date": "2019-09-16T10:30:00Z", "count_points": 1, "latitude": 50.07982, "longitude": 36.33683, "city": "Kulynychi", "images": []}, {"id": 432871, "min_date": "2019-09-16T10:30:00Z", "max_date": "2019-09-16T10:51:00Z", "count_points": 5, "latitude": 48.6324, "longitude": 35.77971, "city": "Pavlohrad", "images": []}, {"id": 432872, "min_date": "2019-09-16T10:30:00Z", "max_date": "2019-09-16T10:51:00Z", "count_points": 3, "latitude": 49.9326, "longitude": 35.96945, "city": "Lyubotyn", "images": []}, {"id": 432873, "min_date": "2019-09-16T10:30:00Z", "max_date": "2019-09-16T10:51:00Z", "count_points": 13, "latitude": 49.31299, "longitude": 36.56667, "city": "Komsomol\u2019s\u2019ke", "images": []}, {"id": 432874, "min_date": "2019-09-16T10:30:00Z", "max_date": "2019-09-16T10:51:00Z", "count_points": 2, "latitude": 48.97314, "longitude": 35.67236, "city": "Sakhnovshchyna", "images": []}, {"id": 432875, "min_date": "2019-09-16T10:30:00Z", "max_date": "2019-09-16T09:06:00Z", "count_points": 2, "latitude": 49.75722, "longitude": 35.68098, "city": "Valky", "images": []}, {"id": 432876, "min_date": "2019-09-16T10:30:00Z", "max_date": "2019-09-16T09:06:00Z", "count_points": 2, "latitude": 49.60028, "longitude": 35.68884, "city": "Berezivka", "images": []}, {"id": 432877, "min_date": "2019-09-16T10:30:00Z", "max_date": "2019-09-16T10:30:00Z", "count_points": 3, "latitude": 48.46805, "longitude": 38.85491, "city": "Pereval\u2019s\u2019k", "images": []}, {"id": 432878, "min_date": "2019-09-16T10:30:00Z", "max_date": "2019-09-16T10:30:00Z", "count_points": 1, "latitude": 47.45937, "longitude": 37.96114, "city": "Tel\u2019manove", "images": []}, {"id": 432879, "min_date": "2019-09-16T10:30:00Z", "max_date": "2019-09-16T10:30:00Z", "count_points": 1, "latitude": 48.74281, "longitude": 36.96386, "city": "Oleksandrivka", "images": []}, {"id": 432880, "min_date": "2019-09-16T10:30:00Z", "max_date": "2019-09-16T10:30:00Z", "count_points": 1, "latitude": 49.14491, "longitude": 36.36262, "city": "Krasnopavlivka", "images": []}, {"id": 432881, "min_date": "2019-09-16T10:30:00Z", "max_date": "2019-09-16T10:30:00Z", "count_points": 1, "latitude": 49.16341, "longitude": 39.58369, "city": "Bilovodsk", "images": []}, {"id": 432882, "min_date": "2019-09-16T10:30:00Z", "max_date": "2019-09-16T10:30:00Z", "count_points": 1, "latitude": 51.20222, "longitude": 32.0261, "city": "Kruty", "images": []}, {"id": 432883, "min_date": "2019-09-16T10:30:00Z", "max_date": "2019-09-16T10:51:00Z", "count_points": 3, "latitude": 48.54628, "longitude": 34.18537, "city": "Verkhn\u2019odniprovs\u2019k", "images": []}, {"id": 432884, "min_date": "2019-09-16T10:30:00Z", "max_date": "2019-09-16T10:52:00Z", "count_points": 2, "latitude": 51.57002, "longitude": 32.9157, "city": "Korop", "images": []}, {"id": 432885, "min_date": "2019-09-16T10:30:00Z", "max_date": "2019-09-16T10:51:00Z", "count_points": 6, "latitude": 49.16451, "longitude": 34.79862, "city": "Hupalivka", "images": []}, {"id": 432886, "min_date": "2019-09-16T10:30:00Z", "max_date": "2019-09-16T10:30:00Z", "count_points": 1, "latitude": 51.40148, "longitude": 32.86722, "city": "Baturyn", "images": []}, {"id": 432887, "min_date": "2019-09-16T10:30:00Z", "max_date": "2019-09-16T10:52:00Z", "count_points": 2, "latitude": 51.59027, "longitude": 34.02063, "city": "Shalyhyne", "images": []}, {"id": 432888, "min_date": "2019-09-16T10:30:00Z", "max_date": "2019-09-16T10:30:00Z", "count_points": 1, "latitude": 51.31832, "longitude": 31.40567, "city": "Olyshivka", "images": []}, {"id": 432889, "min_date": "2019-09-16T10:30:00Z", "max_date": "2019-09-16T10:52:00Z", "count_points": 2, "latitude": 51.2408, "longitude": 33.56331, "city": "Sloboda", "images": []}, {"id": 432890, "min_date": "2019-09-16T10:30:00Z", "max_date": "2019-09-16T10:52:00Z", "count_points": 6, "latitude": 51.34323, "longitude": 32.13452, "city": "Mena", "images": []}, {"id": 432891, "min_date": "2019-09-16T10:30:00Z", "max_date": "2019-09-16T10:50:00Z", "count_points": 4, "latitude": 47.24918, "longitude": 38.27747, "city": "Syedove", "images": []}, {"id": 432892, "min_date": "2019-09-16T10:30:00Z", "max_date": "2019-09-16T09:06:00Z", "count_points": 3, "latitude": 49.30089, "longitude": 30.12284, "city": "Zhashkiv", "images": []}, {"id": 432893, "min_date": "2019-09-16T10:30:00Z", "max_date": "2019-09-16T10:30:00Z", "count_points": 1, "latitude": 49.5163, "longitude": 36.61637, "city": "Komsomol\u2019s\u2019ke", "images": []}, {"id": 432894, "min_date": "2019-09-16T10:30:00Z", "max_date": "2019-09-16T10:30:00Z", "count_points": 1, "latitude": 49.1731, "longitude": 29.43159, "city": "Orativ", "images": []}, {"id": 432895, "min_date": "2019-09-16T10:30:00Z", "max_date": "2019-09-16T10:30:00Z", "count_points": 2, "latitude": 49.96257, "longitude": 32.37866, "city": "Hrebinka", "images": []}, {"id": 432896, "min_date": "2019-09-16T10:30:00Z", "max_date": "2019-09-16T10:30:00Z", "count_points": 2, "latitude": 48.1069, "longitude": 39.62305, "city": "Sverdlovs\u2019k", "images": []}, {"id": 432897, "min_date": "2019-09-16T10:30:00Z", "max_date": "2019-09-16T10:30:00Z", "count_points": 1, "latitude": 49.50503, "longitude": 36.58199, "city": "Komsomol\u2019s\u2019ke", "images": []}, {"id": 432898, "min_date": "2019-09-16T10:30:00Z", "max_date": "2019-09-16T10:30:00Z", "count_points": 2, "latitude": 48.86596, "longitude": 37.17648, "city": "Barvinkove", "images": []}, {"id": 432899, "min_date": "2019-09-16T10:30:00Z", "max_date": "2019-09-16T10:51:00Z", "count_points": 3, "latitude": 49.84811, "longitude": 36.45412, "city": "Vvedenka", "images": []}, {"id": 432900, "min_date": "2019-09-16T10:30:00Z", "max_date": "2019-09-16T10:30:00Z", "count_points": 1, "latitude": 49.25402, "longitude": 29.23154, "city": "Illintsi", "images": []}, {"id": 432901, "min_date": "2019-09-16T10:30:00Z", "max_date": "2019-09-16T10:30:00Z", "count_points": 1, "latitude": 49.9355, "longitude": 30.37419, "city": "Uzyn", "images": []}, {"id": 432902, "min_date": "2019-09-16T10:30:00Z", "max_date": "2019-09-19T23:30:00Z", "count_points": 5, "latitude": 49.77958, "longitude": 32.82624, "city": "Orzhytsya", "images": []}, {"id": 432903, "min_date": "2019-09-16T10:30:00Z", "max_date": "2019-09-16T10:30:00Z", "count_points": 1, "latitude": 51.014, "longitude": 31.79906, "city": "Nizhyn", "images": []}, {"id": 432904, "min_date": "2019-09-16T10:30:00Z", "max_date": "2019-09-16T10:51:00Z", "count_points": 7, "latitude": 49.32389, "longitude": 40.04817, "city": "Milove", "images": []}, {"id": 432905, "min_date": "2019-09-16T10:30:00Z", "max_date": "2019-09-16T10:30:00Z", "count_points": 1, "latitude": 49.82868, "longitude": 36.76107, "city": "Malynivka", "images": []}, {"id": 432906, "min_date": "2019-09-16T10:30:00Z", "max_date": "2019-09-19T23:30:00Z", "count_points": 3, "latitude": 49.96708, "longitude": 31.7478, "city": "Tsybli", "images": []}, {"id": 432907, "min_date": "2019-09-16T10:30:00Z", "max_date": "2019-09-16T10:30:00Z", "count_points": 1, "latitude": 49.4731, "longitude": 29.27847, "city": "Pohrebyshche", "images": []}, {"id": 432908, "min_date": "2019-09-16T10:30:00Z", "max_date": "2019-09-16T10:30:00Z", "count_points": 1, "latitude": 50.29813, "longitude": 32.1462, "city": "Chernyakhivka", "images": []}, {"id": 432909, "min_date": "2019-09-16T10:30:00Z", "max_date": "2019-09-16T10:30:00Z", "count_points": 1, "latitude": 49.63297, "longitude": 37.58924, "city": "Kupjansk", "images": []}, {"id": 432910, "min_date": "2019-09-16T10:30:00Z", "max_date": "2019-09-16T10:51:00Z", "count_points": 4, "latitude": 48.95446, "longitude": 31.87225, "city": "Kapitanivka", "images": []}, {"id": 432911, "min_date": "2019-09-16T10:30:00Z", "max_date": "2019-09-16T10:30:00Z", "count_points": 1, "latitude": 49.63444, "longitude": 33.20247, "city": "Semenivka", "images": []}, {"id": 432912, "min_date": "2019-09-16T10:30:00Z", "max_date": "2019-09-16T10:51:00Z", "count_points": 8, "latitude": 49.01299, "longitude": 33.20157, "city": "Svitlovods\u2019k", "images": []}, {"id": 432913, "min_date": "2019-09-16T10:30:00Z", "max_date": "2019-09-16T10:30:00Z", "count_points": 1, "latitude": 48.59082, "longitude": 28.92141, "city": "Tulchyn", "images": []}, {"id": 432914, "min_date": "2019-09-16T10:30:00Z", "max_date": "2019-09-16T10:30:00Z", "count_points": 1, "latitude": 49.23715, "longitude": 30.59356, "city": "Kalynove", "images": []}, {"id": 432915, "min_date": "2019-09-16T10:30:00Z", "max_date": "2019-09-16T10:51:00Z", "count_points": 3, "latitude": 49.32814, "longitude": 30.51266, "city": "Kalynove", "images": []}, {"id": 432916, "min_date": "2019-09-16T10:30:00Z", "max_date": "2019-09-16T10:30:00Z", "count_points": 1, "latitude": 48.57662, "longitude": 31.54259, "city": "Zlynka", "images": []}, {"id": 432917, "min_date": "2019-09-16T10:30:00Z", "max_date": "2019-09-16T10:30:00Z", "count_points": 1, "latitude": 49.27601, "longitude": 31.57958, "city": "Mleyev", "images": []}, {"id": 432918, "min_date": "2019-09-16T10:30:00Z", "max_date": "2019-09-16T10:30:00Z", "count_points": 1, "latitude": 49.8553, "longitude": 31.30723, "city": "Kaniv", "images": []}, {"id": 432919, "min_date": "2019-09-16T10:30:00Z", "max_date": "2019-09-16T10:51:00Z", "count_points": 4, "latitude": 48.66206, "longitude": 36.47102, "city": "Petropavlivka", "images": []}, {"id": 432920, "min_date": "2019-09-16T10:30:00Z", "max_date": "2019-09-16T10:51:00Z", "count_points": 5, "latitude": 49.66832, "longitude": 31.14362, "city": "Myronivka", "images": []}, {"id": 432921, "min_date": "2019-09-16T10:30:00Z", "max_date": "2019-09-17T09:57:00Z", "count_points": 11, "latitude": 50.92383, "longitude": 32.14405, "city": "Kruty", "images": []}, {"id": 432922, "min_date": "2019-09-16T10:30:00Z", "max_date": "2019-09-16T10:51:00Z", "count_points": 2, "latitude": 48.56745, "longitude": 36.23128, "city": "Petropavlivka", "images": []}, {"id": 432923, "min_date": "2019-09-16T10:30:00Z", "max_date": "2019-09-16T10:30:00Z", "count_points": 1, "latitude": 49.96616, "longitude": 35.84173, "city": "Manchenky", "images": []}, {"id": 432924, "min_date": "2019-09-16T10:30:00Z", "max_date": "2019-09-16T10:30:00Z", "count_points": 1, "latitude": 49.76659, "longitude": 32.16396, "city": "Zolotonosha", "images": []}, {"id": 432925, "min_date": "2019-09-16T10:30:00Z", "max_date": "2019-09-16T10:30:00Z", "count_points": 1, "latitude": 49.94702, "longitude": 35.7439, "city": "Staryy Merchyk", "images": []}, {"id": 432926, "min_date": "2019-09-16T10:30:00Z", "max_date": "2019-09-16T10:30:00Z", "count_points": 1, "latitude": 50.08255, "longitude": 31.49789, "city": "Pereyaslav-Khmel\u2019nyts\u2019kyy", "images": []}, {"id": 432927, "min_date": "2019-09-16T10:30:00Z", "max_date": "2019-09-16T10:30:00Z", "count_points": 1, "latitude": 49.79402, "longitude": 29.77243, "city": "Skvyra", "images": []}, {"id": 432928, "min_date": "2019-09-16T10:30:00Z", "max_date": "2019-09-16T10:51:00Z", "count_points": 9, "latitude": 49.57957, "longitude": 30.25343, "city": "Stavyshche", "images": []}, {"id": 432929, "min_date": "2019-09-16T10:30:00Z", "max_date": "2019-09-16T10:30:00Z", "count_points": 1, "latitude": 49.20497, "longitude": 36.17977, "city": "Krasnopavlivka", "images": []}, {"id": 432930, "min_date": "2019-09-16T10:30:00Z", "max_date": "2019-09-16T10:51:00Z", "count_points": 3, "latitude": 48.73561, "longitude": 31.57969, "city": "Novomyrhorod", "images": []}, {"id": 432931, "min_date": "2019-09-16T10:30:00Z", "max_date": "2019-09-16T10:51:00Z", "count_points": 3, "latitude": 48.72216, "longitude": 29.89775, "city": "Khrystynivka", "images": []}, {"id": 432932, "min_date": "2019-09-16T10:30:00Z", "max_date": "2019-09-16T10:30:00Z", "count_points": 1, "latitude": 49.39214, "longitude": 30.85421, "city": "Lysyanka", "images": []}, {"id": 432933, "min_date": "2019-09-16T10:30:00Z", "max_date": "2019-09-16T10:51:00Z", "count_points": 6, "latitude": 49.49912, "longitude": 37.7183, "city": "Kivsharivka", "images": []}, {"id": 432934, "min_date": "2019-09-16T10:30:00Z", "max_date": "2019-09-16T10:30:00Z", "count_points": 2, "latitude": 48.37387, "longitude": 36.38413, "city": "Petropavlivka", "images": []}, {"id": 432935, "min_date": "2019-09-16T10:30:00Z", "max_date": "2019-09-16T10:30:00Z", "count_points": 1, "latitude": 47.70795, "longitude": 37.22996, "city": "Blahodatne", "images": []}, {"id": 432936, "min_date": "2019-09-16T10:30:00Z", "max_date": "2019-09-16T10:51:00Z", "count_points": 13, "latitude": 48.19844, "longitude": 36.32637, "city": "Pokrovs\u2019ke", "images": []}, {"id": 432937, "min_date": "2019-09-16T10:30:00Z", "max_date": "2019-09-17T11:34:00Z", "count_points": 25, "latitude": 50.15478, "longitude": 28.49681, "city": "Denyshi", "images": []}, {"id": 432938, "min_date": "2019-09-16T10:30:00Z", "max_date": "2019-09-16T10:30:00Z", "count_points": 1, "latitude": 50.5322, "longitude": 30.14089, "city": "Vorzel\u2019", "images": []}, {"id": 432939, "min_date": "2019-09-16T10:30:00Z", "max_date": "2019-09-16T09:06:00Z", "count_points": 3, "latitude": 50.18566, "longitude": 30.86172, "city": "Voronkov", "images": []}, {"id": 432940, "min_date": "2019-09-16T10:30:00Z", "max_date": "2019-09-17T09:48:00Z", "count_points": 15, "latitude": 51.02444, "longitude": 30.90114, "city": "Oster", "images": []}, {"id": 432941, "min_date": "2019-09-16T10:30:00Z", "max_date": "2019-09-16T10:30:00Z", "count_points": 1, "latitude": 46.81983, "longitude": 36.01837, "city": "Novovasylivka", "images": []}, {"id": 432942, "min_date": "2019-09-16T10:30:00Z", "max_date": "2019-09-16T10:30:00Z", "count_points": 1, "latitude": 48.58718, "longitude": 37.77408, "city": "Chasiv Yar", "images": []}, {"id": 432943, "min_date": "2019-09-16T10:30:00Z", "max_date": "2019-09-16T10:52:00Z", "count_points": 3, "latitude": 51.26441, "longitude": 29.20504, "city": "Narodychi", "images": []}, {"id": 432944, "min_date": "2019-09-16T10:30:00Z", "max_date": "2019-09-16T10:30:00Z", "count_points": 1, "latitude": 51.255, "longitude": 29.16353, "city": "Narodychi", "images": []}, {"id": 432945, "min_date": "2019-09-16T10:30:00Z", "max_date": "2019-09-16T10:30:00Z", "count_points": 1, "latitude": 48.02437, "longitude": 36.87502, "city": "Velyka Novosilka", "images": []}, {"id": 432946, "min_date": "2019-09-16T10:30:00Z", "max_date": "2019-09-16T10:50:00Z", "count_points": 2, "latitude": 46.72178, "longitude": 34.77678, "city": "Ivanivka", "images": []}, {"id": 432947, "min_date": "2019-09-16T10:30:00Z", "max_date": "2019-09-16T10:30:00Z", "count_points": 1, "latitude": 48.08362, "longitude": 33.40049, "city": "Lozuvatka", "images": []}, {"id": 432948, "min_date": "2019-09-16T10:30:00Z", "max_date": "2019-09-16T10:30:00Z", "count_points": 1, "latitude": 48.23085, "longitude": 34.79358, "city": "Surs\u2019ko-Mykhaylivka", "images": []}, {"id": 432949, "min_date": "2019-09-16T10:30:00Z", "max_date": "2019-09-16T10:30:00Z", "count_points": 1, "latitude": 47.26126, "longitude": 34.19134, "city": "Verkhniy Rohachyk", "images": []}, {"id": 432950, "min_date": "2019-09-16T10:30:00Z", "max_date": "2019-09-20T10:26:00Z", "count_points": 24, "latitude": 47.35137, "longitude": 34.29114, "city": "Verkhniy Rohachyk", "images": []}, {"id": 432951, "min_date": "2019-09-16T10:30:00Z", "max_date": "2019-09-16T10:30:00Z", "count_points": 1, "latitude": 47.80398, "longitude": 34.84724, "city": "Tomakivka", "images": []}, {"id": 432952, "min_date": "2019-09-16T10:30:00Z", "max_date": "2019-09-16T10:51:00Z", "count_points": 2, "latitude": 48.10492, "longitude": 33.43134, "city": "Lozuvatka", "images": []}, {"id": 432953, "min_date": "2019-09-16T10:30:00Z", "max_date": "2019-09-16T10:30:00Z", "count_points": 1, "latitude": 45.52042, "longitude": 34.9984, "city": "Dmitrovka", "images": []}, {"id": 432954, "min_date": "2019-09-16T10:30:00Z", "max_date": "2019-09-16T10:30:00Z", "count_points": 1, "latitude": 47.31904, "longitude": 34.37453, "city": "Verkhniy Rohachyk", "images": []}, {"id": 432955, "min_date": "2019-09-16T10:30:00Z", "max_date": "2019-09-16T10:30:00Z", "count_points": 1, "latitude": 46.61661, "longitude": 34.85184, "city": "Partyzany", "images": []}, {"id": 432956, "min_date": "2019-09-16T10:30:00Z", "max_date": "2019-09-16T09:06:00Z", "count_points": 3, "latitude": 48.13578, "longitude": 33.35173, "city": "Lozuvatka", "images": []}, {"id": 432957, "min_date": "2019-09-16T10:30:00Z", "max_date": "2019-09-16T10:51:00Z", "count_points": 3, "latitude": 48.19321, "longitude": 33.40555, "city": "Zhovti Vody", "images": []}, {"id": 432958, "min_date": "2019-09-16T10:30:00Z", "max_date": "2019-09-16T10:51:00Z", "count_points": 8, "latitude": 47.51979, "longitude": 31.21146, "city": "Voznesensk", "images": []}, {"id": 432959, "min_date": "2019-09-16T10:30:00Z", "max_date": "2019-09-16T10:50:00Z", "count_points": 12, "latitude": 45.04412, "longitude": 34.71709, "city": "Michurinskoye", "images": []}, {"id": 432960, "min_date": "2019-09-16T10:30:00Z", "max_date": "2019-09-16T10:51:00Z", "count_points": 8, "latitude": 47.3499, "longitude": 30.24976, "city": "Shyryayeve", "images": []}, {"id": 432961, "min_date": "2019-09-16T10:30:00Z", "max_date": "2019-09-16T10:30:00Z", "count_points": 1, "latitude": 46.89201, "longitude": 32.04123, "city": "Mykolayiv", "images": []}, {"id": 432962, "min_date": "2019-09-16T10:30:00Z", "max_date": "2019-09-16T10:30:00Z", "count_points": 1, "latitude": 47.80537, "longitude": 30.20188, "city": "Lyubashivka", "images": []}, {"id": 432963, "min_date": "2019-09-16T10:30:00Z", "max_date": "2019-09-16T10:30:00Z", "count_points": 1, "latitude": 48.5846, "longitude": 33.54283, "city": "Piatykhatky", "images": []}, {"id": 432964, "min_date": "2019-09-16T10:30:00Z", "max_date": "2019-09-16T10:30:00Z", "count_points": 1, "latitude": 49.86982, "longitude": 35.36673, "city": "Kolomak", "images": []}, {"id": 432965, "min_date": "2019-09-16T10:30:00Z", "max_date": "2019-09-16T10:30:00Z", "count_points": 1, "latitude": 50.23206, "longitude": 31.42993, "city": "Pereyaslav-Khmel\u2019nyts\u2019kyy", "images": []}, {"id": 432966, "min_date": "2019-09-16T10:30:00Z", "max_date": "2019-09-16T10:51:00Z", "count_points": 7, "latitude": 49.80057, "longitude": 34.93837, "city": "Chutove", "images": []}, {"id": 432967, "min_date": "2019-09-16T10:30:00Z", "max_date": "2019-09-16T10:30:00Z", "count_points": 1, "latitude": 47.82271, "longitude": 31.93087, "city": "Yelanets\u2019", "images": []}, {"id": 432968, "min_date": "2019-09-16T10:30:00Z", "max_date": "2019-09-16T10:30:00Z", "count_points": 1, "latitude": 47.44445, "longitude": 36.1799, "city": "Polohy", "images": []}, {"id": 432969, "min_date": "2019-09-16T10:30:00Z", "max_date": "2019-09-16T10:51:00Z", "count_points": 5, "latitude": 49.41279, "longitude": 35.48669, "city": "Verbivka", "images": []}, {"id": 432970, "min_date": "2019-09-16T10:30:00Z", "max_date": "2019-09-16T10:30:00Z", "count_points": 1, "latitude": 48.57902, "longitude": 33.43613, "city": "Zhovti Vody", "images": []}, {"id": 432971, "min_date": "2019-09-16T10:30:00Z", "max_date": "2019-09-16T10:51:00Z", "count_points": 19, "latitude": 48.0601, "longitude": 31.36501, "city": "Arbuzynka", "images": []}, {"id": 432972, "min_date": "2019-09-16T10:30:00Z", "max_date": "2019-09-16T10:51:00Z", "count_points": 14, "latitude": 47.99531, "longitude": 31.30236, "city": "Arbuzynka", "images": []}, {"id": 432973, "min_date": "2019-09-16T10:30:00Z", "max_date": "2019-09-16T10:52:00Z", "count_points": 2, "latitude": 51.45271, "longitude": 26.27371, "city": "Volodymyrets\u2019", "images": []}, {"id": 432974, "min_date": "2019-09-16T10:30:00Z", "max_date": "2019-09-16T10:30:00Z", "count_points": 1, "latitude": 48.83334, "longitude": 27.20743, "city": "Nova Ushytsya", "images": []}, {"id": 432975, "min_date": "2019-09-16T10:30:00Z", "max_date": "2019-09-16T10:30:00Z", "count_points": 1, "latitude": 47.06486, "longitude": 35.83814, "city": "Rozivka", "images": []}, {"id": 432976, "min_date": "2019-09-16T10:30:00Z", "max_date": "2019-09-16T10:30:00Z", "count_points": 1, "latitude": 49.25273, "longitude": 34.23465, "city": "Kobelyaky", "images": []}, {"id": 432977, "min_date": "2019-09-16T10:30:00Z", "max_date": "2019-09-16T10:30:00Z", "count_points": 1, "latitude": 48.20517, "longitude": 31.78048, "city": "Rivne", "images": []}, {"id": 432978, "min_date": "2019-09-16T10:30:00Z", "max_date": "2019-09-16T10:30:00Z", "count_points": 1, "latitude": 48.85008, "longitude": 35.10472, "city": "Hubynykha", "images": []}, {"id": 432979, "min_date": "2019-09-16T10:30:00Z", "max_date": "2019-09-16T10:30:00Z", "count_points": 1, "latitude": 51.89017, "longitude": 33.7632, "city": "Yampil\u2019", "images": []}, {"id": 432980, "min_date": "2019-09-16T10:30:00Z", "max_date": "2019-09-16T10:51:00Z", "count_points": 7, "latitude": 49.009, "longitude": 33.7599, "city": "Horishni Plavni", "images": []}, {"id": 432981, "min_date": "2019-09-16T10:30:00Z", "max_date": "2019-09-16T10:51:00Z", "count_points": 2, "latitude": 48.92777, "longitude": 33.67165, "city": "Horishni Plavni", "images": []}, {"id": 432982, "min_date": "2019-09-16T10:30:00Z", "max_date": "2019-09-16T10:30:00Z", "count_points": 1, "latitude": 49.09629, "longitude": 35.24763, "city": "Zachepylivka", "images": []}, {"id": 432983, "min_date": "2019-09-16T10:30:00Z", "max_date": "2019-09-16T10:30:00Z", "count_points": 1, "latitude": 48.56454, "longitude": 34.45549, "city": "Auly", "images": []}, {"id": 432984, "min_date": "2019-09-16T10:30:00Z", "max_date": "2019-09-16T10:51:00Z", "count_points": 4, "latitude": 48.04003, "longitude": 38.97213, "city": "Miusyns\u2019k", "images": []}, {"id": 432985, "min_date": "2019-09-16T10:30:00Z", "max_date": "2019-09-17T11:34:00Z", "count_points": 22, "latitude": 49.88227, "longitude": 33.00432, "city": "Lubny", "images": []}, {"id": 432986, "min_date": "2019-09-16T10:30:00Z", "max_date": "2019-09-16T10:30:00Z", "count_points": 1, "latitude": 49.42829, "longitude": 34.95861, "city": "Mashivka", "images": []}, {"id": 432987, "min_date": "2019-09-16T10:30:00Z", "max_date": "2019-09-16T10:51:00Z", "count_points": 3, "latitude": 48.92543, "longitude": 33.51511, "city": "Kamennyye Potoki", "images": []}, {"id": 432988, "min_date": "2019-09-16T10:30:00Z", "max_date": "2019-09-17T10:12:00Z", "count_points": 3, "latitude": 50.16162, "longitude": 32.52324, "city": "Pyryatyn", "images": []}, {"id": 432989, "min_date": "2019-09-16T10:30:00Z", "max_date": "2019-09-16T10:30:00Z", "count_points": 1, "latitude": 47.99338, "longitude": 37.40717, "city": "Mareyka", "images": []}, {"id": 432990, "min_date": "2019-09-16T10:30:00Z", "max_date": "2019-09-16T10:30:00Z", "count_points": 1, "latitude": 47.1591, "longitude": 35.57886, "city": "Tokmak", "images": []}, {"id": 432991, "min_date": "2019-09-16T10:30:00Z", "max_date": "2019-09-16T10:50:00Z", "count_points": 4, "latitude": 46.02227, "longitude": 33.72467, "city": "Pochetnoye", "images": []}, {"id": 432992, "min_date": "2019-09-16T10:30:00Z", "max_date": "2019-09-16T10:30:00Z", "count_points": 1, "latitude": 48.35077, "longitude": 33.52856, "city": "Zhovti Vody", "images": []}, {"id": 432993, "min_date": "2019-09-16T10:30:00Z", "max_date": "2019-09-16T10:51:00Z", "count_points": 6, "latitude": 48.11665, "longitude": 33.88752, "city": "Sofiyivka", "images": []}, {"id": 432994, "min_date": "2019-09-16T10:30:00Z", "max_date": "2019-09-22T10:14:00Z", "count_points": 22, "latitude": 46.72244, "longitude": 33.78704, "city": "Kayiry", "images": []}, {"id": 432995, "min_date": "2019-09-16T10:30:00Z", "max_date": "2019-09-16T10:30:00Z", "count_points": 1, "latitude": 47.39817, "longitude": 33.96435, "city": "Novovorontsovka", "images": []}, {"id": 432996, "min_date": "2019-09-16T10:30:00Z", "max_date": "2019-09-16T09:07:00Z", "count_points": 2, "latitude": 47.16232, "longitude": 33.59549, "city": "Dudchany", "images": []}, {"id": 432997, "min_date": "2019-09-16T10:30:00Z", "max_date": "2019-09-16T10:50:00Z", "count_points": 3, "latitude": 46.63324, "longitude": 33.6813, "city": "Lyubymivka", "images": []}, {"id": 432998, "min_date": "2019-09-16T10:30:00Z", "max_date": "2019-09-16T10:30:00Z", "count_points": 1, "latitude": 48.39111, "longitude": 33.66103, "city": "Piatykhatky", "images": []}, {"id": 432999, "min_date": "2019-09-16T10:30:00Z", "max_date": "2019-09-16T10:30:00Z", "count_points": 1, "latitude": 48.33705, "longitude": 34.03389, "city": "Vyshneve", "images": []}, {"id": 433000, "min_date": "2019-09-16T10:30:00Z", "max_date": "2019-09-16T10:30:00Z", "count_points": 4, "latitude": 49.09656, "longitude": 25.45892, "city": "Druzhba", "images": []}, {"id": 433001, "min_date": "2019-09-16T10:30:00Z", "max_date": "2019-09-16T10:50:00Z", "count_points": 3, "latitude": 45.80975, "longitude": 33.70635, "city": "Ruch\u2019i", "images": []}, {"id": 433002, "min_date": "2019-09-16T10:30:00Z", "max_date": "2019-09-16T10:51:00Z", "count_points": 3, "latitude": 48.24839, "longitude": 34.04998, "city": "Vyshneve", "images": []}, {"id": 433003, "min_date": "2019-09-16T10:30:00Z", "max_date": "2019-09-16T10:52:00Z", "count_points": 5, "latitude": 51.23639, "longitude": 31.68468, "city": "Kulykivka", "images": []}, {"id": 433004, "min_date": "2019-09-16T10:30:00Z", "max_date": "2019-09-16T10:30:00Z", "count_points": 1, "latitude": 47.96821, "longitude": 37.67588, "city": "Donetsk", "images": []}, {"id": 433005, "min_date": "2019-09-16T10:30:00Z", "max_date": "2019-09-16T10:30:00Z", "count_points": 1, "latitude": 49.441, "longitude": 25.74226, "city": "Velikiye Borki", "images": []}, {"id": 433006, "min_date": "2019-09-16T10:30:00Z", "max_date": "2019-09-16T10:51:00Z", "count_points": 7, "latitude": 48.14966, "longitude": 29.84131, "city": "Peschana", "images": []}, {"id": 433007, "min_date": "2019-09-16T10:30:00Z", "max_date": "2019-09-16T10:30:00Z", "count_points": 1, "latitude": 51.21585, "longitude": 31.71042, "city": "Kulykivka", "images": []}, {"id": 433008, "min_date": "2019-09-16T10:30:00Z", "max_date": "2019-09-16T10:30:00Z", "count_points": 1, "latitude": 49.46723, "longitude": 25.41004, "city": "Petrikov", "images": []}, {"id": 433009, "min_date": "2019-09-16T10:30:00Z", "max_date": "2019-09-16T10:30:00Z", "count_points": 2, "latitude": 47.00949, "longitude": 33.09053, "city": "Snihurivka", "images": []}, {"id": 433010, "min_date": "2019-09-16T10:30:00Z", "max_date": "2019-09-16T10:30:00Z", "count_points": 1, "latitude": 47.2016, "longitude": 30.93494, "city": "Berezivka", "images": []}, {"id": 433011, "min_date": "2019-09-16T10:30:00Z", "max_date": "2019-09-16T10:51:00Z", "count_points": 3, "latitude": 49.58737, "longitude": 35.149, "city": "Varvarivka", "images": []}, {"id": 433012, "min_date": "2019-09-16T10:30:00Z", "max_date": "2019-09-16T10:51:00Z", "count_points": 2, "latitude": 49.70801, "longitude": 35.14687, "city": "Chutove", "images": []}, {"id": 433013, "min_date": "2019-09-16T10:30:00Z", "max_date": "2019-09-16T10:30:00Z", "count_points": 1, "latitude": 46.93375, "longitude": 32.73613, "city": "Oleksandrivka", "images": []}, {"id": 433014, "min_date": "2019-09-16T10:30:00Z", "max_date": "2019-09-16T10:30:00Z", "count_points": 1, "latitude": 48.97099, "longitude": 24.34748, "city": "Novytsya", "images": []}, {"id": 433015, "min_date": "2019-09-16T10:30:00Z", "max_date": "2019-09-16T10:30:00Z", "count_points": 1, "latitude": 47.53825, "longitude": 30.04939, "city": "Ananyiv Pershyi", "images": []}, {"id": 433016, "min_date": "2019-09-16T10:30:00Z", "max_date": "2019-09-16T10:30:00Z", "count_points": 1, "latitude": 47.39218, "longitude": 31.47826, "city": "Voznesensk", "images": []}, {"id": 433017, "min_date": "2019-09-16T10:30:00Z", "max_date": "2019-09-16T10:30:00Z", "count_points": 1, "latitude": 48.59377, "longitude": 35.30553, "city": "Novomoskovs\u2019k", "images": []}, {"id": 433018, "min_date": "2019-09-16T10:30:00Z", "max_date": "2019-09-16T10:30:00Z", "count_points": 1, "latitude": 50.15537, "longitude": 35.06482, "city": "Krasnokuts\u2019k", "images": []}, {"id": 433019, "min_date": "2019-09-16T10:30:00Z", "max_date": "2019-09-16T10:51:00Z", "count_points": 2, "latitude": 47.57958, "longitude": 30.3895, "city": "Shyryayeve", "images": []}, {"id": 433020, "min_date": "2019-09-16T10:30:00Z", "max_date": "2019-09-16T10:30:00Z", "count_points": 1, "latitude": 49.58484, "longitude": 28.24049, "city": "Ulaniv", "images": []}, {"id": 433021, "min_date": "2019-09-16T10:30:00Z", "max_date": "2019-09-16T10:51:00Z", "count_points": 10, "latitude": 47.74143, "longitude": 30.79724, "city": "Mykolayivka", "images": []}, {"id": 433022, "min_date": "2019-09-16T10:30:00Z", "max_date": "2019-09-17T00:24:00Z", "count_points": 2, "latitude": 51.64695, "longitude": 26.21808, "city": "Zarichne", "images": []}, {"id": 433023, "min_date": "2019-09-16T10:30:00Z", "max_date": "2019-09-16T10:51:00Z", "count_points": 4, "latitude": 48.24386, "longitude": 29.32221, "city": "Chechelnyk", "images": []}, {"id": 433024, "min_date": "2019-09-16T10:30:00Z", "max_date": "2019-09-16T10:30:00Z", "count_points": 1, "latitude": 48.77788, "longitude": 28.07553, "city": "Sharhorod", "images": []}, {"id": 433025, "min_date": "2019-09-16T10:30:00Z", "max_date": "2019-09-16T09:07:00Z", "count_points": 2, "latitude": 48.05911, "longitude": 30.29075, "city": "Kryve Ozero", "images": []}, {"id": 433026, "min_date": "2019-09-16T10:30:00Z", "max_date": "2019-09-17T00:24:00Z", "count_points": 2, "latitude": 51.6239, "longitude": 27.20801, "city": "Rokytne", "images": []}, {"id": 433027, "min_date": "2019-09-16T10:30:00Z", "max_date": "2019-09-16T10:52:00Z", "count_points": 3, "latitude": 51.70993, "longitude": 25.56427, "city": "Lyubeshiv", "images": []}, {"id": 433028, "min_date": "2019-09-16T10:30:00Z", "max_date": "2019-09-16T10:30:00Z", "count_points": 1, "latitude": 48.44215, "longitude": 31.33544, "city": "Dobrovelychkivka", "images": []}, {"id": 433029, "min_date": "2019-09-16T10:30:00Z", "max_date": "2019-09-16T10:51:00Z", "count_points": 5, "latitude": 47.21605, "longitude": 31.8256, "city": "Olshanskoye", "images": []}, {"id": 433030, "min_date": "2019-09-16T10:30:00Z", "max_date": "2019-09-16T10:30:00Z", "count_points": 1, "latitude": 46.96888, "longitude": 37.09268, "city": "Urzuf", "images": []}, {"id": 433031, "min_date": "2019-09-16T10:30:00Z", "max_date": "2019-09-16T10:30:00Z", "count_points": 1, "latitude": 45.84975, "longitude": 28.96541, "city": "Dmytrivka", "images": []}, {"id": 433032, "min_date": "2019-09-16T10:30:00Z", "max_date": "2019-09-16T10:30:00Z", "count_points": 1, "latitude": 46.93914, "longitude": 31.87582, "city": "Mykolayiv", "images": []}, {"id": 433033, "min_date": "2019-09-16T10:30:00Z", "max_date": "2019-09-16T10:30:00Z", "count_points": 1, "latitude": 47.61745, "longitude": 31.36666, "city": "Voznesensk", "images": []}, {"id": 433034, "min_date": "2019-09-16T10:30:00Z", "max_date": "2019-09-16T10:30:00Z", "count_points": 1, "latitude": 48.41148, "longitude": 31.13516, "city": "Dobrovelychkivka", "images": []}, {"id": 433035, "min_date": "2019-09-16T10:30:00Z", "max_date": "2019-09-16T10:30:00Z", "count_points": 1, "latitude": 48.15744, "longitude": 30.11798, "city": "Savran", "images": []}, {"id": 433036, "min_date": "2019-09-16T10:30:00Z", "max_date": "2019-09-16T10:51:00Z", "count_points": 3, "latitude": 47.63961, "longitude": 32.99959, "city": "Shyroke", "images": []}, {"id": 433037, "min_date": "2019-09-16T10:30:00Z", "max_date": "2019-09-21T09:25:00Z", "count_points": 2, "latitude": 48.51234, "longitude": 29.24915, "city": "Trostyanets\u2019", "images": []}, {"id": 433038, "min_date": "2019-09-16T10:30:00Z", "max_date": "2019-09-16T10:30:00Z", "count_points": 1, "latitude": 47.46963, "longitude": 30.74531, "city": "Mykolayivka", "images": []}, {"id": 433039, "min_date": "2019-09-16T10:30:00Z", "max_date": "2019-09-16T10:50:00Z", "count_points": 2, "latitude": 46.25631, "longitude": 29.22892, "city": "Berezyne", "images": []}, {"id": 433040, "min_date": "2019-09-16T10:30:00Z", "max_date": "2019-09-16T10:30:00Z", "count_points": 1, "latitude": 47.55687, "longitude": 29.48234, "city": "Okny", "images": []}, {"id": 433041, "min_date": "2019-09-16T10:30:00Z", "max_date": "2019-09-16T10:30:00Z", "count_points": 1, "latitude": 47.49763, "longitude": 30.44683, "city": "Shyryayeve", "images": []}, {"id": 433042, "min_date": "2019-09-16T10:30:00Z", "max_date": "2019-09-22T10:14:00Z", "count_points": 6, "latitude": 45.5219, "longitude": 29.57302, "city": "Vylkove", "images": []}, {"id": 433043, "min_date": "2019-09-16T10:30:00Z", "max_date": "2019-09-17T11:35:00Z", "count_points": 7, "latitude": 51.38351, "longitude": 24.51191, "city": "Stara Vyzhivka", "images": []}, {"id": 433044, "min_date": "2019-09-16T10:30:00Z", "max_date": "2019-09-16T10:30:00Z", "count_points": 1, "latitude": 51.00672, "longitude": 25.21142, "city": "Rozhyshche", "images": []}, {"id": 433045, "min_date": "2019-09-16T10:30:00Z", "max_date": "2019-09-16T10:30:00Z", "count_points": 2, "latitude": 48.45088, "longitude": 31.65606, "city": "Zlynka", "images": []}, {"id": 433046, "min_date": "2019-09-16T10:30:00Z", "max_date": "2019-09-16T10:30:00Z", "count_points": 1, "latitude": 47.70833, "longitude": 30.15548, "city": "Lyubashivka", "images": []}, {"id": 433047, "min_date": "2019-09-16T10:30:00Z", "max_date": "2019-09-16T10:51:00Z", "count_points": 2, "latitude": 48.91259, "longitude": 38.81949, "city": "Novoaydar", "images": []}, {"id": 433048, "min_date": "2019-09-16T10:30:00Z", "max_date": "2019-09-16T10:30:00Z", "count_points": 1, "latitude": 49.33122, "longitude": 38.50975, "city": "Bilokurakyne", "images": []}, {"id": 433049, "min_date": "2019-09-16T10:30:00Z", "max_date": "2019-09-16T10:51:00Z", "count_points": 2, "latitude": 48.41027, "longitude": 37.81542, "city": "Dzerzhyns\u2019k", "images": []}, {"id": 433050, "min_date": "2019-09-16T10:30:00Z", "max_date": "2019-09-16T10:51:00Z", "count_points": 4, "latitude": 47.976, "longitude": 38.68004, "city": "Torez", "images": []}, {"id": 433051, "min_date": "2019-09-16T10:30:00Z", "max_date": "2019-09-16T10:30:00Z", "count_points": 1, "latitude": 49.00729, "longitude": 33.47741, "city": "Kamennyye Potoki", "images": []}, {"id": 433052, "min_date": "2019-09-16T10:30:00Z", "max_date": "2019-09-16T10:30:00Z", "count_points": 2, "latitude": 48.67295, "longitude": 38.09608, "city": "Soledar", "images": []}, {"id": 433053, "min_date": "2019-09-16T10:30:00Z", "max_date": "2019-09-16T10:30:00Z", "count_points": 1, "latitude": 49.21791, "longitude": 33.93955, "city": "Lutovynivka", "images": []}, {"id": 433054, "min_date": "2019-09-16T10:30:00Z", "max_date": "2019-09-16T10:30:00Z", "count_points": 2, "latitude": 48.8551, "longitude": 38.49255, "city": "Lysychans\u2019k", "images": []}, {"id": 433055, "min_date": "2019-09-16T10:30:00Z", "max_date": "2019-09-16T10:30:00Z", "count_points": 2, "latitude": 46.20914, "longitude": 34.63, "city": "Novooleksiyivka", "images": []}, {"id": 433056, "min_date": "2019-09-16T10:30:00Z", "max_date": "2019-09-16T10:30:00Z", "count_points": 2, "latitude": 48.35798, "longitude": 35.30453, "city": "Kaydaki", "images": []}, {"id": 433057, "min_date": "2019-09-16T10:30:00Z", "max_date": "2019-09-16T10:30:00Z", "count_points": 1, "latitude": 48.48634, "longitude": 34.29363, "city": "Novomykolayivka", "images": []}, {"id": 433058, "min_date": "2019-09-16T10:30:00Z", "max_date": "2019-09-16T10:30:00Z", "count_points": 1, "latitude": 47.81586, "longitude": 35.42175, "city": "Vil\u2019nyans\u2019k", "images": []}, {"id": 433059, "min_date": "2019-09-16T10:30:00Z", "max_date": "2019-09-16T10:30:00Z", "count_points": 1, "latitude": 48.91261, "longitude": 35.57837, "city": "Melioratyvne", "images": []}, {"id": 433060, "min_date": "2019-09-16T10:30:00Z", "max_date": "2019-09-16T09:07:00Z", "count_points": 4, "latitude": 45.69547, "longitude": 28.7056, "city": "Bolhrad", "images": []}, {"id": 433061, "min_date": "2019-09-16T10:30:00Z", "max_date": "2019-09-16T10:30:00Z", "count_points": 1, "latitude": 46.90971, "longitude": 35.3167, "city": "Melitopol", "images": []}, {"id": 433062, "min_date": "2019-09-16T10:30:00Z", "max_date": "2019-09-16T10:30:00Z", "count_points": 2, "latitude": 45.68897, "longitude": 34.65498, "city": "Prostornoye", "images": []}, {"id": 433063, "min_date": "2019-09-16T10:30:00Z", "max_date": "2019-09-16T09:07:00Z", "count_points": 5, "latitude": 45.6671, "longitude": 34.5452, "city": "Stal\u2019noye", "images": []}, {"id": 433064, "min_date": "2019-09-16T10:30:00Z", "max_date": "2019-09-16T10:51:00Z", "count_points": 4, "latitude": 49.37628, "longitude": 38.23857, "city": "Svatove", "images": []}, {"id": 433065, "min_date": "2019-09-16T10:30:00Z", "max_date": "2019-09-16T10:30:00Z", "count_points": 2, "latitude": 45.63058, "longitude": 34.65784, "city": "Svetloye", "images": []}, {"id": 433066, "min_date": "2019-09-16T10:30:00Z", "max_date": "2019-09-16T10:30:00Z", "count_points": 2, "latitude": 49.62867, "longitude": 35.19029, "city": "Chutove", "images": []}, {"id": 433067, "min_date": "2019-09-16T10:30:00Z", "max_date": "2019-09-16T10:51:00Z", "count_points": 5, "latitude": 48.34278, "longitude": 35.21749, "city": "Kaydaki", "images": []}, {"id": 433068, "min_date": "2019-09-16T10:30:00Z", "max_date": "2019-09-16T10:51:00Z", "count_points": 2, "latitude": 49.96312, "longitude": 35.23553, "city": "Krasnokuts\u2019k", "images": []}, {"id": 433069, "min_date": "2019-09-16T10:30:00Z", "max_date": "2019-09-16T10:51:00Z", "count_points": 6, "latitude": 48.61197, "longitude": 35.23762, "city": "Novomoskovs\u2019k", "images": []}, {"id": 433070, "min_date": "2019-09-16T10:30:00Z", "max_date": "2019-09-16T10:30:00Z", "count_points": 1, "latitude": 50.38309, "longitude": 31.36266, "city": "Baryshivka", "images": []}, {"id": 433071, "min_date": "2019-09-16T12:12:00Z", "max_date": "2019-09-16T12:12:00Z", "count_points": 2, "latitude": 50.75661, "longitude": 28.66048, "city": "Nova Borova", "images": []}, {"id": 433072, "min_date": "2019-09-16T12:12:00Z", "max_date": "2019-09-16T12:12:00Z", "count_points": 1, "latitude": 51.40055, "longitude": 26.73319, "city": "Sarny", "images": []}, {"id": 433073, "min_date": "2019-09-16T12:12:00Z", "max_date": "2019-09-16T12:12:00Z", "count_points": 1, "latitude": 48.41224, "longitude": 22.57851, "city": "Strabychovo", "images": []}, {"id": 433074, "min_date": "2019-09-16T12:12:00Z", "max_date": "2019-09-16T12:12:00Z", "count_points": 1, "latitude": 48.39343, "longitude": 22.51503, "city": "Strabychovo", "images": []}, {"id": 433075, "min_date": "2019-09-16T22:42:00Z", "max_date": "2019-09-17T00:24:00Z", "count_points": 5, "latitude": 48.12467, "longitude": 39.74127, "city": "Chervonopartyzans\u2019k", "images": []}, {"id": 433076, "min_date": "2019-09-16T22:42:00Z", "max_date": "2019-09-16T22:42:00Z", "count_points": 1, "latitude": 47.98645, "longitude": 39.23982, "city": "Roven\u2019ky", "images": []}, {"id": 433077, "min_date": "2019-09-16T22:42:00Z", "max_date": "2019-09-17T00:24:00Z", "count_points": 3, "latitude": 48.48298, "longitude": 39.44614, "city": "Luhansk", "images": []}, {"id": 433078, "min_date": "2019-09-16T22:42:00Z", "max_date": "2019-09-16T22:42:00Z", "count_points": 1, "latitude": 47.73071, "longitude": 36.96505, "city": "Velyka Novosilka", "images": []}, {"id": 433079, "min_date": "2019-09-16T22:42:00Z", "max_date": "2019-09-17T00:24:00Z", "count_points": 2, "latitude": 48.37792, "longitude": 38.48285, "city": "Chornukhyne", "images": []}, {"id": 433080, "min_date": "2019-09-16T22:42:00Z", "max_date": "2019-09-17T00:24:00Z", "count_points": 3, "latitude": 48.14252, "longitude": 38.62143, "city": "Rozsypne", "images": []}, {"id": 433081, "min_date": "2019-09-16T22:42:00Z", "max_date": "2019-09-16T22:42:00Z", "count_points": 3, "latitude": 48.52553, "longitude": 38.4578, "city": "Popasna", "images": []}, {"id": 433082, "min_date": "2019-09-16T22:42:00Z", "max_date": "2019-09-17T00:24:00Z", "count_points": 5, "latitude": 48.11338, "longitude": 38.20934, "city": "Nyzhnya Krynka", "images": []}, {"id": 433083, "min_date": "2019-09-16T22:42:00Z", "max_date": "2019-09-16T10:51:00Z", "count_points": 6, "latitude": 48.17145, "longitude": 37.82499, "city": "Yasynuvata", "images": []}, {"id": 433084, "min_date": "2019-09-16T22:48:00Z", "max_date": "2019-09-16T22:48:00Z", "count_points": 1, "latitude": 46.64585, "longitude": 35.15871, "city": "Yakymivka", "images": []}, {"id": 433085, "min_date": "2019-09-17T00:24:00Z", "max_date": "2019-09-16T09:06:00Z", "count_points": 5, "latitude": 50.05233, "longitude": 31.17804, "city": "Rzhyshchiv", "images": []}, {"id": 433086, "min_date": "2019-09-17T00:24:00Z", "max_date": "2019-09-16T10:52:00Z", "count_points": 2, "latitude": 51.72654, "longitude": 26.18636, "city": "Zarichne", "images": []}, {"id": 433087, "min_date": "2019-09-17T00:24:00Z", "max_date": "2019-09-17T00:24:00Z", "count_points": 1, "latitude": 46.53325, "longitude": 33.75187, "city": "Askaniya-Nova", "images": []}, {"id": 433088, "min_date": "2019-09-17T00:24:00Z", "max_date": "2019-09-17T00:24:00Z", "count_points": 2, "latitude": 51.79752, "longitude": 24.55445, "city": "Ratne", "images": []}, {"id": 433089, "min_date": "2019-09-17T00:24:00Z", "max_date": "2019-09-17T00:24:00Z", "count_points": 2, "latitude": 50.47941, "longitude": 30.99294, "city": "Trebukhiv", "images": []}, {"id": 433090, "min_date": "2019-09-17T00:24:00Z", "max_date": "2019-09-17T00:24:00Z", "count_points": 2, "latitude": 51.52786, "longitude": 27.30986, "city": "Rokytne", "images": []}, {"id": 433091, "min_date": "2019-09-17T00:24:00Z", "max_date": "2019-09-17T00:24:00Z", "count_points": 1, "latitude": 51.35702, "longitude": 26.58242, "city": "Sarny", "images": []}, {"id": 433092, "min_date": "2019-09-17T00:24:00Z", "max_date": "2019-09-16T09:06:00Z", "count_points": 2, "latitude": 51.18706, "longitude": 27.53574, "city": "Olevs\u2019k", "images": []}, {"id": 433093, "min_date": "2019-09-17T00:24:00Z", "max_date": "2019-09-17T00:24:00Z", "count_points": 1, "latitude": 49.0386, "longitude": 35.53206, "city": "Zachepylivka", "images": []}, {"id": 433094, "min_date": "2019-09-17T00:24:00Z", "max_date": "2019-09-17T00:24:00Z", "count_points": 1, "latitude": 45.33108, "longitude": 28.85113, "city": "Izmayil", "images": []}, {"id": 433095, "min_date": "2019-09-17T00:24:00Z", "max_date": "2019-09-17T00:24:00Z", "count_points": 1, "latitude": 47.73327, "longitude": 29.88158, "city": "Ananyiv Pershyi", "images": []}, {"id": 433096, "min_date": "2019-09-17T00:24:00Z", "max_date": "2019-09-22T00:30:00Z", "count_points": 7, "latitude": 51.49394, "longitude": 24.32375, "city": "Stara Vyzhivka", "images": []}, {"id": 433097, "min_date": "2019-09-17T00:24:00Z", "max_date": "2019-09-17T00:24:00Z", "count_points": 2, "latitude": 51.33932, "longitude": 24.41728, "city": "Stara Vyzhivka", "images": []}, {"id": 433098, "min_date": "2019-09-17T00:24:00Z", "max_date": "2019-09-17T00:24:00Z", "count_points": 1, "latitude": 51.34856, "longitude": 24.57441, "city": "Stara Vyzhivka", "images": []}, {"id": 433099, "min_date": "2019-09-17T10:12:00Z", "max_date": "2019-09-17T10:12:00Z", "count_points": 1, "latitude": 50.89893, "longitude": 28.12632, "city": "Novi Bilokorovychi", "images": []}, {"id": 433100, "min_date": "2019-09-17T10:12:00Z", "max_date": "2019-09-17T10:12:00Z", "count_points": 2, "latitude": 50.44917, "longitude": 26.81393, "city": "Slavuta", "images": []}, {"id": 433101, "min_date": "2019-09-17T10:12:00Z", "max_date": "2019-09-17T10:12:00Z", "count_points": 1, "latitude": 50.68776, "longitude": 31.11055, "city": "Semypolky", "images": []}, {"id": 433102, "min_date": "2019-09-17T10:12:00Z", "max_date": "2019-09-17T10:12:00Z", "count_points": 1, "latitude": 49.81995, "longitude": 30.84819, "city": "Kaharlyk", "images": []}, {"id": 433103, "min_date": "2019-09-17T10:12:00Z", "max_date": "2019-09-17T10:12:00Z", "count_points": 4, "latitude": 49.2829, "longitude": 28.53078, "city": "Vinnytsia", "images": []}, {"id": 433104, "min_date": "2019-09-17T10:12:00Z", "max_date": "2019-09-17T09:49:00Z", "count_points": 4, "latitude": 49.61169, "longitude": 29.25929, "city": "Topory", "images": []}, {"id": 433105, "min_date": "2019-09-17T10:12:00Z", "max_date": "2019-09-17T09:49:00Z", "count_points": 3, "latitude": 49.91486, "longitude": 29.89404, "city": "Kozhanka", "images": []}, {"id": 433106, "min_date": "2019-09-17T10:12:00Z", "max_date": "2019-09-17T09:49:00Z", "count_points": 2, "latitude": 49.93221, "longitude": 28.94408, "city": "Chervone", "images": []}, {"id": 433107, "min_date": "2019-09-17T10:12:00Z", "max_date": "2019-09-17T10:12:00Z", "count_points": 2, "latitude": 49.76269, "longitude": 31.50664, "city": "Kaniv", "images": []}, {"id": 433108, "min_date": "2019-09-17T10:12:00Z", "max_date": "2019-09-17T10:12:00Z", "count_points": 1, "latitude": 49.66106, "longitude": 28.90618, "city": "Kozyatyn", "images": []}, {"id": 433109, "min_date": "2019-09-17T10:12:00Z", "max_date": "2019-09-17T10:12:00Z", "count_points": 3, "latitude": 50.11143, "longitude": 31.24534, "city": "Pereyaslav-Khmel\u2019nyts\u2019kyy", "images": []}, {"id": 433110, "min_date": "2019-09-17T10:12:00Z", "max_date": "2019-09-17T10:12:00Z", "count_points": 1, "latitude": 50.18183, "longitude": 35.03421, "city": "Krasnokuts\u2019k", "images": []}, {"id": 433111, "min_date": "2019-09-17T10:12:00Z", "max_date": "2019-09-17T10:12:00Z", "count_points": 1, "latitude": 50.807, "longitude": 32.50338, "city": "Ichnya", "images": []}, {"id": 433112, "min_date": "2019-09-17T10:12:00Z", "max_date": "2019-09-17T10:12:00Z", "count_points": 1, "latitude": 50.19578, "longitude": 31.34236, "city": "Baryshivka", "images": []}, {"id": 433113, "min_date": "2019-09-17T10:12:00Z", "max_date": "2019-09-17T10:12:00Z", "count_points": 1, "latitude": 50.37881, "longitude": 34.59383, "city": "Lebedyn", "images": []}, {"id": 433114, "min_date": "2019-09-17T10:12:00Z", "max_date": "2019-09-17T10:12:00Z", "count_points": 2, "latitude": 52.08935, "longitude": 33.31393, "city": "Novhorod-Sivers\u2019kyy", "images": []}, {"id": 433115, "min_date": "2019-09-17T10:12:00Z", "max_date": "2019-09-17T11:34:00Z", "count_points": 3, "latitude": 49.99618, "longitude": 27.13977, "city": "Shepetivka", "images": []}, {"id": 433116, "min_date": "2019-09-17T10:12:00Z", "max_date": "2019-09-17T10:12:00Z", "count_points": 3, "latitude": 45.47126, "longitude": 29.36612, "city": "Shevchenkove", "images": []}, {"id": 433117, "min_date": "2019-09-17T10:12:00Z", "max_date": "2019-09-17T10:12:00Z", "count_points": 1, "latitude": 49.77194, "longitude": 27.82741, "city": "Liubar", "images": []}, {"id": 433118, "min_date": "2019-09-17T10:12:00Z", "max_date": "2019-09-17T10:12:00Z", "count_points": 1, "latitude": 49.71976, "longitude": 28.34585, "city": "Ulaniv", "images": []}, {"id": 433119, "min_date": "2019-09-17T10:12:00Z", "max_date": "2019-09-17T10:12:00Z", "count_points": 1, "latitude": 50.12981, "longitude": 28.77211, "city": "Ozerne", "images": []}, {"id": 433120, "min_date": "2019-09-17T10:12:00Z", "max_date": "2019-09-17T10:12:00Z", "count_points": 1, "latitude": 50.40229, "longitude": 30.66709, "city": "Hnidyn", "images": []}, {"id": 433121, "min_date": "2019-09-17T10:12:00Z", "max_date": "2019-09-17T10:12:00Z", "count_points": 1, "latitude": 50.11952, "longitude": 29.15763, "city": "Andrushivka", "images": []}, {"id": 433122, "min_date": "2019-09-17T10:12:00Z", "max_date": "2019-09-17T11:35:00Z", "count_points": 4, "latitude": 50.90718, "longitude": 28.62895, "city": "Korosten\u2019", "images": []}, {"id": 433123, "min_date": "2019-09-17T10:12:00Z", "max_date": "2019-09-17T10:12:00Z", "count_points": 1, "latitude": 50.69951, "longitude": 28.54031, "city": "Nova Borova", "images": []}, {"id": 433124, "min_date": "2019-09-17T10:12:00Z", "max_date": "2019-09-17T10:12:00Z", "count_points": 1, "latitude": 50.59042, "longitude": 30.66547, "city": "Pukhivka", "images": []}, {"id": 433125, "min_date": "2019-09-17T10:12:00Z", "max_date": "2019-09-16T10:51:00Z", "count_points": 2, "latitude": 49.58984, "longitude": 32.81979, "city": "Orzhytsya", "images": []}, {"id": 433126, "min_date": "2019-09-17T10:12:00Z", "max_date": "2019-09-17T10:12:00Z", "count_points": 1, "latitude": 50.596, "longitude": 31.39574, "city": "Bobrovytsya", "images": []}, {"id": 433127, "min_date": "2019-09-17T10:12:00Z", "max_date": "2019-09-17T10:12:00Z", "count_points": 1, "latitude": 50.11724, "longitude": 32.58196, "city": "Hrebinka", "images": []}, {"id": 433128, "min_date": "2019-09-17T10:12:00Z", "max_date": "2019-09-17T10:12:00Z", "count_points": 1, "latitude": 51.00437, "longitude": 26.92225, "city": "Berezne", "images": []}, {"id": 433129, "min_date": "2019-09-17T11:54:00Z", "max_date": "2019-09-17T11:54:00Z", "count_points": 1, "latitude": 50.11739, "longitude": 26.85142, "city": "Izyaslav", "images": []}, {"id": 433130, "min_date": "2019-09-17T11:54:00Z", "max_date": "2019-09-17T11:54:00Z", "count_points": 1, "latitude": 49.46623, "longitude": 30.61288, "city": "Tarashcha", "images": []}, {"id": 433131, "min_date": "2019-09-17T11:54:00Z", "max_date": "2019-09-17T11:54:00Z", "count_points": 2, "latitude": 50.22261, "longitude": 25.16463, "city": "Radyvyliv", "images": []}, {"id": 433132, "min_date": "2019-09-17T11:54:00Z", "max_date": "2019-09-17T11:54:00Z", "count_points": 2, "latitude": 47.48505, "longitude": 31.95949, "city": "Yelanets\u2019", "images": []}, {"id": 433133, "min_date": "2019-09-17T11:54:00Z", "max_date": "2019-09-17T11:54:00Z", "count_points": 3, "latitude": 45.47014, "longitude": 29.30766, "city": "Kiliya", "images": []}, {"id": 433134, "min_date": "2019-09-17T11:54:00Z", "max_date": "2019-09-17T11:54:00Z", "count_points": 2, "latitude": 50.14852, "longitude": 30.11903, "city": "Borova", "images": []}, {"id": 433135, "min_date": "2019-09-17T22:24:00Z", "max_date": "2019-09-17T19:21:00Z", "count_points": 3, "latitude": 50.15291, "longitude": 35.67424, "city": "Bohodukhiv", "images": []}, {"id": 433136, "min_date": "2019-09-18T00:06:00Z", "max_date": "2019-09-18T00:06:00Z", "count_points": 3, "latitude": 50.11896, "longitude": 31.34671, "city": "Pereyaslav-Khmel\u2019nyts\u2019kyy", "images": []}, {"id": 433137, "min_date": "2019-09-18T00:06:00Z", "max_date": "2019-09-18T00:06:00Z", "count_points": 1, "latitude": 50.56491, "longitude": 30.70615, "city": "Pukhivka", "images": []}, {"id": 433138, "min_date": "2019-09-18T00:06:00Z", "max_date": "2019-09-20T01:06:00Z", "count_points": 4, "latitude": 50.2988, "longitude": 31.03981, "city": "Kirove", "images": []}, {"id": 433139, "min_date": "2019-09-18T00:06:00Z", "max_date": "2019-09-18T00:06:00Z", "count_points": 2, "latitude": 50.74079, "longitude": 27.81069, "city": "Yemil\u2019chyne", "images": []}, {"id": 433140, "min_date": "2019-09-18T00:06:00Z", "max_date": "2019-09-18T00:06:00Z", "count_points": 1, "latitude": 50.24918, "longitude": 28.21632, "city": "Denyshi", "images": []}, {"id": 433141, "min_date": "2019-09-18T00:06:00Z", "max_date": "2019-09-18T23:48:00Z", "count_points": 3, "latitude": 46.51655, "longitude": 30.70161, "city": "Usatove", "images": []}, {"id": 433142, "min_date": "2019-09-18T09:54:00Z", "max_date": "2019-09-18T09:54:00Z", "count_points": 1, "latitude": 48.97863, "longitude": 32.52386, "city": "Chyhyryn", "images": []}, {"id": 433143, "min_date": "2019-09-18T09:54:00Z", "max_date": "2019-09-18T09:54:00Z", "count_points": 1, "latitude": 50.06464, "longitude": 31.26525, "city": "Pereyaslav-Khmel\u2019nyts\u2019kyy", "images": []}, {"id": 433144, "min_date": "2019-09-18T09:54:00Z", "max_date": "2019-09-20T10:27:00Z", "count_points": 22, "latitude": 51.38842, "longitude": 32.44773, "city": "Borzna", "images": []}, {"id": 433145, "min_date": "2019-09-18T09:54:00Z", "max_date": "2019-09-18T09:54:00Z", "count_points": 2, "latitude": 46.80438, "longitude": 30.11667, "city": "Rozdil\u2019na", "images": []}, {"id": 433146, "min_date": "2019-09-18T09:54:00Z", "max_date": "2019-09-18T09:54:00Z", "count_points": 1, "latitude": 46.75762, "longitude": 30.15365, "city": "Stepove", "images": []}, {"id": 433147, "min_date": "2019-09-18T09:54:00Z", "max_date": "2019-09-18T08:54:00Z", "count_points": 6, "latitude": 49.79849, "longitude": 33.30717, "city": "Khorol", "images": []}, {"id": 433148, "min_date": "2019-09-18T09:54:00Z", "max_date": "2019-09-18T08:55:00Z", "count_points": 9, "latitude": 45.25706, "longitude": 36.10707, "city": "Marfovka", "images": []}, {"id": 433149, "min_date": "2019-09-18T09:54:00Z", "max_date": "2019-09-18T09:54:00Z", "count_points": 2, "latitude": 49.68416, "longitude": 27.81865, "city": "Khmilnyk", "images": []}, {"id": 433150, "min_date": "2019-09-18T11:36:00Z", "max_date": "2019-09-20T08:42:00Z", "count_points": 10, "latitude": 48.5919, "longitude": 31.08362, "city": "Lypnyazhka", "images": []}, {"id": 433151, "min_date": "2019-09-18T11:36:00Z", "max_date": "2019-09-18T23:48:00Z", "count_points": 3, "latitude": 49.33341, "longitude": 23.84292, "city": "Stryi", "images": []}, {"id": 433152, "min_date": "2019-09-18T11:36:00Z", "max_date": "2019-09-18T11:36:00Z", "count_points": 3, "latitude": 48.20602, "longitude": 28.74269, "city": "Pishchanka", "images": []}, {"id": 433153, "min_date": "2019-09-18T23:48:00Z", "max_date": "2019-09-19T11:12:00Z", "count_points": 5, "latitude": 46.22118, "longitude": 29.27323, "city": "Berezyne", "images": []}, {"id": 433154, "min_date": "2019-09-18T23:48:00Z", "max_date": "2019-09-18T23:48:00Z", "count_points": 1, "latitude": 46.69054, "longitude": 32.77673, "city": "Tsyurupyns\u2019k", "images": []}, {"id": 433155, "min_date": "2019-09-18T23:48:00Z", "max_date": "2019-09-18T23:48:00Z", "count_points": 1, "latitude": 49.95302, "longitude": 36.4077, "city": "Kulynychi", "images": []}, {"id": 433156, "min_date": "2019-09-18T23:48:00Z", "max_date": "2019-09-18T23:48:00Z", "count_points": 1, "latitude": 46.55321, "longitude": 30.50172, "city": "Usatove", "images": []}, {"id": 433157, "min_date": "2019-09-19T09:36:00Z", "max_date": "2019-09-19T11:12:00Z", "count_points": 2, "latitude": 46.69611, "longitude": 31.70678, "city": "Ochakiv", "images": []}, {"id": 433158, "min_date": "2019-09-19T09:36:00Z", "max_date": "2019-09-19T09:36:00Z", "count_points": 1, "latitude": 46.70847, "longitude": 31.39964, "city": "Rybakivka", "images": []}, {"id": 433159, "min_date": "2019-09-19T09:36:00Z", "max_date": "2019-09-19T09:37:00Z", "count_points": 7, "latitude": 48.24075, "longitude": 30.99753, "city": "Vil\u2019shanka", "images": []}, {"id": 433160, "min_date": "2019-09-19T09:36:00Z", "max_date": "2019-09-19T09:36:00Z", "count_points": 1, "latitude": 50.27973, "longitude": 31.71466, "city": "Yahotyn", "images": []}, {"id": 433161, "min_date": "2019-09-19T09:36:00Z", "max_date": "2019-09-19T09:36:00Z", "count_points": 1, "latitude": 50.00436, "longitude": 35.81554, "city": "Manchenky", "images": []}, {"id": 433162, "min_date": "2019-09-19T09:36:00Z", "max_date": "2019-09-19T09:36:00Z", "count_points": 2, "latitude": 46.83828, "longitude": 34.17298, "city": "Nyzhni Sirohozy", "images": []}, {"id": 433163, "min_date": "2019-09-19T09:36:00Z", "max_date": "2019-09-19T09:36:00Z", "count_points": 1, "latitude": 47.29617, "longitude": 34.38338, "city": "Verkhniy Rohachyk", "images": []}, {"id": 433164, "min_date": "2019-09-19T09:36:00Z", "max_date": "2019-09-19T09:36:00Z", "count_points": 1, "latitude": 45.56264, "longitude": 34.82515, "city": "Akimovka", "images": []}, {"id": 433165, "min_date": "2019-09-19T09:36:00Z", "max_date": "2019-09-19T09:36:00Z", "count_points": 1, "latitude": 47.07248, "longitude": 35.75, "city": "Rozivka", "images": []}, {"id": 433166, "min_date": "2019-09-19T11:12:00Z", "max_date": "2019-09-19T11:12:00Z", "count_points": 2, "latitude": 46.78671, "longitude": 36.67161, "city": "Berdyansk", "images": []}, {"id": 433167, "min_date": "2019-09-19T11:12:00Z", "max_date": "2019-09-19T11:12:00Z", "count_points": 1, "latitude": 46.95144, "longitude": 36.5324, "city": "Prymors\u2019k", "images": []}, {"id": 433168, "min_date": "2019-09-19T11:12:00Z", "max_date": "2019-09-19T23:30:00Z", "count_points": 3, "latitude": 48.43698, "longitude": 34.64639, "city": "Kamianske", "images": []}, {"id": 433169, "min_date": "2019-09-19T11:12:00Z", "max_date": "2019-09-19T11:12:00Z", "count_points": 1, "latitude": 47.47948, "longitude": 31.66169, "city": "Nova Odesa", "images": []}, {"id": 433170, "min_date": "2019-09-19T11:12:00Z", "max_date": "2019-09-19T11:12:00Z", "count_points": 1, "latitude": 46.77682, "longitude": 31.29792, "city": "Berezanka", "images": []}, {"id": 433171, "min_date": "2019-09-19T11:12:00Z", "max_date": "2019-09-19T11:12:00Z", "count_points": 1, "latitude": 47.00493, "longitude": 35.38952, "city": "Terpinnya", "images": []}, {"id": 433172, "min_date": "2019-09-19T11:12:00Z", "max_date": "2019-09-19T11:12:00Z", "count_points": 2, "latitude": 45.2896, "longitude": 34.83605, "city": "Zavetnoye", "images": []}, {"id": 433173, "min_date": "2019-09-19T11:12:00Z", "max_date": "2019-09-19T11:12:00Z", "count_points": 2, "latitude": 46.69371, "longitude": 35.3302, "city": "Kostyantynivka", "images": []}, {"id": 433174, "min_date": "2019-09-19T11:12:00Z", "max_date": "2019-09-19T11:18:00Z", "count_points": 2, "latitude": 48.77024, "longitude": 28.91171, "city": "Bratslav", "images": []}, {"id": 433175, "min_date": "2019-09-19T11:12:00Z", "max_date": "2019-09-19T11:21:00Z", "count_points": 5, "latitude": 46.93409, "longitude": 34.99132, "city": "Vesele", "images": []}, {"id": 433176, "min_date": "2019-09-19T11:12:00Z", "max_date": "2019-09-19T11:12:00Z", "count_points": 2, "latitude": 48.2878, "longitude": 32.1482, "city": "Kompaniyivka", "images": []}, {"id": 433177, "min_date": "2019-09-19T11:12:00Z", "max_date": "2019-09-19T11:12:00Z", "count_points": 1, "latitude": 47.57308, "longitude": 31.8097, "city": "Yelanets\u2019", "images": []}, {"id": 433178, "min_date": "2019-09-19T11:18:00Z", "max_date": "2019-09-19T11:22:00Z", "count_points": 2, "latitude": 50.17096, "longitude": 24.73281, "city": "Lopatyn", "images": []}, {"id": 433179, "min_date": "2019-09-19T11:18:00Z", "max_date": "2019-09-19T11:18:00Z", "count_points": 2, "latitude": 51.82944, "longitude": 31.39318, "city": "Horodnya", "images": []}, {"id": 433180, "min_date": "2019-09-19T11:18:00Z", "max_date": "2019-09-19T11:18:00Z", "count_points": 1, "latitude": 50.58489, "longitude": 35.29727, "city": "Mezenivka", "images": []}, {"id": 433181, "min_date": "2019-09-19T11:18:00Z", "max_date": "2019-09-19T11:18:00Z", "count_points": 1, "latitude": 48.58461, "longitude": 22.48983, "city": "Serednye", "images": []}, {"id": 433182, "min_date": "2019-09-19T11:18:00Z", "max_date": "2019-09-19T11:18:00Z", "count_points": 1, "latitude": 49.70047, "longitude": 26.54839, "city": "Bazaliya", "images": []}, {"id": 433183, "min_date": "2019-09-19T11:18:00Z", "max_date": "2019-09-19T11:18:00Z", "count_points": 1, "latitude": 49.23136, "longitude": 29.27663, "city": "Illintsi", "images": []}, {"id": 433184, "min_date": "2019-09-19T11:18:00Z", "max_date": "2019-09-19T11:18:00Z", "count_points": 1, "latitude": 49.83886, "longitude": 30.45937, "city": "Uzyn", "images": []}, {"id": 433185, "min_date": "2019-09-19T11:18:00Z", "max_date": "2019-09-19T11:18:00Z", "count_points": 1, "latitude": 48.36379, "longitude": 22.7262, "city": "Mukacheve", "images": []}, {"id": 433186, "min_date": "2019-09-19T23:30:00Z", "max_date": "2019-09-19T23:30:00Z", "count_points": 1, "latitude": 49.3758, "longitude": 37.78149, "city": "Borova", "images": []}, {"id": 433187, "min_date": "2019-09-19T23:30:00Z", "max_date": "2019-09-19T23:30:00Z", "count_points": 1, "latitude": 49.99654, "longitude": 33.63001, "city": "Myrhorod", "images": []}, {"id": 433188, "min_date": "2019-09-19T23:30:00Z", "max_date": "2019-09-20T09:18:00Z", "count_points": 2, "latitude": 49.7184, "longitude": 38.10386, "city": "Nyzhnya Duvanka", "images": []}, {"id": 433189, "min_date": "2019-09-19T23:30:00Z", "max_date": "2019-09-19T23:30:00Z", "count_points": 1, "latitude": 50.21896, "longitude": 27.53357, "city": "Poninka", "images": []}, {"id": 433190, "min_date": "2019-09-19T23:30:00Z", "max_date": "2019-09-20T01:06:00Z", "count_points": 3, "latitude": 49.40139, "longitude": 31.15852, "city": "Stebl\u00ebv", "images": []}, {"id": 433191, "min_date": "2019-09-19T23:30:00Z", "max_date": "2019-09-19T23:30:00Z", "count_points": 1, "latitude": 48.79585, "longitude": 29.37897, "city": "Haisyn", "images": []}, {"id": 433192, "min_date": "2019-09-20T01:06:00Z", "max_date": "2019-09-20T01:06:00Z", "count_points": 3, "latitude": 50.73985, "longitude": 25.31976, "city": "Lutsk", "images": []}, {"id": 433193, "min_date": "2019-09-20T09:18:00Z", "max_date": "2019-09-20T09:18:00Z", "count_points": 1, "latitude": 48.70797, "longitude": 35.58585, "city": "Melioratyvne", "images": []}, {"id": 433194, "min_date": "2019-09-20T09:18:00Z", "max_date": "2019-09-20T08:41:00Z", "count_points": 2, "latitude": 51.76309, "longitude": 33.63928, "city": "Shostka", "images": []}, {"id": 433195, "min_date": "2019-09-20T09:18:00Z", "max_date": "2019-09-20T09:18:00Z", "count_points": 2, "latitude": 46.704, "longitude": 32.0618, "city": "Stanislav", "images": []}, {"id": 433196, "min_date": "2019-09-20T09:18:00Z", "max_date": "2019-09-20T09:18:00Z", "count_points": 1, "latitude": 47.92003, "longitude": 30.1556, "city": "Lyubashivka", "images": []}, {"id": 433197, "min_date": "2019-09-20T09:18:00Z", "max_date": "2019-09-20T10:26:00Z", "count_points": 2, "latitude": 48.97912, "longitude": 35.11526, "city": "Mahdalynivka", "images": []}, {"id": 433198, "min_date": "2019-09-20T09:18:00Z", "max_date": "2019-09-20T09:18:00Z", "count_points": 1, "latitude": 48.92691, "longitude": 34.86196, "city": "Mahdalynivka", "images": []}, {"id": 433199, "min_date": "2019-09-20T09:18:00Z", "max_date": "2019-09-20T09:18:00Z", "count_points": 1, "latitude": 51.0532, "longitude": 33.71174, "city": "Sloboda", "images": []}, {"id": 433200, "min_date": "2019-09-20T10:54:00Z", "max_date": "2019-09-21T11:09:00Z", "count_points": 4, "latitude": 47.55449, "longitude": 29.3976, "city": "Okny", "images": []}, {"id": 433201, "min_date": "2019-09-20T10:54:00Z", "max_date": "2019-09-20T10:54:00Z", "count_points": 1, "latitude": 48.36317, "longitude": 28.85556, "city": "Kryzhopil\u2019", "images": []}, {"id": 433202, "min_date": "2019-09-20T10:54:00Z", "max_date": "2019-09-20T10:54:00Z", "count_points": 2, "latitude": 48.53331, "longitude": 22.52551, "city": "Serednye", "images": []}, {"id": 433203, "min_date": "2019-09-20T10:54:00Z", "max_date": "2019-09-20T10:54:00Z", "count_points": 2, "latitude": 48.14425, "longitude": 22.98458, "city": "Pidvynohradiv", "images": []}, {"id": 433204, "min_date": "2019-09-20T10:54:00Z", "max_date": "2019-09-20T10:54:00Z", "count_points": 1, "latitude": 49.98845, "longitude": 23.29764, "city": "Yavoriv", "images": []}, {"id": 433205, "min_date": "2019-09-20T10:54:00Z", "max_date": "2019-09-20T10:54:00Z", "count_points": 2, "latitude": 51.93747, "longitude": 33.53438, "city": "Shostka", "images": []}, {"id": 433206, "min_date": "2019-09-20T10:54:00Z", "max_date": "2019-09-20T10:54:00Z", "count_points": 2, "latitude": 49.25288, "longitude": 36.15288, "city": "Pervomays\u2019kyy", "images": []}, {"id": 433207, "min_date": "2019-09-20T10:54:00Z", "max_date": "2019-09-20T10:54:00Z", "count_points": 7, "latitude": 48.15626, "longitude": 30.33603, "city": "Blahovishchens\u2019ke", "images": []}, {"id": 433208, "min_date": "2019-09-20T10:54:00Z", "max_date": "2019-09-20T10:54:00Z", "count_points": 2, "latitude": 47.53985, "longitude": 30.13958, "city": "Shyryayeve", "images": []}, {"id": 433209, "min_date": "2019-09-20T10:54:00Z", "max_date": "2019-09-20T10:54:00Z", "count_points": 2, "latitude": 47.48098, "longitude": 30.10205, "city": "Shyryayeve", "images": []}, {"id": 433210, "min_date": "2019-09-20T10:54:00Z", "max_date": "2019-09-20T10:54:00Z", "count_points": 1, "latitude": 51.43521, "longitude": 25.73731, "city": "Manevychi", "images": []}, {"id": 433211, "min_date": "2019-09-20T10:54:00Z", "max_date": "2019-09-20T10:54:00Z", "count_points": 1, "latitude": 49.69647, "longitude": 26.10356, "city": "Pidvolochysk", "images": []}, {"id": 433212, "min_date": "2019-09-20T10:54:00Z", "max_date": "2019-09-20T10:54:00Z", "count_points": 2, "latitude": 48.73397, "longitude": 35.19984, "city": "Hubynykha", "images": []}, {"id": 433213, "min_date": "2019-09-20T10:54:00Z", "max_date": "2019-09-20T10:54:00Z", "count_points": 1, "latitude": 49.36398, "longitude": 28.68002, "city": "Nova Pryluka", "images": []}, {"id": 433214, "min_date": "2019-09-20T10:54:00Z", "max_date": "2019-09-20T10:54:00Z", "count_points": 2, "latitude": 48.54526, "longitude": 32.98862, "city": "Oleksandriys\u2019ke", "images": []}, {"id": 433215, "min_date": "2019-09-20T10:54:00Z", "max_date": "2019-09-20T10:54:00Z", "count_points": 1, "latitude": 49.39585, "longitude": 35.76911, "city": "Berezivka", "images": []}, {"id": 433216, "min_date": "2019-09-20T10:54:00Z", "max_date": "2019-09-20T10:54:00Z", "count_points": 2, "latitude": 48.12555, "longitude": 30.1515, "city": "Savran", "images": []}, {"id": 433217, "min_date": "2019-09-20T10:54:00Z", "max_date": "2019-09-20T10:54:00Z", "count_points": 1, "latitude": 50.65321, "longitude": 24.51835, "city": "Lokachi", "images": []}, {"id": 433218, "min_date": "2019-09-20T23:12:00Z", "max_date": "2019-09-20T23:12:00Z", "count_points": 1, "latitude": 49.02068, "longitude": 38.40308, "city": "Rubizhne", "images": []}, {"id": 433219, "min_date": "2019-09-21T00:48:00Z", "max_date": "2019-09-21T00:48:00Z", "count_points": 1, "latitude": 48.48362, "longitude": 27.72697, "city": "Serebriya", "images": []}, {"id": 433220, "min_date": "2019-09-21T10:36:00Z", "max_date": "2019-09-21T10:36:00Z", "count_points": 1, "latitude": 50.10891, "longitude": 30.18739, "city": "Borova", "images": []}, {"id": 433221, "min_date": "2019-09-21T10:36:00Z", "max_date": "2019-09-21T10:36:00Z", "count_points": 1, "latitude": 51.4807, "longitude": 30.60882, "city": "Slavutych", "images": []}, {"id": 433222, "min_date": "2019-09-21T10:36:00Z", "max_date": "2019-09-21T10:36:00Z", "count_points": 1, "latitude": 51.16334, "longitude": 34.18475, "city": "Vorozhba", "images": []}, {"id": 433223, "min_date": "2019-09-21T10:36:00Z", "max_date": "2019-09-21T10:36:00Z", "count_points": 1, "latitude": 46.90994, "longitude": 30.75233, "city": "Kremidivka", "images": []}, {"id": 433224, "min_date": "2019-09-21T10:36:00Z", "max_date": "2019-09-21T11:09:00Z", "count_points": 4, "latitude": 48.21034, "longitude": 29.91919, "city": "Zavallya", "images": []}, {"id": 433225, "min_date": "2019-09-21T10:36:00Z", "max_date": "2019-09-21T10:36:00Z", "count_points": 1, "latitude": 47.02007, "longitude": 31.82524, "city": "Olshanskoye", "images": []}, {"id": 433226, "min_date": "2019-09-21T10:36:00Z", "max_date": "2019-09-21T10:36:00Z", "count_points": 1, "latitude": 47.47098, "longitude": 30.52611, "city": "Mykolayivka", "images": []}, {"id": 433227, "min_date": "2019-09-21T10:36:00Z", "max_date": "2019-09-21T10:36:00Z", "count_points": 1, "latitude": 48.19383, "longitude": 30.33822, "city": "Blahovishchens\u2019ke", "images": []}, {"id": 433228, "min_date": "2019-09-21T10:36:00Z", "max_date": "2019-09-22T08:30:00Z", "count_points": 3, "latitude": 46.41146, "longitude": 33.96755, "city": "Askaniya-Nova", "images": []}, {"id": 433229, "min_date": "2019-09-21T10:36:00Z", "max_date": "2019-09-21T10:36:00Z", "count_points": 3, "latitude": 46.21293, "longitude": 33.6175, "city": "Armyansk", "images": []}, {"id": 433230, "min_date": "2019-09-21T10:36:00Z", "max_date": "2019-09-22T08:30:00Z", "count_points": 3, "latitude": 46.66525, "longitude": 33.65459, "city": "Lyubymivka", "images": []}, {"id": 433231, "min_date": "2019-09-21T10:36:00Z", "max_date": "2019-09-21T10:36:00Z", "count_points": 1, "latitude": 48.15674, "longitude": 30.80529, "city": "Pidhorodna", "images": []}, {"id": 433232, "min_date": "2019-09-21T10:36:00Z", "max_date": "2019-09-21T11:09:00Z", "count_points": 2, "latitude": 47.84821, "longitude": 29.7591, "city": "Balta", "images": []}, {"id": 433233, "min_date": "2019-09-21T10:36:00Z", "max_date": "2019-09-21T10:36:00Z", "count_points": 1, "latitude": 48.50742, "longitude": 30.32126, "city": "Holovanivs\u2019k", "images": []}, {"id": 433234, "min_date": "2019-09-21T10:36:00Z", "max_date": "2019-09-21T11:09:00Z", "count_points": 2, "latitude": 47.34398, "longitude": 35.50959, "city": "Pryshyb", "images": []}, {"id": 433235, "min_date": "2019-09-21T10:36:00Z", "max_date": "2019-09-21T10:36:00Z", "count_points": 1, "latitude": 46.80429, "longitude": 32.55324, "city": "Chornobayivka", "images": []}, {"id": 433236, "min_date": "2019-09-21T10:36:00Z", "max_date": "2019-09-21T10:36:00Z", "count_points": 1, "latitude": 46.34268, "longitude": 32.15913, "city": "Bekhtery", "images": []}, {"id": 433237, "min_date": "2019-09-21T10:36:00Z", "max_date": "2019-09-21T10:36:00Z", "count_points": 1, "latitude": 46.85141, "longitude": 31.92337, "city": "Mykolayiv", "images": []}, {"id": 433238, "min_date": "2019-09-21T10:36:00Z", "max_date": "2019-09-21T10:36:00Z", "count_points": 2, "latitude": 46.33229, "longitude": 32.29209, "city": "Chulakivka", "images": []}, {"id": 433239, "min_date": "2019-09-21T10:36:00Z", "max_date": "2019-09-21T11:09:00Z", "count_points": 4, "latitude": 47.6139, "longitude": 30.79611, "city": "Mykolayivka", "images": []}, {"id": 433240, "min_date": "2019-09-21T10:36:00Z", "max_date": "2019-09-21T10:36:00Z", "count_points": 1, "latitude": 46.923, "longitude": 32.03093, "city": "Mykolayiv", "images": []}, {"id": 433241, "min_date": "2019-09-21T10:36:00Z", "max_date": "2019-09-21T10:36:00Z", "count_points": 1, "latitude": 47.50576, "longitude": 31.09096, "city": "Domanivka", "images": []}, {"id": 433242, "min_date": "2019-09-21T10:36:00Z", "max_date": "2019-09-21T09:25:00Z", "count_points": 4, "latitude": 47.62112, "longitude": 30.68625, "city": "Mykolayivka", "images": []}, {"id": 433243, "min_date": "2019-09-21T10:36:00Z", "max_date": "2019-09-21T09:25:00Z", "count_points": 2, "latitude": 45.62487, "longitude": 34.93216, "city": "Izobil\u2019noye", "images": []}, {"id": 433244, "min_date": "2019-09-21T10:36:00Z", "max_date": "2019-09-21T10:36:00Z", "count_points": 1, "latitude": 48.14395, "longitude": 22.70491, "city": "Vary", "images": []}, {"id": 433245, "min_date": "2019-09-21T10:36:00Z", "max_date": "2019-09-21T10:36:00Z", "count_points": 1, "latitude": 47.89733, "longitude": 29.77804, "city": "Balta", "images": []}, {"id": 433246, "min_date": "2019-09-21T10:36:00Z", "max_date": "2019-09-21T10:36:00Z", "count_points": 3, "latitude": 49.01457, "longitude": 31.02231, "city": "Vatutine", "images": []}, {"id": 433247, "min_date": "2019-09-21T10:36:00Z", "max_date": "2019-09-21T10:36:00Z", "count_points": 1, "latitude": 48.67068, "longitude": 30.36074, "city": "Babanka", "images": []}, {"id": 433248, "min_date": "2019-09-21T10:36:00Z", "max_date": "2019-09-21T10:36:00Z", "count_points": 1, "latitude": 48.59893, "longitude": 29.57352, "city": "Viytivka", "images": []}, {"id": 433249, "min_date": "2019-09-21T10:36:00Z", "max_date": "2019-09-21T10:36:00Z", "count_points": 1, "latitude": 49.13003, "longitude": 30.19037, "city": "Zhashkiv", "images": []}, {"id": 433250, "min_date": "2019-09-21T10:36:00Z", "max_date": "2019-09-21T10:36:00Z", "count_points": 1, "latitude": 49.17983, "longitude": 29.11005, "city": "Lypovets", "images": []}, {"id": 433251, "min_date": "2019-09-21T10:36:00Z", "max_date": "2019-09-21T10:36:00Z", "count_points": 1, "latitude": 48.89703, "longitude": 30.12753, "city": "Verkhnyachka", "images": []}, {"id": 433252, "min_date": "2019-09-21T10:36:00Z", "max_date": "2019-09-21T11:09:00Z", "count_points": 2, "latitude": 48.06087, "longitude": 30.3711, "city": "Kryve Ozero", "images": []}, {"id": 433253, "min_date": "2019-09-21T12:18:00Z", "max_date": "2019-09-21T12:18:00Z", "count_points": 1, "latitude": 48.19708, "longitude": 22.67953, "city": "Muzhiyevo", "images": []}, {"id": 433254, "min_date": "2019-09-21T22:54:00Z", "max_date": "2019-09-21T11:08:00Z", "count_points": 3, "latitude": 45.38132, "longitude": 34.55677, "city": "Novogrigoryevka", "images": []}, {"id": 433255, "min_date": "2019-09-21T22:54:00Z", "max_date": "2019-09-22T08:30:00Z", "count_points": 6, "latitude": 46.1534, "longitude": 33.53364, "city": "Armyansk", "images": []}, {"id": 433256, "min_date": "2019-09-21T22:54:00Z", "max_date": "2019-09-22T00:30:00Z", "count_points": 2, "latitude": 47.31717, "longitude": 35.55897, "city": "Tokmak", "images": []}, {"id": 433257, "min_date": "2019-09-22T10:18:00Z", "max_date": "2019-09-22T10:08:00Z", "count_points": 7, "latitude": 49.26645, "longitude": 24.43911, "city": "Burshtyn", "images": []}, {"id": 433258, "min_date": "2019-09-22T10:18:00Z", "max_date": "2019-09-22T12:00:00Z", "count_points": 3, "latitude": 48.1204, "longitude": 30.5831, "city": "Pobugskoye", "images": []}, {"id": 433259, "min_date": "2019-09-22T10:18:00Z", "max_date": "2019-09-22T10:18:00Z", "count_points": 1, "latitude": 48.10687, "longitude": 23.10805, "city": "Korolevo", "images": []}, {"id": 433260, "min_date": "2019-09-22T10:18:00Z", "max_date": "2019-09-22T10:18:00Z", "count_points": 1, "latitude": 49.30764, "longitude": 25.11399, "city": "Pidhaytsi", "images": []}, {"id": 433261, "min_date": "2019-09-22T10:18:00Z", "max_date": "2019-09-22T10:14:00Z", "count_points": 7, "latitude": 46.59998, "longitude": 34.43728, "city": "Ivanivka", "images": []}, {"id": 433262, "min_date": "2019-09-22T10:18:00Z", "max_date": "2019-09-22T10:18:00Z", "count_points": 1, "latitude": 47.43034, "longitude": 34.53192, "city": "Vodyane", "images": []}, {"id": 433263, "min_date": "2019-09-22T10:18:00Z", "max_date": "2019-09-22T10:14:00Z", "count_points": 4, "latitude": 46.39698, "longitude": 34.19381, "city": "Novotroyits\u2019ke", "images": []}, {"id": 433264, "min_date": "2019-09-22T10:18:00Z", "max_date": "2019-09-22T10:14:00Z", "count_points": 21, "latitude": 48.41507, "longitude": 29.59624, "city": "Viytivka", "images": []}, {"id": 433265, "min_date": "2019-09-22T10:18:00Z", "max_date": "2019-09-22T10:18:00Z", "count_points": 1, "latitude": 47.59811, "longitude": 30.51386, "city": "Mykolayivka", "images": []}, {"id": 433266, "min_date": "2019-09-22T10:18:00Z", "max_date": "2019-09-22T10:14:00Z", "count_points": 3, "latitude": 47.00183, "longitude": 32.58028, "city": "Snihurivka", "images": []}, {"id": 433267, "min_date": "2019-09-22T10:18:00Z", "max_date": "2019-09-22T10:18:00Z", "count_points": 1, "latitude": 46.82091, "longitude": 32.70082, "city": "Oleksandrivka", "images": []}, {"id": 433268, "min_date": "2019-09-22T10:18:00Z", "max_date": "2019-09-22T10:14:00Z", "count_points": 3, "latitude": 47.76997, "longitude": 29.86331, "city": "Ananyiv Pershyi", "images": []}, {"id": 433269, "min_date": "2019-09-22T10:18:00Z", "max_date": "2019-09-22T10:18:00Z", "count_points": 1, "latitude": 45.53182, "longitude": 29.6214, "city": "Vylkove", "images": []}, {"id": 433270, "min_date": "2019-09-22T10:18:00Z", "max_date": "2019-09-22T10:18:00Z", "count_points": 1, "latitude": 47.78216, "longitude": 30.17946, "city": "Lyubashivka", "images": []}, {"id": 433271, "min_date": "2019-09-22T10:18:00Z", "max_date": "2019-09-22T10:14:00Z", "count_points": 19, "latitude": 46.9299, "longitude": 36.16121, "city": "Chernihivka", "images": []}, {"id": 433272, "min_date": "2019-09-22T10:18:00Z", "max_date": "2019-09-22T10:18:00Z", "count_points": 1, "latitude": 47.56822, "longitude": 31.32757, "city": "Voznesensk", "images": []}, {"id": 433273, "min_date": "2019-09-22T10:18:00Z", "max_date": "2019-09-22T10:18:00Z", "count_points": 1, "latitude": 47.21378, "longitude": 33.28281, "city": "Velyka Oleksandrivka", "images": []}, {"id": 433274, "min_date": "2019-09-22T10:18:00Z", "max_date": "2019-09-22T10:18:00Z", "count_points": 1, "latitude": 48.4665, "longitude": 29.05472, "city": "Tsybulevka", "images": []}, {"id": 433275, "min_date": "2019-09-22T10:18:00Z", "max_date": "2019-09-22T10:18:00Z", "count_points": 5, "latitude": 48.34732, "longitude": 28.73745, "city": "Kryzhopil\u2019", "images": []}, {"id": 433276, "min_date": "2019-09-22T10:18:00Z", "max_date": "2019-09-22T10:18:00Z", "count_points": 2, "latitude": 48.39987, "longitude": 28.5655, "city": "Tomashpil\u2019", "images": []}, {"id": 433277, "min_date": "2019-09-22T10:18:00Z", "max_date": "2019-09-22T10:18:00Z", "count_points": 1, "latitude": 47.31093, "longitude": 30.60924, "city": "Mykolayivka", "images": []}, {"id": 433278, "min_date": "2019-09-22T10:18:00Z", "max_date": "2019-09-22T10:18:00Z", "count_points": 1, "latitude": 48.88032, "longitude": 25.63734, "city": "Nyrkiv", "images": []}, {"id": 433279, "min_date": "2019-09-22T10:18:00Z", "max_date": "2019-09-22T10:14:00Z", "count_points": 6, "latitude": 47.6219, "longitude": 29.95051, "city": "Ananyiv Pershyi", "images": []}, {"id": 433280, "min_date": "2019-09-22T10:18:00Z", "max_date": "2019-09-22T10:18:00Z", "count_points": 3, "latitude": 48.68452, "longitude": 29.82602, "city": "Teplyk", "images": []}, {"id": 433281, "min_date": "2019-09-22T10:18:00Z", "max_date": "2019-09-22T10:14:00Z", "count_points": 10, "latitude": 48.52499, "longitude": 29.59295, "city": "Viytivka", "images": []}, {"id": 433282, "min_date": "2019-09-22T10:18:00Z", "max_date": "2019-09-22T10:14:00Z", "count_points": 5, "latitude": 48.63448, "longitude": 29.15801, "city": "Ladyzhyn", "images": []}, {"id": 433283, "min_date": "2019-09-22T10:18:00Z", "max_date": "2019-09-22T10:18:00Z", "count_points": 1, "latitude": 48.95515, "longitude": 27.69699, "city": "Bar", "images": []}, {"id": 433284, "min_date": "2019-09-22T10:18:00Z", "max_date": "2019-09-22T10:18:00Z", "count_points": 1, "latitude": 47.85531, "longitude": 30.90914, "city": "Myhiya", "images": []}, {"id": 433285, "min_date": "2019-09-22T10:18:00Z", "max_date": "2019-09-22T10:18:00Z", "count_points": 1, "latitude": 46.53959, "longitude": 35.20179, "city": "Yakymivka", "images": []}, {"id": 433286, "min_date": "2019-09-22T10:18:00Z", "max_date": "2019-09-22T10:14:00Z", "count_points": 4, "latitude": 47.26809, "longitude": 33.43909, "city": "Velyka Oleksandrivka", "images": []}, {"id": 433287, "min_date": "2019-09-22T10:18:00Z", "max_date": "2019-09-22T10:14:00Z", "count_points": 7, "latitude": 46.60392, "longitude": 33.66088, "city": "Lyubymivka", "images": []}, {"id": 433288, "min_date": "2019-09-22T12:00:00Z", "max_date": "2019-09-22T12:00:00Z", "count_points": 2, "latitude": 49.17194, "longitude": 25.99094, "city": "Khorostkiv", "images": []}, {"id": 433289, "min_date": "2019-09-22T12:00:00Z", "max_date": "2019-09-22T12:00:00Z", "count_points": 1, "latitude": 48.2061, "longitude": 26.03597, "city": "Molodiya", "images": []}, {"id": 433290, "min_date": "2019-09-22T12:00:00Z", "max_date": "2019-09-22T12:00:00Z", "count_points": 1, "latitude": 48.15287, "longitude": 30.55826, "city": "Pobugskoye", "images": []}, {"id": 433291, "min_date": "2019-09-22T12:00:00Z", "max_date": "2019-09-22T12:00:00Z", "count_points": 1, "latitude": 50.59564, "longitude": 24.72897, "city": "Horokhiv", "images": []}, {"id": 433292, "min_date": "2019-09-22T12:00:00Z", "max_date": "2019-09-22T11:52:00Z", "count_points": 6, "latitude": 47.78931, "longitude": 29.28644, "city": "Slobidka", "images": []}, {"id": 433293, "min_date": "2019-09-22T12:00:00Z", "max_date": "2019-09-22T12:00:00Z", "count_points": 1, "latitude": 49.80461, "longitude": 24.68327, "city": "Krasne", "images": []}, {"id": 433294, "min_date": "2019-09-22T12:00:00Z", "max_date": "2019-09-22T12:00:00Z", "count_points": 1, "latitude": 45.89898, "longitude": 28.84423, "city": "Horodnye", "images": []}, {"id": 433295, "min_date": "2019-09-22T12:00:00Z", "max_date": "2019-09-22T12:00:00Z", "count_points": 4, "latitude": 45.85179, "longitude": 28.77498, "city": "Horodnye", "images": []}, {"id": 433296, "min_date": "2019-09-22T12:00:00Z", "max_date": "2019-09-22T12:00:00Z", "count_points": 2, "latitude": 48.11614, "longitude": 30.75364, "city": "Pervomays\u2019k", "images": []}, {"id": 433297, "min_date": "2019-09-22T12:00:00Z", "max_date": "2019-09-22T11:52:00Z", "count_points": 3, "latitude": 48.01259, "longitude": 24.92604, "city": "Verkhniy Yasenov", "images": []}, {"id": 433298, "min_date": "2019-09-22T12:00:00Z", "max_date": "2019-09-22T12:00:00Z", "count_points": 1, "latitude": 45.48164, "longitude": 29.18838, "city": "Kiliya", "images": []}, {"id": 433299, "min_date": "2019-09-22T12:00:00Z", "max_date": "2019-09-16T09:07:00Z", "count_points": 3, "latitude": 47.81707, "longitude": 31.60379, "city": "Brats\u2019ke", "images": []}, {"id": 433300, "min_date": "2019-09-22T12:00:00Z", "max_date": "2019-09-22T12:00:00Z", "count_points": 1, "latitude": 50.14799, "longitude": 24.81483, "city": "Lopatyn", "images": []}, {"id": 433301, "min_date": "2019-09-22T12:00:00Z", "max_date": "2019-09-22T12:00:00Z", "count_points": 1, "latitude": 49.60889, "longitude": 28.99869, "city": "Kozyatyn", "images": []}, {"id": 433302, "min_date": "2019-09-22T12:00:00Z", "max_date": "2019-09-22T11:52:00Z", "count_points": 4, "latitude": 48.66537, "longitude": 30.71018, "city": "Novoarkhanhel\u2019s\u2019k", "images": []}, {"id": 433303, "min_date": "2019-09-22T12:00:00Z", "max_date": "2019-09-22T12:00:00Z", "count_points": 1, "latitude": 49.63638, "longitude": 28.76937, "city": "Kozyatyn", "images": []}, {"id": 433304, "min_date": "2019-09-22T12:00:00Z", "max_date": "2019-09-22T12:00:00Z", "count_points": 2, "latitude": 49.144, "longitude": 29.62757, "city": "Orativ", "images": []}, {"id": 433305, "min_date": "2019-09-22T12:00:00Z", "max_date": "2019-09-22T12:00:00Z", "count_points": 2, "latitude": 48.54813, "longitude": 28.70922, "city": "Vapnyarka", "images": []}, {"id": 433306, "min_date": "2019-09-22T12:00:00Z", "max_date": "2019-09-22T12:00:00Z", "count_points": 1, "latitude": 46.26245, "longitude": 29.08843, "city": "Serpneve", "images": []}, {"id": 433307, "min_date": "2019-09-22T12:00:00Z", "max_date": "2019-09-22T12:00:00Z", "count_points": 1, "latitude": 50.02696, "longitude": 27.20945, "city": "Shepetivka", "images": []}, {"id": 433308, "min_date": "2019-09-22T12:00:00Z", "max_date": "2019-09-22T12:00:00Z", "count_points": 1, "latitude": 49.03012, "longitude": 24.82287, "city": "Yamnytsya", "images": []}, {"id": 433309, "min_date": "2019-09-22T12:00:00Z", "max_date": "2019-09-22T12:00:00Z", "count_points": 1, "latitude": 49.22881, "longitude": 26.51526, "city": "Horodok", "images": []}, {"id": 433310, "min_date": "2019-09-22T22:30:00Z", "max_date": "2019-09-22T22:30:00Z", "count_points": 2, "latitude": 47.97059, "longitude": 35.96584, "city": "Novomykolayivka", "images": []}, {"id": 433311, "min_date": "2019-09-22T22:30:00Z", "max_date": "2019-09-22T22:30:00Z", "count_points": 1, "latitude": 47.81523, "longitude": 37.95547, "city": "Novyy Svit", "images": []}, {"id": 433312, "min_date": "2019-09-22T22:30:00Z", "max_date": "2019-09-22T22:30:00Z", "count_points": 2, "latitude": 46.75425, "longitude": 36.82558, "city": "Berdyansk", "images": []}, {"id": 433313, "min_date": "2019-09-22T22:30:00Z", "max_date": "2019-09-22T22:30:00Z", "count_points": 2, "latitude": 46.81189, "longitude": 36.82688, "city": "Berdyansk", "images": []}, {"id": 433314, "min_date": "2019-09-22T22:30:00Z", "max_date": "2019-09-22T22:30:00Z", "count_points": 1, "latitude": 47.66191, "longitude": 37.89144, "city": "Starobesheve", "images": []}, {"id": 433315, "min_date": "2019-09-16T09:05:00Z", "max_date": "2019-09-16T09:05:00Z", "count_points": 1, "latitude": 51.7028, "longitude": 32.6957, "city": "Kholmy", "images": []}, {"id": 433316, "min_date": "2019-09-16T09:06:00Z", "max_date": "2019-09-16T09:06:00Z", "count_points": 1, "latitude": 47.6655, "longitude": 35.6696, "city": "Kirove", "images": []}, {"id": 433317, "min_date": "2019-09-16T09:06:00Z", "max_date": "2019-09-16T09:06:00Z", "count_points": 1, "latitude": 48.4128, "longitude": 34.1934, "city": "Novomykolayivka", "images": []}, {"id": 433318, "min_date": "2019-09-16T09:06:00Z", "max_date": "2019-09-16T09:06:00Z", "count_points": 1, "latitude": 49.0739, "longitude": 33.4661, "city": "Kremenchuk", "images": []}, {"id": 433319, "min_date": "2019-09-16T09:06:00Z", "max_date": "2019-09-16T09:06:00Z", "count_points": 2, "latitude": 48.8319, "longitude": 35.138, "city": "Hubynykha", "images": []}, {"id": 433320, "min_date": "2019-09-16T09:06:00Z", "max_date": "2019-09-16T09:06:00Z", "count_points": 1, "latitude": 48.2595, "longitude": 34.73, "city": "Surs\u2019ko-Mykhaylivka", "images": []}, {"id": 433321, "min_date": "2019-09-16T09:06:00Z", "max_date": "2019-09-16T09:06:00Z", "count_points": 1, "latitude": 48.0796, "longitude": 35.7444, "city": "Novomykolayivka", "images": []}, {"id": 433322, "min_date": "2019-09-16T09:06:00Z", "max_date": "2019-09-16T09:06:00Z", "count_points": 1, "latitude": 48.7667, "longitude": 33.8589, "city": "Lykhivka", "images": []}, {"id": 433323, "min_date": "2019-09-16T09:06:00Z", "max_date": "2019-09-16T10:51:00Z", "count_points": 2, "latitude": 48.28585, "longitude": 30.9249, "city": "Vil\u2019shanka", "images": []}, {"id": 433324, "min_date": "2019-09-16T09:06:00Z", "max_date": "2019-09-16T09:06:00Z", "count_points": 1, "latitude": 48.0103, "longitude": 38.0192, "city": "Makiyivka", "images": []}, {"id": 433325, "min_date": "2019-09-16T09:06:00Z", "max_date": "2019-09-16T09:06:00Z", "count_points": 1, "latitude": 49.8139, "longitude": 34.7713, "city": "Oposhnya", "images": []}, {"id": 433326, "min_date": "2019-09-16T09:06:00Z", "max_date": "2019-09-16T09:06:00Z", "count_points": 1, "latitude": 47.8243, "longitude": 37.5107, "city": "Mareyka", "images": []}, {"id": 433327, "min_date": "2019-09-16T09:06:00Z", "max_date": "2019-09-16T09:06:00Z", "count_points": 2, "latitude": 49.85465, "longitude": 32.21005, "city": "Drabiv", "images": []}, {"id": 433328, "min_date": "2019-09-16T09:06:00Z", "max_date": "2019-09-16T09:06:00Z", "count_points": 2, "latitude": 48.88975, "longitude": 36.80915, "city": "Barvinkove", "images": []}, {"id": 433329, "min_date": "2019-09-16T09:06:00Z", "max_date": "2019-09-16T09:06:00Z", "count_points": 1, "latitude": 49.3754, "longitude": 29.4579, "city": "Orativ", "images": []}, {"id": 433330, "min_date": "2019-09-16T09:06:00Z", "max_date": "2019-09-16T09:06:00Z", "count_points": 1, "latitude": 49.3506, "longitude": 25.8176, "city": "Terebovlya", "images": []}, {"id": 433331, "min_date": "2019-09-16T09:06:00Z", "max_date": "2019-09-16T10:51:00Z", "count_points": 3, "latitude": 48.7123, "longitude": 25.6967, "city": "Kostryzhivka", "images": []}, {"id": 433332, "min_date": "2019-09-16T09:06:00Z", "max_date": "2019-09-16T09:06:00Z", "count_points": 1, "latitude": 48.457, "longitude": 28.8753, "city": "Kryzhopil\u2019", "images": []}, {"id": 433333, "min_date": "2019-09-16T09:06:00Z", "max_date": "2019-09-16T09:06:00Z", "count_points": 2, "latitude": 49.15315, "longitude": 29.72255, "city": "Tsibulev", "images": []}, {"id": 433334, "min_date": "2019-09-16T09:06:00Z", "max_date": "2019-09-16T09:06:00Z", "count_points": 1, "latitude": 48.688, "longitude": 26.9977, "city": "Dunaivtsi", "images": []}, {"id": 433335, "min_date": "2019-09-16T09:06:00Z", "max_date": "2019-09-16T09:06:00Z", "count_points": 1, "latitude": 47.7207, "longitude": 32.6212, "city": "Novyy Buh", "images": []}, {"id": 433336, "min_date": "2019-09-16T09:06:00Z", "max_date": "2019-09-16T09:06:00Z", "count_points": 1, "latitude": 48.6231, "longitude": 26.7707, "city": "Kel\u2019mentsi", "images": []}, {"id": 433337, "min_date": "2019-09-16T09:06:00Z", "max_date": "2019-09-16T09:06:00Z", "count_points": 2, "latitude": 48.46655, "longitude": 31.1473, "city": "Lypnyazhka", "images": []}, {"id": 433338, "min_date": "2019-09-16T09:06:00Z", "max_date": "2019-09-16T09:06:00Z", "count_points": 1, "latitude": 51.066, "longitude": 26.3109, "city": "Kostopil\u2019", "images": []}, {"id": 433339, "min_date": "2019-09-16T09:06:00Z", "max_date": "2019-09-16T09:06:00Z", "count_points": 1, "latitude": 49.4597, "longitude": 29.8481, "city": "Volodarka", "images": []}, {"id": 433340, "min_date": "2019-09-16T09:07:00Z", "max_date": "2019-09-16T09:07:00Z", "count_points": 2, "latitude": 47.7531, "longitude": 29.2771, "city": "Slobidka", "images": []}, {"id": 433341, "min_date": "2019-09-16T09:07:00Z", "max_date": "2019-09-16T09:07:00Z", "count_points": 1, "latitude": 46.835, "longitude": 33.1677, "city": "Dnipryany", "images": []}, {"id": 433342, "min_date": "2019-09-16T09:07:00Z", "max_date": "2019-09-16T09:07:00Z", "count_points": 1, "latitude": 47.6223, "longitude": 30.1057, "city": "Ananyiv Pershyi", "images": []}, {"id": 433343, "min_date": "2019-09-16T09:07:00Z", "max_date": "2019-09-16T09:07:00Z", "count_points": 1, "latitude": 46.9116, "longitude": 36.0553, "city": "Rozivka", "images": []}, {"id": 433344, "min_date": "2019-09-16T10:50:00Z", "max_date": "2019-09-16T10:50:00Z", "count_points": 1, "latitude": 46.5119, "longitude": 30.3123, "city": "Teplodar", "images": []}, {"id": 433345, "min_date": "2019-09-16T10:50:00Z", "max_date": "2019-09-16T10:50:00Z", "count_points": 3, "latitude": 47.28433, "longitude": 34.7252, "city": "Velyka Bilozerka", "images": []}, {"id": 433346, "min_date": "2019-09-16T10:51:00Z", "max_date": "2019-09-16T10:51:00Z", "count_points": 2, "latitude": 49.1568, "longitude": 35.4018, "city": "Zachepylivka", "images": []}, {"id": 433347, "min_date": "2019-09-16T10:51:00Z", "max_date": "2019-09-16T10:51:00Z", "count_points": 1, "latitude": 47.6369, "longitude": 34.4172, "city": "Nikopol", "images": []}, {"id": 433348, "min_date": "2019-09-16T10:51:00Z", "max_date": "2019-09-16T10:51:00Z", "count_points": 1, "latitude": 49.67, "longitude": 35.0735, "city": "Chutove", "images": []}, {"id": 433349, "min_date": "2019-09-16T10:51:00Z", "max_date": "2019-09-16T10:51:00Z", "count_points": 2, "latitude": 48.3876, "longitude": 38.8916, "city": "Pereval\u2019s\u2019k", "images": []},