[{"id": 419449, "min_date": "2019-07-01T09:36:00Z", "max_date": "2019-07-01T11:12:00Z", "count_points": 4, "latitude": 48.33578, "longitude": 32.51937, "city": "Novhorodka", "images": []}, {"id": 419450, "min_date": "2019-07-01T09:36:00Z", "max_date": "2019-07-01T09:36:00Z", "count_points": 2, "latitude": 48.19226, "longitude": 31.88355, "city": "Rivne", "images": []}, {"id": 419451, "min_date": "2019-07-01T09:36:00Z", "max_date": "2019-07-01T11:21:00Z", "count_points": 5, "latitude": 45.90509, "longitude": 29.65817, "city": "Tatarbunary", "images": []}, {"id": 419452, "min_date": "2019-07-01T09:36:00Z", "max_date": "2019-07-01T09:36:00Z", "count_points": 2, "latitude": 47.31134, "longitude": 32.92875, "city": "Bereznehuvate", "images": []}, {"id": 419453, "min_date": "2019-07-01T09:36:00Z", "max_date": "2019-07-01T09:36:00Z", "count_points": 1, "latitude": 47.24316, "longitude": 31.05305, "city": "Berezivka", "images": []}, {"id": 419454, "min_date": "2019-07-01T09:36:00Z", "max_date": "2019-07-01T09:44:00Z", "count_points": 16, "latitude": 49.22709, "longitude": 37.63172, "city": "Borova", "images": []}, {"id": 419455, "min_date": "2019-07-01T09:36:00Z", "max_date": "2019-07-01T11:12:00Z", "count_points": 6, "latitude": 46.1894, "longitude": 34.28218, "city": "Novotroyits\u2019ke", "images": []}, {"id": 419456, "min_date": "2019-07-01T09:36:00Z", "max_date": "2019-07-01T09:36:00Z", "count_points": 2, "latitude": 45.87844, "longitude": 29.52552, "city": "Tatarbunary", "images": []}, {"id": 419457, "min_date": "2019-07-01T09:36:00Z", "max_date": "2019-07-01T09:36:00Z", "count_points": 1, "latitude": 47.64153, "longitude": 34.74088, "city": "Vil\u2019ne", "images": []}, {"id": 419458, "min_date": "2019-07-01T09:36:00Z", "max_date": "2019-07-01T09:38:00Z", "count_points": 12, "latitude": 45.75029, "longitude": 29.28938, "city": "Shevchenkove", "images": []}, {"id": 419459, "min_date": "2019-07-01T09:36:00Z", "max_date": "2019-07-01T09:38:00Z", "count_points": 2, "latitude": 46.02657, "longitude": 30.156, "city": "Kulevcha", "images": []}, {"id": 419460, "min_date": "2019-07-01T09:36:00Z", "max_date": "2019-07-04T10:18:00Z", "count_points": 6, "latitude": 45.64293, "longitude": 29.14476, "city": "Shevchenkove", "images": []}, {"id": 419461, "min_date": "2019-07-01T09:36:00Z", "max_date": "2019-07-01T09:36:00Z", "count_points": 3, "latitude": 47.61286, "longitude": 32.66804, "city": "Novyy Buh", "images": []}, {"id": 419462, "min_date": "2019-07-01T09:36:00Z", "max_date": "2019-07-02T10:54:00Z", "count_points": 2, "latitude": 45.54239, "longitude": 29.30987, "city": "Shevchenkove", "images": []}, {"id": 419463, "min_date": "2019-07-01T09:36:00Z", "max_date": "2019-07-02T12:04:00Z", "count_points": 14, "latitude": 45.7145, "longitude": 29.21542, "city": "Shevchenkove", "images": []}, {"id": 419464, "min_date": "2019-07-01T09:36:00Z", "max_date": "2019-07-01T09:36:00Z", "count_points": 1, "latitude": 45.66947, "longitude": 29.45147, "city": "Shevchenkove", "images": []}, {"id": 419465, "min_date": "2019-07-01T09:36:00Z", "max_date": "2019-07-01T11:12:00Z", "count_points": 3, "latitude": 47.5784, "longitude": 31.22895, "city": "Voznesensk", "images": []}, {"id": 419466, "min_date": "2019-07-01T09:36:00Z", "max_date": "2019-07-01T09:38:00Z", "count_points": 3, "latitude": 46.74299, "longitude": 30.1416, "city": "Stepove", "images": []}, {"id": 419467, "min_date": "2019-07-01T09:36:00Z", "max_date": "2019-07-01T11:18:00Z", "count_points": 2, "latitude": 50.78506, "longitude": 30.89866, "city": "Semypolky", "images": []}, {"id": 419468, "min_date": "2019-07-01T09:36:00Z", "max_date": "2019-07-01T09:36:00Z", "count_points": 1, "latitude": 47.41993, "longitude": 34.35777, "city": "Kamenka-Na-Dnepre", "images": []}, {"id": 419469, "min_date": "2019-07-01T09:36:00Z", "max_date": "2019-07-04T08:30:00Z", "count_points": 6, "latitude": 47.74572, "longitude": 30.50013, "city": "Vradiyivka", "images": []}, {"id": 419470, "min_date": "2019-07-01T09:36:00Z", "max_date": "2019-07-01T09:36:00Z", "count_points": 1, "latitude": 46.61138, "longitude": 35.0275, "city": "Yakymivka", "images": []}, {"id": 419471, "min_date": "2019-07-01T11:12:00Z", "max_date": "2019-07-01T11:22:00Z", "count_points": 3, "latitude": 47.97596, "longitude": 31.07734, "city": "Myhiya", "images": []}, {"id": 419472, "min_date": "2019-07-01T11:12:00Z", "max_date": "2019-07-01T11:21:00Z", "count_points": 9, "latitude": 45.48284, "longitude": 29.36665, "city": "Shevchenkove", "images": []}, {"id": 419473, "min_date": "2019-07-01T11:12:00Z", "max_date": "2019-07-01T11:21:00Z", "count_points": 3, "latitude": 45.73587, "longitude": 29.34099, "city": "Shevchenkove", "images": []}, {"id": 419474, "min_date": "2019-07-01T11:12:00Z", "max_date": "2019-07-01T11:12:00Z", "count_points": 1, "latitude": 48.00867, "longitude": 32.38996, "city": "Ustynivka", "images": []}, {"id": 419475, "min_date": "2019-07-01T11:12:00Z", "max_date": "2019-07-05T10:56:00Z", "count_points": 26, "latitude": 45.63255, "longitude": 29.55623, "city": "Tatarbunary", "images": []}, {"id": 419476, "min_date": "2019-07-01T11:12:00Z", "max_date": "2019-07-01T11:12:00Z", "count_points": 2, "latitude": 48.30964, "longitude": 30.87176, "city": "Vil\u2019shanka", "images": []}, {"id": 419477, "min_date": "2019-07-01T11:12:00Z", "max_date": "2019-07-01T23:30:00Z", "count_points": 3, "latitude": 47.53734, "longitude": 31.47304, "city": "Voznesensk", "images": []}, {"id": 419478, "min_date": "2019-07-01T11:12:00Z", "max_date": "2019-07-02T01:12:00Z", "count_points": 4, "latitude": 46.04935, "longitude": 29.60888, "city": "Sarata", "images": []}, {"id": 419479, "min_date": "2019-07-01T11:12:00Z", "max_date": "2019-07-02T10:54:00Z", "count_points": 8, "latitude": 46.14515, "longitude": 30.09175, "city": "Kulevcha", "images": []}, {"id": 419480, "min_date": "2019-07-01T11:12:00Z", "max_date": "2019-07-01T11:12:00Z", "count_points": 1, "latitude": 48.03361, "longitude": 29.51637, "city": "Balta", "images": []}, {"id": 419481, "min_date": "2019-07-01T11:12:00Z", "max_date": "2019-07-01T11:12:00Z", "count_points": 1, "latitude": 47.27524, "longitude": 37.8457, "city": "Sartana", "images": []}, {"id": 419482, "min_date": "2019-07-01T11:12:00Z", "max_date": "2019-07-01T11:12:00Z", "count_points": 2, "latitude": 48.2443, "longitude": 33.39159, "city": "Zhovti Vody", "images": []}, {"id": 419483, "min_date": "2019-07-01T11:12:00Z", "max_date": "2019-07-01T11:12:00Z", "count_points": 2, "latitude": 48.16152, "longitude": 33.47283, "city": "Zhovti Vody", "images": []}, {"id": 419484, "min_date": "2019-07-01T11:12:00Z", "max_date": "2019-07-01T11:12:00Z", "count_points": 2, "latitude": 47.47265, "longitude": 34.75464, "city": "Energodar", "images": []}, {"id": 419485, "min_date": "2019-07-01T11:12:00Z", "max_date": "2019-07-01T11:12:00Z", "count_points": 4, "latitude": 49.51479, "longitude": 33.26097, "city": "Semenivka", "images": []}, {"id": 419486, "min_date": "2019-07-01T11:12:00Z", "max_date": "2019-07-01T11:12:00Z", "count_points": 1, "latitude": 48.30327, "longitude": 25.95259, "city": "Chernivtsi", "images": []}, {"id": 419487, "min_date": "2019-07-01T11:12:00Z", "max_date": "2019-07-01T11:12:00Z", "count_points": 2, "latitude": 46.82033, "longitude": 36.69448, "city": "Berdyansk", "images": []}, {"id": 419488, "min_date": "2019-07-01T11:12:00Z", "max_date": "2019-07-01T11:12:00Z", "count_points": 2, "latitude": 47.79797, "longitude": 36.12082, "city": "Ternuvate", "images": []}, {"id": 419489, "min_date": "2019-07-01T11:12:00Z", "max_date": "2019-07-01T11:12:00Z", "count_points": 2, "latitude": 47.33177, "longitude": 33.87102, "city": "Velyka Lepetykha", "images": []}, {"id": 419490, "min_date": "2019-07-01T11:12:00Z", "max_date": "2019-07-01T11:12:00Z", "count_points": 3, "latitude": 46.5666, "longitude": 33.43155, "city": "Chornyanka", "images": []}, {"id": 419491, "min_date": "2019-07-01T11:12:00Z", "max_date": "2019-07-01T11:12:00Z", "count_points": 2, "latitude": 47.39069, "longitude": 33.43222, "city": "Vysokopillya", "images": []}, {"id": 419492, "min_date": "2019-07-01T11:12:00Z", "max_date": "2019-07-01T11:12:00Z", "count_points": 1, "latitude": 48.03276, "longitude": 33.88928, "city": "Sofiyivka", "images": []}, {"id": 419493, "min_date": "2019-07-01T11:12:00Z", "max_date": "2019-07-01T11:12:00Z", "count_points": 3, "latitude": 47.85074, "longitude": 31.6915, "city": "Brats\u2019ke", "images": []}, {"id": 419494, "min_date": "2019-07-01T11:12:00Z", "max_date": "2019-07-06T11:18:00Z", "count_points": 3, "latitude": 46.29266, "longitude": 30.03665, "city": "Starokozache", "images": []}, {"id": 419495, "min_date": "2019-07-01T11:12:00Z", "max_date": "2019-07-01T11:12:00Z", "count_points": 1, "latitude": 47.86275, "longitude": 31.7783, "city": "Yelanets\u2019", "images": []}, {"id": 419496, "min_date": "2019-07-01T11:12:00Z", "max_date": "2019-07-01T11:12:00Z", "count_points": 1, "latitude": 48.64312, "longitude": 31.5719, "city": "Mala Vyska", "images": []}, {"id": 419497, "min_date": "2019-07-01T11:12:00Z", "max_date": "2019-07-01T11:12:00Z", "count_points": 1, "latitude": 49.34248, "longitude": 35.87028, "city": "Chapayeve", "images": []}, {"id": 419498, "min_date": "2019-07-01T11:12:00Z", "max_date": "2019-07-01T11:22:00Z", "count_points": 9, "latitude": 48.55792, "longitude": 30.75201, "city": "Novoarkhanhel\u2019s\u2019k", "images": []}, {"id": 419499, "min_date": "2019-07-01T11:12:00Z", "max_date": "2019-07-04T08:30:00Z", "count_points": 10, "latitude": 46.67089, "longitude": 31.73608, "city": "Parutyne", "images": []}, {"id": 419500, "min_date": "2019-07-01T11:18:00Z", "max_date": "2019-07-01T11:18:00Z", "count_points": 1, "latitude": 49.36424, "longitude": 23.54507, "city": "Rykhtychi", "images": []}, {"id": 419501, "min_date": "2019-07-01T11:18:00Z", "max_date": "2019-07-01T11:18:00Z", "count_points": 1, "latitude": 50.2328, "longitude": 28.17681, "city": "Chudniv", "images": []}, {"id": 419502, "min_date": "2019-07-01T11:18:00Z", "max_date": "2019-07-01T11:22:00Z", "count_points": 3, "latitude": 51.28081, "longitude": 29.89055, "city": "Krasyatychi", "images": []}, {"id": 419503, "min_date": "2019-07-01T11:18:00Z", "max_date": "2019-07-01T11:23:00Z", "count_points": 2, "latitude": 51.2912, "longitude": 24.20136, "city": "Liuboml", "images": []}, {"id": 419504, "min_date": "2019-07-01T23:30:00Z", "max_date": "2019-07-02T01:12:00Z", "count_points": 3, "latitude": 47.77526, "longitude": 31.47687, "city": "Brats\u2019ke", "images": []}, {"id": 419505, "min_date": "2019-07-01T23:30:00Z", "max_date": "2019-07-01T23:30:00Z", "count_points": 5, "latitude": 47.15962, "longitude": 30.06953, "city": "Velyka Mykhaylivka", "images": []}, {"id": 419506, "min_date": "2019-07-01T23:30:00Z", "max_date": "2019-07-04T23:47:00Z", "count_points": 44, "latitude": 48.55137, "longitude": 35.63088, "city": "Melioratyvne", "images": []}, {"id": 419507, "min_date": "2019-07-01T23:30:00Z", "max_date": "2019-07-01T19:09:00Z", "count_points": 2, "latitude": 47.51947, "longitude": 31.03688, "city": "Domanivka", "images": []}, {"id": 419508, "min_date": "2019-07-01T23:30:00Z", "max_date": "2019-07-01T23:30:00Z", "count_points": 1, "latitude": 47.80333, "longitude": 30.41413, "city": "Lyubashivka", "images": []}, {"id": 419509, "min_date": "2019-07-01T23:30:00Z", "max_date": "2019-07-01T23:30:00Z", "count_points": 1, "latitude": 46.8244, "longitude": 32.6974, "city": "Oleksandrivka", "images": []}, {"id": 419510, "min_date": "2019-07-01T23:30:00Z", "max_date": "2019-07-05T11:42:00Z", "count_points": 11, "latitude": 48.30659, "longitude": 32.6354, "city": "Novhorodka", "images": []}, {"id": 419511, "min_date": "2019-07-01T23:30:00Z", "max_date": "2019-07-01T23:30:00Z", "count_points": 1, "latitude": 47.38168, "longitude": 32.47982, "city": "Bashtanka", "images": []}, {"id": 419512, "min_date": "2019-07-01T23:30:00Z", "max_date": "2019-07-07T20:09:00Z", "count_points": 3, "latitude": 46.81678, "longitude": 34.3972, "city": "Nyzhni Sirohozy", "images": []}, {"id": 419513, "min_date": "2019-07-01T23:30:00Z", "max_date": "2019-07-01T23:30:00Z", "count_points": 2, "latitude": 48.39595, "longitude": 35.34084, "city": "Synel\u2019nykove", "images": []}, {"id": 419514, "min_date": "2019-07-01T23:30:00Z", "max_date": "2019-07-07T23:18:00Z", "count_points": 3, "latitude": 46.71515, "longitude": 34.52623, "city": "Ivanivka", "images": []}, {"id": 419515, "min_date": "2019-07-01T23:30:00Z", "max_date": "2019-07-01T23:30:00Z", "count_points": 1, "latitude": 49.22305, "longitude": 34.61795, "city": "Hupalivka", "images": []}, {"id": 419516, "min_date": "2019-07-01T23:30:00Z", "max_date": "2019-07-02T23:12:00Z", "count_points": 4, "latitude": 48.99796, "longitude": 35.40859, "city": "Hubynykha", "images": []}, {"id": 419517, "min_date": "2019-07-01T23:30:00Z", "max_date": "2019-07-02T08:42:00Z", "count_points": 6, "latitude": 47.14334, "longitude": 37.84898, "city": "Bezimenne", "images": []}, {"id": 419518, "min_date": "2019-07-01T23:30:00Z", "max_date": "2019-07-04T08:30:00Z", "count_points": 91, "latitude": 45.68902, "longitude": 34.84071, "city": "Pshenichnoye", "images": []}, {"id": 419519, "min_date": "2019-07-01T23:30:00Z", "max_date": "2019-07-02T08:42:00Z", "count_points": 14, "latitude": 46.73999, "longitude": 35.15806, "city": "Yakymivka", "images": []}, {"id": 419520, "min_date": "2019-07-01T23:30:00Z", "max_date": "2019-07-01T23:30:00Z", "count_points": 1, "latitude": 46.49897, "longitude": 33.35387, "city": "Chornyanka", "images": []}, {"id": 419521, "min_date": "2019-07-01T23:30:00Z", "max_date": "2019-07-01T23:30:00Z", "count_points": 2, "latitude": 47.49293, "longitude": 34.5025, "city": "Vodyane", "images": []}, {"id": 419522, "min_date": "2019-07-01T23:30:00Z", "max_date": "2019-07-01T23:30:00Z", "count_points": 1, "latitude": 46.20647, "longitude": 34.75231, "city": "Heniches\u2019k", "images": []}, {"id": 419523, "min_date": "2019-07-01T23:30:00Z", "max_date": "2019-07-07T23:18:00Z", "count_points": 37, "latitude": 48.36446, "longitude": 37.28743, "city": "Myrnohrad", "images": []}, {"id": 419524, "min_date": "2019-07-01T23:30:00Z", "max_date": "2019-07-01T23:30:00Z", "count_points": 1, "latitude": 49.41038, "longitude": 32.01242, "city": "Cherkasy", "images": []}, {"id": 419525, "min_date": "2019-07-01T23:30:00Z", "max_date": "2019-07-07T23:18:00Z", "count_points": 2, "latitude": 49.53385, "longitude": 37.06734, "city": "Savyntsi", "images": []}, {"id": 419526, "min_date": "2019-07-01T23:30:00Z", "max_date": "2019-07-03T00:01:00Z", "count_points": 6, "latitude": 46.1586, "longitude": 30.1546, "city": "Bilhorod-Dnistrovskyi", "images": []}, {"id": 419527, "min_date": "2019-07-01T23:30:00Z", "max_date": "2019-07-07T11:00:00Z", "count_points": 6, "latitude": 48.31129, "longitude": 33.68178, "city": "Piatykhatky", "images": []}, {"id": 419528, "min_date": "2019-07-01T23:30:00Z", "max_date": "2019-07-01T23:30:00Z", "count_points": 2, "latitude": 48.47319, "longitude": 30.75165, "city": "Tyshkivka", "images": []}, {"id": 419529, "min_date": "2019-07-01T23:30:00Z", "max_date": "2019-07-02T01:06:00Z", "count_points": 4, "latitude": 48.67714, "longitude": 35.7056, "city": "Pavlohrad", "images": []}, {"id": 419530, "min_date": "2019-07-02T01:06:00Z", "max_date": "2019-07-02T01:06:00Z", "count_points": 1, "latitude": 48.82367, "longitude": 28.94112, "city": "Bratslav", "images": []}, {"id": 419531, "min_date": "2019-07-02T09:12:00Z", "max_date": "2019-07-02T10:26:00Z", "count_points": 10, "latitude": 45.63373, "longitude": 34.78208, "city": "Pshenichnoye", "images": []}, {"id": 419532, "min_date": "2019-07-02T09:12:00Z", "max_date": "2019-07-02T10:26:00Z", "count_points": 7, "latitude": 46.25415, "longitude": 34.58551, "city": "Novooleksiyivka", "images": []}, {"id": 419533, "min_date": "2019-07-02T09:12:00Z", "max_date": "2019-07-02T10:26:00Z", "count_points": 2, "latitude": 47.3549, "longitude": 38.06326, "city": "Tel\u2019manove", "images": []}, {"id": 419534, "min_date": "2019-07-02T09:18:00Z", "max_date": "2019-07-02T10:26:00Z", "count_points": 7, "latitude": 47.33912, "longitude": 33.24199, "city": "Velyka Oleksandrivka", "images": []}, {"id": 419535, "min_date": "2019-07-02T09:18:00Z", "max_date": "2019-07-02T10:26:00Z", "count_points": 6, "latitude": 47.55463, "longitude": 31.03081, "city": "Domanivka", "images": []}, {"id": 419536, "min_date": "2019-07-02T09:18:00Z", "max_date": "2019-07-02T09:18:00Z", "count_points": 1, "latitude": 47.97568, "longitude": 38.5872, "city": "Torez", "images": []}, {"id": 419537, "min_date": "2019-07-02T09:18:00Z", "max_date": "2019-07-02T08:43:00Z", "count_points": 2, "latitude": 46.35105, "longitude": 34.00347, "city": "Askaniya-Nova", "images": []}, {"id": 419538, "min_date": "2019-07-02T09:18:00Z", "max_date": "2019-07-02T10:54:00Z", "count_points": 3, "latitude": 47.90308, "longitude": 33.63193, "city": "Kryvyi Rih", "images": []}, {"id": 419539, "min_date": "2019-07-02T09:18:00Z", "max_date": "2019-07-02T09:18:00Z", "count_points": 1, "latitude": 49.55113, "longitude": 33.22334, "city": "Semenivka", "images": []}, {"id": 419540, "min_date": "2019-07-02T09:18:00Z", "max_date": "2019-07-02T09:18:00Z", "count_points": 1, "latitude": 48.37327, "longitude": 38.78915, "city": "Pereval\u2019s\u2019k", "images": []}, {"id": 419541, "min_date": "2019-07-02T09:18:00Z", "max_date": "2019-07-02T09:18:00Z", "count_points": 1, "latitude": 48.35298, "longitude": 37.43626, "city": "Myrnohrad", "images": []}, {"id": 419542, "min_date": "2019-07-02T09:18:00Z", "max_date": "2019-07-02T09:18:00Z", "count_points": 2, "latitude": 47.7186, "longitude": 35.84178, "city": "Preobrazhenka", "images": []}, {"id": 419543, "min_date": "2019-07-02T09:18:00Z", "max_date": "2019-07-02T09:18:00Z", "count_points": 4, "latitude": 48.24306, "longitude": 29.21102, "city": "Torkanivka", "images": []}, {"id": 419544, "min_date": "2019-07-02T10:54:00Z", "max_date": "2019-07-02T10:26:00Z", "count_points": 5, "latitude": 47.75311, "longitude": 32.96795, "city": "Kazanka", "images": []}, {"id": 419545, "min_date": "2019-07-02T10:54:00Z", "max_date": "2019-07-02T10:54:00Z", "count_points": 2, "latitude": 46.64792, "longitude": 32.41923, "city": "Bilozerka", "images": []}, {"id": 419546, "min_date": "2019-07-02T10:54:00Z", "max_date": "2019-07-02T10:54:00Z", "count_points": 2, "latitude": 48.19079, "longitude": 30.99301, "city": "Lysa Hora", "images": []}, {"id": 419547, "min_date": "2019-07-02T10:54:00Z", "max_date": "2019-07-02T10:54:00Z", "count_points": 1, "latitude": 46.53389, "longitude": 32.57275, "city": "Hola Prystan\u2019", "images": []}, {"id": 419548, "min_date": "2019-07-02T10:54:00Z", "max_date": "2019-07-02T10:54:00Z", "count_points": 1, "latitude": 46.94891, "longitude": 30.39343, "city": "Ivanivka", "images": []}, {"id": 419549, "min_date": "2019-07-02T10:54:00Z", "max_date": "2019-07-02T10:54:00Z", "count_points": 2, "latitude": 47.9928, "longitude": 32.21725, "city": "Bobrynets", "images": []}, {"id": 419550, "min_date": "2019-07-02T10:54:00Z", "max_date": "2019-07-02T10:54:00Z", "count_points": 2, "latitude": 47.65814, "longitude": 32.93466, "city": "Kazanka", "images": []}, {"id": 419551, "min_date": "2019-07-02T10:54:00Z", "max_date": "2019-07-02T10:54:00Z", "count_points": 1, "latitude": 49.26465, "longitude": 35.07997, "city": "Zachepylivka", "images": []}, {"id": 419552, "min_date": "2019-07-02T10:54:00Z", "max_date": "2019-07-02T10:26:00Z", "count_points": 4, "latitude": 47.25872, "longitude": 34.69539, "city": "Velyka Bilozerka", "images": []}, {"id": 419553, "min_date": "2019-07-02T10:54:00Z", "max_date": "2019-07-02T10:26:00Z", "count_points": 2, "latitude": 47.68841, "longitude": 31.45257, "city": "Voznesensk", "images": []}, {"id": 419554, "min_date": "2019-07-02T10:54:00Z", "max_date": "2019-07-02T10:54:00Z", "count_points": 5, "latitude": 46.16514, "longitude": 30.03176, "city": "Kulevcha", "images": []}, {"id": 419555, "min_date": "2019-07-02T10:54:00Z", "max_date": "2019-07-02T10:54:00Z", "count_points": 2, "latitude": 47.76828, "longitude": 32.87051, "city": "Kazanka", "images": []}, {"id": 419556, "min_date": "2019-07-02T10:54:00Z", "max_date": "2019-07-06T11:18:00Z", "count_points": 8, "latitude": 45.70519, "longitude": 29.58403, "city": "Tatarbunary", "images": []}, {"id": 419557, "min_date": "2019-07-02T10:54:00Z", "max_date": "2019-07-02T10:26:00Z", "count_points": 6, "latitude": 47.67908, "longitude": 29.24045, "city": "Slobidka", "images": []}, {"id": 419558, "min_date": "2019-07-02T10:54:00Z", "max_date": "2019-07-02T10:54:00Z", "count_points": 1, "latitude": 48.33311, "longitude": 28.38869, "city": "Klembivka", "images": []}, {"id": 419559, "min_date": "2019-07-02T10:54:00Z", "max_date": "2019-07-02T10:54:00Z", "count_points": 2, "latitude": 46.18163, "longitude": 30.25972, "city": "Bilhorod-Dnistrovskyi", "images": []}, {"id": 419560, "min_date": "2019-07-02T10:54:00Z", "max_date": "2019-07-02T10:54:00Z", "count_points": 1, "latitude": 48.44128, "longitude": 32.33143, "city": "Kropyvnytskyi", "images": []}, {"id": 419561, "min_date": "2019-07-02T10:54:00Z", "max_date": "2019-07-04T08:30:00Z", "count_points": 6, "latitude": 46.5725, "longitude": 35.06574, "city": "Yakymivka", "images": []}, {"id": 419562, "min_date": "2019-07-02T10:54:00Z", "max_date": "2019-07-02T10:54:00Z", "count_points": 1, "latitude": 45.0249, "longitude": 35.37836, "city": "Feodosiya", "images": []}, {"id": 419563, "min_date": "2019-07-02T10:54:00Z", "max_date": "2019-07-02T10:54:00Z", "count_points": 2, "latitude": 46.27425, "longitude": 34.09254, "city": "Novotroyits\u2019ke", "images": []}, {"id": 419564, "min_date": "2019-07-02T10:54:00Z", "max_date": "2019-07-02T10:54:00Z", "count_points": 2, "latitude": 46.73663, "longitude": 36.32908, "city": "Prymors\u2019k", "images": []}, {"id": 419565, "min_date": "2019-07-02T10:54:00Z", "max_date": "2019-07-02T10:26:00Z", "count_points": 4, "latitude": 47.6713, "longitude": 33.43175, "city": "Shyroke", "images": []}, {"id": 419566, "min_date": "2019-07-02T10:54:00Z", "max_date": "2019-07-02T10:54:00Z", "count_points": 5, "latitude": 48.0658, "longitude": 38.18815, "city": "Khartsyz\u2019k", "images": []}, {"id": 419567, "min_date": "2019-07-02T10:54:00Z", "max_date": "2019-07-05T22:52:00Z", "count_points": 4, "latitude": 48.38558, "longitude": 36.60303, "city": "Petropavlivka", "images": []}, {"id": 419568, "min_date": "2019-07-02T10:54:00Z", "max_date": "2019-07-03T10:36:00Z", "count_points": 4, "latitude": 49.91635, "longitude": 35.35671, "city": "Kolomak", "images": []}, {"id": 419569, "min_date": "2019-07-02T10:54:00Z", "max_date": "2019-07-02T10:54:00Z", "count_points": 1, "latitude": 47.73251, "longitude": 32.35866, "city": "Novyy Buh", "images": []}, {"id": 419570, "min_date": "2019-07-02T10:54:00Z", "max_date": "2019-07-06T23:36:00Z", "count_points": 12, "latitude": 48.59654, "longitude": 31.63033, "city": "Mala Vyska", "images": []}, {"id": 419571, "min_date": "2019-07-02T10:54:00Z", "max_date": "2019-07-01T19:09:00Z", "count_points": 3, "latitude": 48.6069, "longitude": 32.48068, "city": "Subottsi", "images": []}, {"id": 419572, "min_date": "2019-07-02T10:54:00Z", "max_date": "2019-07-02T10:27:00Z", "count_points": 2, "latitude": 49.51862, "longitude": 37.63504, "city": "Kivsharivka", "images": []}, {"id": 419573, "min_date": "2019-07-02T10:54:00Z", "max_date": "2019-07-02T10:54:00Z", "count_points": 1, "latitude": 49.77455, "longitude": 37.12186, "city": "Shevchenkove", "images": []}, {"id": 419574, "min_date": "2019-07-02T10:54:00Z", "max_date": "2019-07-02T10:54:00Z", "count_points": 1, "latitude": 48.02589, "longitude": 30.89545, "city": "Pervomays\u2019k", "images": []}, {"id": 419575, "min_date": "2019-07-02T10:54:00Z", "max_date": "2019-07-02T10:54:00Z", "count_points": 1, "latitude": 50.38883, "longitude": 28.46234, "city": "Denyshi", "images": []}, {"id": 419576, "min_date": "2019-07-02T23:12:00Z", "max_date": "2019-07-02T19:51:00Z", "count_points": 8, "latitude": 46.14534, "longitude": 29.72975, "city": "Plakhtiyivka", "images": []}, {"id": 419577, "min_date": "2019-07-02T23:12:00Z", "max_date": "2019-07-03T00:54:00Z", "count_points": 4, "latitude": 45.66124, "longitude": 29.37735, "city": "Shevchenkove", "images": []}, {"id": 419578, "min_date": "2019-07-02T23:12:00Z", "max_date": "2019-07-02T23:12:00Z", "count_points": 1, "latitude": 46.21457, "longitude": 30.14477, "city": "Starokozache", "images": []}, {"id": 419579, "min_date": "2019-07-02T23:12:00Z", "max_date": "2019-07-03T10:36:00Z", "count_points": 2, "latitude": 45.74583, "longitude": 29.61088, "city": "Tatarbunary", "images": []}, {"id": 419580, "min_date": "2019-07-02T23:12:00Z", "max_date": "2019-07-02T23:12:00Z", "count_points": 2, "latitude": 46.44125, "longitude": 34.4382, "city": "Novotroyits\u2019ke", "images": []}, {"id": 419581, "min_date": "2019-07-02T23:12:00Z", "max_date": "2019-07-02T23:12:00Z", "count_points": 2, "latitude": 47.37761, "longitude": 34.86385, "city": "Balky", "images": []}, {"id": 419582, "min_date": "2019-07-02T23:12:00Z", "max_date": "2019-07-03T00:54:00Z", "count_points": 2, "latitude": 45.64467, "longitude": 28.76345, "city": "Kalcheva", "images": []}, {"id": 419583, "min_date": "2019-07-02T23:12:00Z", "max_date": "2019-07-07T10:44:00Z", "count_points": 16, "latitude": 46.8307, "longitude": 34.48696, "city": "Ivanivka", "images": []}, {"id": 419584, "min_date": "2019-07-02T23:12:00Z", "max_date": "2019-07-02T23:12:00Z", "count_points": 2, "latitude": 46.17699, "longitude": 30.22643, "city": "Bilhorod-Dnistrovskyi", "images": []}, {"id": 419585, "min_date": "2019-07-02T23:12:00Z", "max_date": "2019-07-03T00:48:00Z", "count_points": 4, "latitude": 45.87152, "longitude": 30.19268, "city": "Serhiyivka", "images": []}, {"id": 419586, "min_date": "2019-07-02T23:12:00Z", "max_date": "2019-07-02T23:12:00Z", "count_points": 2, "latitude": 46.04723, "longitude": 29.93639, "city": "Kulevcha", "images": []}, {"id": 419587, "min_date": "2019-07-02T23:12:00Z", "max_date": "2019-07-02T23:12:00Z", "count_points": 1, "latitude": 48.67991, "longitude": 34.12796, "city": "Lykhivka", "images": []}, {"id": 419588, "min_date": "2019-07-03T00:48:00Z", "max_date": "2019-07-03T00:48:00Z", "count_points": 1, "latitude": 49.56193, "longitude": 27.9743, "city": "Khmilnyk", "images": []}, {"id": 419589, "min_date": "2019-07-03T00:48:00Z", "max_date": "2019-07-03T00:48:00Z", "count_points": 1, "latitude": 49.92183, "longitude": 35.23885, "city": "Kolomak", "images": []}, {"id": 419590, "min_date": "2019-07-03T00:48:00Z", "max_date": "2019-07-03T00:48:00Z", "count_points": 1, "latitude": 48.89936, "longitude": 33.43074, "city": "Onufriyivka", "images": []}, {"id": 419591, "min_date": "2019-07-03T00:48:00Z", "max_date": "2019-07-03T00:48:00Z", "count_points": 5, "latitude": 49.15936, "longitude": 33.47385, "city": "Kremenchuk", "images": []}, {"id": 419592, "min_date": "2019-07-03T00:48:00Z", "max_date": "2019-07-03T00:00:00Z", "count_points": 5, "latitude": 48.63029, "longitude": 31.64022, "city": "Mala Vyska", "images": []}, {"id": 419593, "min_date": "2019-07-03T00:48:00Z", "max_date": "2019-07-03T00:48:00Z", "count_points": 1, "latitude": 50.58235, "longitude": 29.21363, "city": "Radomyshl", "images": []}, {"id": 419594, "min_date": "2019-07-03T00:54:00Z", "max_date": "2019-07-03T00:54:00Z", "count_points": 1, "latitude": 45.88212, "longitude": 29.08067, "city": "Dmytrivka", "images": []}, {"id": 419595, "min_date": "2019-07-03T08:54:00Z", "max_date": "2019-07-03T10:36:00Z", "count_points": 5, "latitude": 48.00912, "longitude": 39.0053, "city": "Kripens\u2019kyy", "images": []}, {"id": 419596, "min_date": "2019-07-03T10:36:00Z", "max_date": "2019-07-03T10:36:00Z", "count_points": 1, "latitude": 48.22827, "longitude": 37.92128, "city": "Yasynuvata", "images": []}, {"id": 419597, "min_date": "2019-07-03T10:36:00Z", "max_date": "2019-07-03T10:36:00Z", "count_points": 2, "latitude": 48.35641, "longitude": 37.93803, "city": "Dzerzhyns\u2019k", "images": []}, {"id": 419598, "min_date": "2019-07-03T10:36:00Z", "max_date": "2019-07-03T10:36:00Z", "count_points": 1, "latitude": 47.33421, "longitude": 32.72168, "city": "Bereznehuvate", "images": []}, {"id": 419599, "min_date": "2019-07-03T10:36:00Z", "max_date": "2019-07-03T10:36:00Z", "count_points": 1, "latitude": 51.03509, "longitude": 30.81393, "city": "Oster", "images": []}, {"id": 419600, "min_date": "2019-07-03T10:36:00Z", "max_date": "2019-07-03T10:36:00Z", "count_points": 1, "latitude": 51.004, "longitude": 28.71805, "city": "Korosten\u2019", "images": []}, {"id": 419601, "min_date": "2019-07-03T10:36:00Z", "max_date": "2019-07-03T10:36:00Z", "count_points": 1, "latitude": 51.13452, "longitude": 30.91199, "city": "Oster", "images": []}, {"id": 419602, "min_date": "2019-07-03T10:36:00Z", "max_date": "2019-07-03T10:36:00Z", "count_points": 1, "latitude": 50.28533, "longitude": 29.62891, "city": "Brusyliv", "images": []}, {"id": 419603, "min_date": "2019-07-03T10:36:00Z", "max_date": "2019-07-03T10:36:00Z", "count_points": 1, "latitude": 51.23034, "longitude": 30.9605, "city": "Oster", "images": []}, {"id": 419604, "min_date": "2019-07-03T10:36:00Z", "max_date": "2019-07-03T10:36:00Z", "count_points": 1, "latitude": 50.41501, "longitude": 33.04286, "city": "Chornukhy", "images": []}, {"id": 419605, "min_date": "2019-07-03T10:36:00Z", "max_date": "2019-07-03T11:09:00Z", "count_points": 3, "latitude": 46.59074, "longitude": 34.91588, "city": "Yakymivka", "images": []}, {"id": 419606, "min_date": "2019-07-03T10:36:00Z", "max_date": "2019-07-03T10:36:00Z", "count_points": 1, "latitude": 45.65057, "longitude": 34.46538, "city": "Kondratyevo", "images": []}, {"id": 419607, "min_date": "2019-07-03T10:36:00Z", "max_date": "2019-07-03T10:36:00Z", "count_points": 1, "latitude": 45.27915, "longitude": 33.60918, "city": "Zhuravli", "images": []}, {"id": 419608, "min_date": "2019-07-03T10:36:00Z", "max_date": "2019-07-03T11:09:00Z", "count_points": 7, "latitude": 46.16722, "longitude": 34.04632, "city": "Krasnoarmeyskoye", "images": []}, {"id": 419609, "min_date": "2019-07-03T10:36:00Z", "max_date": "2019-07-03T10:36:00Z", "count_points": 1, "latitude": 45.35453, "longitude": 36.43105, "city": "Voykovo", "images": []}, {"id": 419610, "min_date": "2019-07-03T10:36:00Z", "max_date": "2019-07-03T10:36:00Z", "count_points": 1, "latitude": 50.11976, "longitude": 23.99476, "city": "Zhovkva", "images": []}, {"id": 419611, "min_date": "2019-07-03T10:36:00Z", "max_date": "2019-07-03T10:36:00Z", "count_points": 1, "latitude": 46.9566, "longitude": 35.42945, "city": "Terpinnya", "images": []}, {"id": 419612, "min_date": "2019-07-03T10:36:00Z", "max_date": "2019-07-03T10:36:00Z", "count_points": 1, "latitude": 50.4357, "longitude": 33.3931, "city": "Lokhvytsya", "images": []}, {"id": 419613, "min_date": "2019-07-03T10:36:00Z", "max_date": "2019-07-05T00:12:00Z", "count_points": 5, "latitude": 48.02836, "longitude": 38.95957, "city": "Miusyns\u2019k", "images": []}, {"id": 419614, "min_date": "2019-07-03T10:36:00Z", "max_date": "2019-07-03T10:36:00Z", "count_points": 2, "latitude": 45.6097, "longitude": 29.2276, "city": "Shevchenkove", "images": []}, {"id": 419615, "min_date": "2019-07-03T10:36:00Z", "max_date": "2019-07-03T10:36:00Z", "count_points": 2, "latitude": 47.71175, "longitude": 32.02824, "city": "Yelanets\u2019", "images": []}, {"id": 419616, "min_date": "2019-07-03T10:36:00Z", "max_date": "2019-07-03T10:36:00Z", "count_points": 2, "latitude": 47.73544, "longitude": 32.02576, "city": "Yelanets\u2019", "images": []}, {"id": 419617, "min_date": "2019-07-03T10:36:00Z", "max_date": "2019-07-03T10:36:00Z", "count_points": 5, "latitude": 47.40476, "longitude": 35.99504, "city": "Mala Tokmachka", "images": []}, {"id": 419618, "min_date": "2019-07-03T10:36:00Z", "max_date": "2019-07-03T10:36:00Z", "count_points": 1, "latitude": 47.17068, "longitude": 32.53771, "city": "Bashtanka", "images": []}, {"id": 419619, "min_date": "2019-07-03T10:36:00Z", "max_date": "2019-07-03T10:36:00Z", "count_points": 1, "latitude": 45.60756, "longitude": 29.2854, "city": "Shevchenkove", "images": []}, {"id": 419620, "min_date": "2019-07-03T10:36:00Z", "max_date": "2019-07-03T10:36:00Z", "count_points": 1, "latitude": 50.7078, "longitude": 27.72499, "city": "Novohrad-Volynskyi", "images": []}, {"id": 419621, "min_date": "2019-07-03T10:36:00Z", "max_date": "2019-07-03T10:36:00Z", "count_points": 1, "latitude": 50.4602, "longitude": 31.42593, "city": "Korniyivka", "images": []}, {"id": 419622, "min_date": "2019-07-03T10:36:00Z", "max_date": "2019-07-03T10:36:00Z", "count_points": 1, "latitude": 50.01996, "longitude": 35.4338, "city": "Huty", "images": []}, {"id": 419623, "min_date": "2019-07-03T10:36:00Z", "max_date": "2019-07-03T10:36:00Z", "count_points": 1, "latitude": 48.9674, "longitude": 28.53732, "city": "Tyvriv", "images": []}, {"id": 419624, "min_date": "2019-07-03T10:36:00Z", "max_date": "2019-07-03T10:36:00Z", "count_points": 1, "latitude": 49.62965, "longitude": 30.58683, "city": "Tarashcha", "images": []}, {"id": 419625, "min_date": "2019-07-03T10:36:00Z", "max_date": "2019-07-03T10:36:00Z", "count_points": 2, "latitude": 49.00201, "longitude": 31.87647, "city": "Kapitanivka", "images": []}, {"id": 419626, "min_date": "2019-07-03T10:36:00Z", "max_date": "2019-07-03T10:36:00Z", "count_points": 1, "latitude": 50.12268, "longitude": 31.45076, "city": "Pereyaslav-Khmel\u2019nyts\u2019kyy", "images": []}, {"id": 419627, "min_date": "2019-07-03T10:36:00Z", "max_date": "2019-07-03T10:36:00Z", "count_points": 1, "latitude": 46.30109, "longitude": 29.03789, "city": "Serpneve", "images": []}, {"id": 419628, "min_date": "2019-07-03T22:48:00Z", "max_date": "2019-07-03T22:48:00Z", "count_points": 1, "latitude": 48.42423, "longitude": 38.33789, "city": "Luhans\u2019ke", "images": []}, {"id": 419629, "min_date": "2019-07-03T22:48:00Z", "max_date": "2019-07-03T22:48:00Z", "count_points": 1, "latitude": 48.05315, "longitude": 38.56428, "city": "Torez", "images": []}, {"id": 419630, "min_date": "2019-07-03T22:48:00Z", "max_date": "2019-07-03T22:48:00Z", "count_points": 1, "latitude": 48.10048, "longitude": 37.80477, "city": "Yasynuvata", "images": []}, {"id": 419631, "min_date": "2019-07-03T22:48:00Z", "max_date": "2019-07-04T00:30:00Z", "count_points": 3, "latitude": 48.74338, "longitude": 30.16366, "city": "Uman\u2019", "images": []}, {"id": 419632, "min_date": "2019-07-03T22:48:00Z", "max_date": "2019-07-04T00:30:00Z", "count_points": 2, "latitude": 48.75779, "longitude": 31.62786, "city": "Novomyrhorod", "images": []}, {"id": 419633, "min_date": "2019-07-03T22:48:00Z", "max_date": "2019-07-05T09:13:00Z", "count_points": 8, "latitude": 48.19777, "longitude": 31.1223, "city": "Lysa Hora", "images": []}, {"id": 419634, "min_date": "2019-07-03T22:48:00Z", "max_date": "2019-07-04T00:30:00Z", "count_points": 2, "latitude": 48.90275, "longitude": 33.47513, "city": "Onufriyivka", "images": []}, {"id": 419635, "min_date": "2019-07-03T22:48:00Z", "max_date": "2019-07-04T10:18:00Z", "count_points": 3, "latitude": 49.18629, "longitude": 34.8618, "city": "Hupalivka", "images": []}, {"id": 419636, "min_date": "2019-07-03T22:54:00Z", "max_date": "2019-07-04T00:30:00Z", "count_points": 3, "latitude": 46.27488, "longitude": 33.3113, "city": "Kalanchak", "images": []}, {"id": 419637, "min_date": "2019-07-03T22:54:00Z", "max_date": "2019-07-05T00:12:00Z", "count_points": 2, "latitude": 46.21905, "longitude": 34.38723, "city": "Novotroyits\u2019ke", "images": []}, {"id": 419638, "min_date": "2019-07-03T22:54:00Z", "max_date": "2019-07-04T00:30:00Z", "count_points": 3, "latitude": 47.82869, "longitude": 29.88774, "city": "Ananyiv Pershyi", "images": []}, {"id": 419639, "min_date": "2019-07-04T00:30:00Z", "max_date": "2019-07-04T00:30:00Z", "count_points": 1, "latitude": 46.9412, "longitude": 32.3579, "city": "Shevchenkove", "images": []}, {"id": 419640, "min_date": "2019-07-04T00:30:00Z", "max_date": "2019-07-05T00:12:00Z", "count_points": 2, "latitude": 51.07503, "longitude": 30.13812, "city": "Katyuzhanka", "images": []}, {"id": 419641, "min_date": "2019-07-04T10:18:00Z", "max_date": "2019-07-04T10:13:00Z", "count_points": 12, "latitude": 45.14854, "longitude": 35.7243, "city": "Lugovoye", "images": []}, {"id": 419642, "min_date": "2019-07-04T10:18:00Z", "max_date": "2019-07-04T10:18:00Z", "count_points": 1, "latitude": 48.51089, "longitude": 29.58162, "city": "Viytivka", "images": []}, {"id": 419643, "min_date": "2019-07-04T10:18:00Z", "max_date": "2019-07-04T10:08:00Z", "count_points": 4, "latitude": 47.87525, "longitude": 30.04697, "city": "Ananyiv Pershyi", "images": []}, {"id": 419644, "min_date": "2019-07-04T10:18:00Z", "max_date": "2019-07-04T10:18:00Z", "count_points": 1, "latitude": 50.08019, "longitude": 36.61752, "city": "Staryy Saltiv", "images": []}, {"id": 419645, "min_date": "2019-07-04T10:18:00Z", "max_date": "2019-07-04T10:18:00Z", "count_points": 2, "latitude": 48.66322, "longitude": 29.70302, "city": "Teplyk", "images": []}, {"id": 419646, "min_date": "2019-07-04T10:18:00Z", "max_date": "2019-07-04T10:18:00Z", "count_points": 1, "latitude": 49.55651, "longitude": 29.70434, "city": "Skvyra", "images": []}, {"id": 419647, "min_date": "2019-07-04T10:18:00Z", "max_date": "2019-07-04T10:14:00Z", "count_points": 8, "latitude": 48.86438, "longitude": 35.82282, "city": "Yur\u201dyivka", "images": []}, {"id": 419648, "min_date": "2019-07-04T10:18:00Z", "max_date": "2019-07-04T10:18:00Z", "count_points": 1, "latitude": 49.65074, "longitude": 36.40002, "city": "Zmiyiv", "images": []}, {"id": 419649, "min_date": "2019-07-04T10:18:00Z", "max_date": "2019-07-02T08:42:00Z", "count_points": 2, "latitude": 47.34302, "longitude": 37.66904, "city": "Sartana", "images": []}, {"id": 419650, "min_date": "2019-07-04T10:18:00Z", "max_date": "2019-07-04T11:52:00Z", "count_points": 13, "latitude": 47.7017, "longitude": 30.55703, "city": "Vradiyivka", "images": []}, {"id": 419651, "min_date": "2019-07-04T10:18:00Z", "max_date": "2019-07-04T10:18:00Z", "count_points": 1, "latitude": 47.19172, "longitude": 32.35391, "city": "Bashtanka", "images": []}, {"id": 419652, "min_date": "2019-07-04T10:18:00Z", "max_date": "2019-07-04T10:18:00Z", "count_points": 2, "latitude": 47.59348, "longitude": 30.36146, "city": "Lyubashivka", "images": []}, {"id": 419653, "min_date": "2019-07-04T10:18:00Z", "max_date": "2019-07-04T10:14:00Z", "count_points": 3, "latitude": 47.07401, "longitude": 31.05456, "city": "Kurisove", "images": []}, {"id": 419654, "min_date": "2019-07-04T10:18:00Z", "max_date": "2019-07-04T12:00:00Z", "count_points": 4, "latitude": 48.26499, "longitude": 31.46969, "city": "Pomichna", "images": []}, {"id": 419655, "min_date": "2019-07-04T10:18:00Z", "max_date": "2019-07-04T10:14:00Z", "count_points": 7, "latitude": 46.54252, "longitude": 34.14163, "city": "Novotroyits\u2019ke", "images": []}, {"id": 419656, "min_date": "2019-07-04T10:18:00Z", "max_date": "2019-07-04T10:14:00Z", "count_points": 2, "latitude": 49.53803, "longitude": 38.36773, "city": "Nyzhnya Duvanka", "images": []}, {"id": 419657, "min_date": "2019-07-04T10:18:00Z", "max_date": "2019-07-04T10:18:00Z", "count_points": 1, "latitude": 50.88034, "longitude": 33.93009, "city": "Nedryhayliv", "images": []}, {"id": 419658, "min_date": "2019-07-04T10:18:00Z", "max_date": "2019-07-07T09:24:00Z", "count_points": 6, "latitude": 47.43886, "longitude": 37.89188, "city": "Tel\u2019manove", "images": []}, {"id": 419659, "min_date": "2019-07-04T10:18:00Z", "max_date": "2019-07-04T10:18:00Z", "count_points": 1, "latitude": 47.81672, "longitude": 31.52397, "city": "Brats\u2019ke", "images": []}, {"id": 419660, "min_date": "2019-07-04T10:18:00Z", "max_date": "2019-07-04T10:14:00Z", "count_points": 3, "latitude": 47.81406, "longitude": 30.87951, "city": "Domanivka", "images": []}, {"id": 419661, "min_date": "2019-07-04T10:18:00Z", "max_date": "2019-07-04T10:18:00Z", "count_points": 1, "latitude": 48.61671, "longitude": 34.3437, "city": "Verkhn\u2019odniprovs\u2019k", "images": []}, {"id": 419662, "min_date": "2019-07-04T10:18:00Z", "max_date": "2019-07-04T10:13:00Z", "count_points": 27, "latitude": 45.44703, "longitude": 36.26349, "city": "Bagerovo", "images": []}, {"id": 419663, "min_date": "2019-07-04T10:18:00Z", "max_date": "2019-07-04T10:14:00Z", "count_points": 4, "latitude": 46.30796, "longitude": 33.46352, "city": "Chaplynka", "images": []}, {"id": 419664, "min_date": "2019-07-04T10:18:00Z", "max_date": "2019-07-04T10:18:00Z", "count_points": 2, "latitude": 46.37483, "longitude": 33.97919, "city": "Askaniya-Nova", "images": []}, {"id": 419665, "min_date": "2019-07-04T10:18:00Z", "max_date": "2019-07-07T10:44:00Z", "count_points": 5, "latitude": 45.81877, "longitude": 29.84176, "city": "Kulevcha", "images": []}, {"id": 419666, "min_date": "2019-07-04T10:18:00Z", "max_date": "2019-07-04T10:18:00Z", "count_points": 1, "latitude": 47.74337, "longitude": 32.09843, "city": "Yelanets\u2019", "images": []}, {"id": 419667, "min_date": "2019-07-04T10:18:00Z", "max_date": "2019-07-06T09:56:00Z", "count_points": 7, "latitude": 45.74395, "longitude": 29.75081, "city": "Tatarbunary", "images": []}, {"id": 419668, "min_date": "2019-07-04T10:18:00Z", "max_date": "2019-07-04T08:30:00Z", "count_points": 2, "latitude": 47.50116, "longitude": 31.69353, "city": "Nova Odesa", "images": []}, {"id": 419669, "min_date": "2019-07-04T10:18:00Z", "max_date": "2019-07-04T10:18:00Z", "count_points": 1, "latitude": 47.47751, "longitude": 36.36426, "city": "Chapayevka", "images": []}, {"id": 419670, "min_date": "2019-07-04T12:00:00Z", "max_date": "2019-07-04T12:00:00Z", "count_points": 2, "latitude": 48.24895, "longitude": 31.13671, "city": "Lysa Hora", "images": []}, {"id": 419671, "min_date": "2019-07-04T12:00:00Z", "max_date": "2019-07-04T12:00:00Z", "count_points": 9, "latitude": 49.77974, "longitude": 24.22254, "city": "Dzvinogrud", "images": []}, {"id": 419672, "min_date": "2019-07-04T22:30:00Z", "max_date": "2019-07-04T23:47:00Z", "count_points": 18, "latitude": 48.6289, "longitude": 34.83017, "city": "Spas\u2019ke", "images": []}, {"id": 419673, "min_date": "2019-07-04T22:30:00Z", "max_date": "2019-07-04T22:30:00Z", "count_points": 1, "latitude": 47.04464, "longitude": 32.56527, "city": "Snihurivka", "images": []}, {"id": 419674, "min_date": "2019-07-04T22:30:00Z", "max_date": "2019-07-05T10:57:00Z", "count_points": 5, "latitude": 47.60788, "longitude": 31.91366, "city": "Yelanets\u2019", "images": []}, {"id": 419675, "min_date": "2019-07-04T22:30:00Z", "max_date": "2019-07-05T00:12:00Z", "count_points": 4, "latitude": 46.95284, "longitude": 34.50243, "city": "Nyzhni Sirohozy", "images": []}, {"id": 419676, "min_date": "2019-07-04T22:30:00Z", "max_date": "2019-07-06T11:18:00Z", "count_points": 12, "latitude": 46.90869, "longitude": 34.49611, "city": "Nyzhni Sirohozy", "images": []}, {"id": 419677, "min_date": "2019-07-04T22:30:00Z", "max_date": "2019-07-05T10:57:00Z", "count_points": 28, "latitude": 46.73452, "longitude": 34.47398, "city": "Ivanivka", "images": []}, {"id": 419678, "min_date": "2019-07-04T22:30:00Z", "max_date": "2019-07-05T09:13:00Z", "count_points": 7, "latitude": 46.77107, "longitude": 34.43493, "city": "Nyzhni Sirohozy", "images": []}, {"id": 419679, "min_date": "2019-07-04T22:30:00Z", "max_date": "2019-07-05T00:12:00Z", "count_points": 2, "latitude": 46.77078, "longitude": 34.2939, "city": "Nyzhni Sirohozy", "images": []}, {"id": 419680, "min_date": "2019-07-04T22:30:00Z", "max_date": "2019-07-04T22:30:00Z", "count_points": 1, "latitude": 46.83861, "longitude": 34.21394, "city": "Nyzhni Sirohozy", "images": []}, {"id": 419681, "min_date": "2019-07-04T22:30:00Z", "max_date": "2019-07-04T22:30:00Z", "count_points": 2, "latitude": 47.36353, "longitude": 33.07363, "city": "Bereznehuvate", "images": []}, {"id": 419682, "min_date": "2019-07-04T22:30:00Z", "max_date": "2019-07-05T20:22:00Z", "count_points": 3, "latitude": 46.76997, "longitude": 32.28583, "city": "Shevchenkove", "images": []}, {"id": 419683, "min_date": "2019-07-04T22:30:00Z", "max_date": "2019-07-05T00:12:00Z", "count_points": 4, "latitude": 46.94553, "longitude": 34.67181, "city": "Vesele", "images": []}, {"id": 419684, "min_date": "2019-07-04T22:30:00Z", "max_date": "2019-07-05T10:57:00Z", "count_points": 5, "latitude": 48.8541, "longitude": 36.51412, "city": "Blyznyuky", "images": []}, {"id": 419685, "min_date": "2019-07-04T22:30:00Z", "max_date": "2019-07-04T22:30:00Z", "count_points": 1, "latitude": 47.21565, "longitude": 32.17444, "city": "Mykolayiv", "images": []}, {"id": 419686, "min_date": "2019-07-04T22:30:00Z", "max_date": "2019-07-05T00:12:00Z", "count_points": 2, "latitude": 46.88047, "longitude": 35.96127, "city": "Rozivka", "images": []}, {"id": 419687, "min_date": "2019-07-04T22:30:00Z", "max_date": "2019-07-04T19:39:00Z", "count_points": 4, "latitude": 46.98099, "longitude": 34.05848, "city": "Velyka Lepetykha", "images": []}, {"id": 419688, "min_date": "2019-07-04T22:30:00Z", "max_date": "2019-07-04T19:39:00Z", "count_points": 3, "latitude": 48.70216, "longitude": 33.67416, "city": "Lykhivka", "images": []}, {"id": 419689, "min_date": "2019-07-05T00:12:00Z", "max_date": "2019-07-05T00:12:00Z", "count_points": 2, "latitude": 46.38649, "longitude": 34.52369, "city": "Novotroyits\u2019ke", "images": []}, {"id": 419690, "min_date": "2019-07-05T00:12:00Z", "max_date": "2019-07-05T00:12:00Z", "count_points": 2, "latitude": 47.33042, "longitude": 34.5508, "city": "Dniprovka", "images": []}, {"id": 419691, "min_date": "2019-07-05T00:12:00Z", "max_date": "2019-07-04T23:48:00Z", "count_points": 7, "latitude": 47.11828, "longitude": 36.35576, "city": "Chernihivka", "images": []}, {"id": 419692, "min_date": "2019-07-05T00:12:00Z", "max_date": "2019-07-05T00:12:00Z", "count_points": 2, "latitude": 47.38489, "longitude": 33.29174, "city": "Velyka Oleksandrivka", "images": []}, {"id": 419693, "min_date": "2019-07-05T00:12:00Z", "max_date": "2019-07-05T00:12:00Z", "count_points": 2, "latitude": 51.58149, "longitude": 30.90807, "city": "Slavutych", "images": []}, {"id": 419694, "min_date": "2019-07-05T00:12:00Z", "max_date": "2019-07-05T00:12:00Z", "count_points": 1, "latitude": 47.85012, "longitude": 31.27278, "city": "Arbuzynka", "images": []}, {"id": 419695, "min_date": "2019-07-05T00:12:00Z", "max_date": "2019-07-05T00:12:00Z", "count_points": 3, "latitude": 47.96626, "longitude": 31.3282, "city": "Arbuzynka", "images": []}, {"id": 419696, "min_date": "2019-07-05T00:12:00Z", "max_date": "2019-07-04T19:39:00Z", "count_points": 4, "latitude": 46.53129, "longitude": 34.47789, "city": "Ivanivka", "images": []}, {"id": 419697, "min_date": "2019-07-05T00:12:00Z", "max_date": "2019-07-05T00:12:00Z", "count_points": 1, "latitude": 45.65305, "longitude": 34.71195, "city": "Prostornoye", "images": []}, {"id": 419698, "min_date": "2019-07-05T00:12:00Z", "max_date": "2019-07-05T00:12:00Z", "count_points": 1, "latitude": 46.90583, "longitude": 34.3566, "city": "Nyzhni Sirohozy", "images": []}, {"id": 419699, "min_date": "2019-07-05T00:12:00Z", "max_date": "2019-07-05T00:12:00Z", "count_points": 2, "latitude": 50.2815, "longitude": 33.88179, "city": "Hadyach", "images": []}, {"id": 419700, "min_date": "2019-07-05T00:12:00Z", "max_date": "2019-07-05T00:12:00Z", "count_points": 2, "latitude": 46.33562, "longitude": 33.12743, "city": "Brylivka", "images": []}, {"id": 419701, "min_date": "2019-07-05T00:12:00Z", "max_date": "2019-07-05T00:12:00Z", "count_points": 1, "latitude": 46.23129, "longitude": 30.55609, "city": "Karolino-Buhaz", "images": []}, {"id": 419702, "min_date": "2019-07-05T00:12:00Z", "max_date": "2019-07-05T00:12:00Z", "count_points": 1, "latitude": 50.34083, "longitude": 34.19556, "city": "Hadyach", "images": []}, {"id": 419703, "min_date": "2019-07-05T00:12:00Z", "max_date": "2019-07-05T00:12:00Z", "count_points": 1, "latitude": 48.73424, "longitude": 33.80304, "city": "Lykhivka", "images": []}, {"id": 419704, "min_date": "2019-07-05T00:12:00Z", "max_date": "2019-07-05T00:12:00Z", "count_points": 4, "latitude": 50.74508, "longitude": 31.11739, "city": "Kozelets\u2019", "images": []}, {"id": 419705, "min_date": "2019-07-05T00:12:00Z", "max_date": "2019-07-05T00:12:00Z", "count_points": 1, "latitude": 50.35867, "longitude": 31.27737, "city": "Baryshivka", "images": []}, {"id": 419706, "min_date": "2019-07-05T00:12:00Z", "max_date": "2019-07-05T00:12:00Z", "count_points": 1, "latitude": 47.86144, "longitude": 31.42414, "city": "Arbuzynka", "images": []}, {"id": 419707, "min_date": "2019-07-05T00:12:00Z", "max_date": "2019-07-05T20:22:00Z", "count_points": 5, "latitude": 47.89561, "longitude": 31.35455, "city": "Arbuzynka", "images": []}, {"id": 419708, "min_date": "2019-07-05T00:12:00Z", "max_date": "2019-07-05T00:12:00Z", "count_points": 1, "latitude": 46.17159, "longitude": 33.5829, "city": "Armyansk", "images": []}, {"id": 419709, "min_date": "2019-07-05T00:12:00Z", "max_date": "2019-07-05T00:12:00Z", "count_points": 1, "latitude": 48.53137, "longitude": 35.04277, "city": "Dnipro", "images": []}, {"id": 419710, "min_date": "2019-07-05T10:00:00Z", "max_date": "2019-07-05T10:57:00Z", "count_points": 4, "latitude": 49.3968, "longitude": 36.0699, "city": "Pervomays\u2019kyy", "images": []}, {"id": 419711, "min_date": "2019-07-05T10:00:00Z", "max_date": "2019-07-05T10:00:00Z", "count_points": 3, "latitude": 48.51952, "longitude": 32.56453, "city": "Adzhamka", "images": []}, {"id": 419712, "min_date": "2019-07-05T10:00:00Z", "max_date": "2019-07-05T10:00:00Z", "count_points": 1, "latitude": 48.52072, "longitude": 34.31492, "city": "Novomykolayivka", "images": []}, {"id": 419713, "min_date": "2019-07-05T10:00:00Z", "max_date": "2019-07-05T09:12:00Z", "count_points": 7, "latitude": 48.88493, "longitude": 38.20066, "city": "Serebryanka", "images": []}, {"id": 419714, "min_date": "2019-07-05T10:00:00Z", "max_date": "2019-07-05T10:00:00Z", "count_points": 1, "latitude": 48.71481, "longitude": 38.74867, "city": "Frunze", "images": []}, {"id": 419715, "min_date": "2019-07-05T10:00:00Z", "max_date": "2019-07-05T10:00:00Z", "count_points": 2, "latitude": 49.55211, "longitude": 35.6465, "city": "Berezivka", "images": []}, {"id": 419716, "min_date": "2019-07-05T10:00:00Z", "max_date": "2019-07-05T10:00:00Z", "count_points": 1, "latitude": 48.78502, "longitude": 32.4102, "city": "Yelyzavethradka", "images": []}, {"id": 419717, "min_date": "2019-07-05T10:00:00Z", "max_date": "2019-07-05T10:00:00Z", "count_points": 2, "latitude": 49.31995, "longitude": 36.37916, "city": "Pervomays\u2019kyy", "images": []}, {"id": 419718, "min_date": "2019-07-05T10:00:00Z", "max_date": "2019-07-05T10:00:00Z", "count_points": 1, "latitude": 49.79906, "longitude": 31.65519, "city": "Kaniv", "images": []}, {"id": 419719, "min_date": "2019-07-05T10:00:00Z", "max_date": "2019-07-05T10:00:00Z", "count_points": 2, "latitude": 49.3109, "longitude": 36.19934, "city": "Pervomays\u2019kyy", "images": []}, {"id": 419720, "min_date": "2019-07-05T10:00:00Z", "max_date": "2019-07-05T10:00:00Z", "count_points": 1, "latitude": 50.01079, "longitude": 32.74469, "city": "Orzhytsya", "images": []}, {"id": 419721, "min_date": "2019-07-05T10:00:00Z", "max_date": "2019-07-05T10:00:00Z", "count_points": 1, "latitude": 48.57384, "longitude": 36.70474, "city": "Oleksandrivka", "images": []}, {"id": 419722, "min_date": "2019-07-05T10:00:00Z", "max_date": "2019-07-05T10:00:00Z", "count_points": 1, "latitude": 49.66662, "longitude": 37.43093, "city": "Kupjansk", "images": []}, {"id": 419723, "min_date": "2019-07-05T10:00:00Z", "max_date": "2019-07-05T10:00:00Z", "count_points": 2, "latitude": 49.69548, "longitude": 34.27041, "city": "Reshetylivka", "images": []}, {"id": 419724, "min_date": "2019-07-05T10:00:00Z", "max_date": "2019-07-05T09:13:00Z", "count_points": 4, "latitude": 48.14769, "longitude": 29.84712, "city": "Peschana", "images": []}, {"id": 419725, "min_date": "2019-07-05T10:00:00Z", "max_date": "2019-07-05T09:13:00Z", "count_points": 2, "latitude": 46.19707, "longitude": 34.80943, "city": "Heniches\u2019k", "images": []}, {"id": 419726, "min_date": "2019-07-05T10:00:00Z", "max_date": "2019-07-05T10:57:00Z", "count_points": 3, "latitude": 47.81382, "longitude": 34.45111, "city": "Chervonohryhorivka", "images": []}, {"id": 419727, "min_date": "2019-07-05T10:00:00Z", "max_date": "2019-07-05T10:00:00Z", "count_points": 1, "latitude": 47.32816, "longitude": 35.08764, "city": "Dniprorudne", "images": []}, {"id": 419728, "min_date": "2019-07-05T10:00:00Z", "max_date": "2019-07-05T11:42:00Z", "count_points": 3, "latitude": 48.43143, "longitude": 35.35955, "city": "Synel\u2019nykove", "images": []}, {"id": 419729, "min_date": "2019-07-05T10:00:00Z", "max_date": "2019-07-07T20:09:00Z", "count_points": 13, "latitude": 46.53711, "longitude": 34.92398, "city": "Yakymivka", "images": []}, {"id": 419730, "min_date": "2019-07-05T10:00:00Z", "max_date": "2019-07-05T10:00:00Z", "count_points": 1, "latitude": 48.31839, "longitude": 31.4417, "city": "Pomichna", "images": []}, {"id": 419731, "min_date": "2019-07-05T10:00:00Z", "max_date": "2019-07-05T10:00:00Z", "count_points": 1, "latitude": 48.43236, "longitude": 34.89394, "city": "Dnipro", "images": []}, {"id": 419732, "min_date": "2019-07-05T10:00:00Z", "max_date": "2019-07-05T10:00:00Z", "count_points": 2, "latitude": 48.25469, "longitude": 33.07103, "city": "Petrove", "images": []}, {"id": 419733, "min_date": "2019-07-05T10:00:00Z", "max_date": "2019-07-05T10:00:00Z", "count_points": 2, "latitude": 46.88013, "longitude": 29.997, "city": "Stepanivka", "images": []}, {"id": 419734, "min_date": "2019-07-05T10:00:00Z", "max_date": "2019-07-05T10:00:00Z", "count_points": 2, "latitude": 47.16427, "longitude": 31.63937, "city": "Olshanskoye", "images": []}, {"id": 419735, "min_date": "2019-07-05T10:00:00Z", "max_date": "2019-07-05T09:13:00Z", "count_points": 13, "latitude": 47.43818, "longitude": 32.68614, "city": "Bereznehuvate", "images": []}, {"id": 419736, "min_date": "2019-07-05T10:00:00Z", "max_date": "2019-07-05T10:57:00Z", "count_points": 17, "latitude": 48.24241, "longitude": 32.62493, "city": "Molodizhne", "images": []}, {"id": 419737, "min_date": "2019-07-05T10:00:00Z", "max_date": "2019-07-05T10:00:00Z", "count_points": 1, "latitude": 45.58221, "longitude": 29.3688, "city": "Shevchenkove", "images": []}, {"id": 419738, "min_date": "2019-07-05T10:00:00Z", "max_date": "2019-07-05T10:00:00Z", "count_points": 1, "latitude": 48.11033, "longitude": 31.38343, "city": "Pomichna", "images": []}, {"id": 419739, "min_date": "2019-07-05T10:00:00Z", "max_date": "2019-07-05T10:00:00Z", "count_points": 1, "latitude": 48.1564, "longitude": 31.00038, "city": "Lysa Hora", "images": []}, {"id": 419740, "min_date": "2019-07-05T10:00:00Z", "max_date": "2019-07-02T08:43:00Z", "count_points": 2, "latitude": 46.69226, "longitude": 32.7948, "city": "Tsyurupyns\u2019k", "images": []}, {"id": 419741, "min_date": "2019-07-05T10:00:00Z", "max_date": "2019-07-07T10:45:00Z", "count_points": 5, "latitude": 47.38832, "longitude": 31.77197, "city": "Nova Odesa", "images": []}, {"id": 419742, "min_date": "2019-07-05T10:00:00Z", "max_date": "2019-07-05T10:00:00Z", "count_points": 1, "latitude": 46.71619, "longitude": 31.24292, "city": "Kobleve", "images": []}, {"id": 419743, "min_date": "2019-07-05T10:00:00Z", "max_date": "2019-07-05T10:00:00Z", "count_points": 3, "latitude": 48.09181, "longitude": 31.67224, "city": "Rivne", "images": []}, {"id": 419744, "min_date": "2019-07-05T10:00:00Z", "max_date": "2019-07-05T10:00:00Z", "count_points": 2, "latitude": 47.95771, "longitude": 31.28968, "city": "Arbuzynka", "images": []}, {"id": 419745, "min_date": "2019-07-05T10:00:00Z", "max_date": "2019-07-05T10:00:00Z", "count_points": 1, "latitude": 47.8295, "longitude": 32.87355, "city": "Kazanka", "images": []}, {"id": 419746, "min_date": "2019-07-05T10:00:00Z", "max_date": "2019-07-05T10:00:00Z", "count_points": 2, "latitude": 47.92158, "longitude": 31.2401, "city": "Arbuzynka", "images": []}, {"id": 419747, "min_date": "2019-07-05T10:00:00Z", "max_date": "2019-07-05T10:00:00Z", "count_points": 1, "latitude": 48.19825, "longitude": 30.84116, "city": "Vil\u2019shanka", "images": []}, {"id": 419748, "min_date": "2019-07-05T10:00:00Z", "max_date": "2019-07-05T09:13:00Z", "count_points": 3, "latitude": 48.0901, "longitude": 35.74842, "city": "Novomykolayivka", "images": []}, {"id": 419749, "min_date": "2019-07-05T10:00:00Z", "max_date": "2019-07-05T10:00:00Z", "count_points": 1, "latitude": 48.40812, "longitude": 26.54846, "city": "Khotyn", "images": []}, {"id": 419750, "min_date": "2019-07-05T10:00:00Z", "max_date": "2019-07-05T09:13:00Z", "count_points": 11, "latitude": 46.16766, "longitude": 29.09596, "city": "Tarutyne", "images": []}, {"id": 419751, "min_date": "2019-07-05T10:00:00Z", "max_date": "2019-07-05T10:00:00Z", "count_points": 2, "latitude": 47.06332, "longitude": 31.63466, "city": "Olshanskoye", "images": []}, {"id": 419752, "min_date": "2019-07-05T10:00:00Z", "max_date": "2019-07-05T10:57:00Z", "count_points": 7, "latitude": 47.55045, "longitude": 29.21821, "city": "Okny", "images": []}, {"id": 419753, "min_date": "2019-07-05T10:00:00Z", "max_date": "2019-07-05T10:00:00Z", "count_points": 2, "latitude": 47.33692, "longitude": 32.26294, "city": "Bashtanka", "images": []}, {"id": 419754, "min_date": "2019-07-05T10:00:00Z", "max_date": "2019-07-05T10:00:00Z", "count_points": 1, "latitude": 47.3723, "longitude": 32.77149, "city": "Bereznehuvate", "images": []}, {"id": 419755, "min_date": "2019-07-05T10:00:00Z", "max_date": "2019-07-05T10:00:00Z", "count_points": 3, "latitude": 49.9531, "longitude": 33.3439, "city": "Romodan", "images": []}, {"id": 419756, "min_date": "2019-07-05T10:00:00Z", "max_date": "2019-07-05T10:00:00Z", "count_points": 1, "latitude": 50.2716, "longitude": 33.70174, "city": "Komyshnya", "images": []}, {"id": 419757, "min_date": "2019-07-05T10:00:00Z", "max_date": "2019-07-05T10:00:00Z", "count_points": 1, "latitude": 46.227, "longitude": 34.01993, "city": "Krasnoarmeyskoye", "images": []}, {"id": 419758, "min_date": "2019-07-05T10:00:00Z", "max_date": "2019-07-05T11:42:00Z", "count_points": 6, "latitude": 48.01268, "longitude": 33.70832, "city": "Sofiyivka", "images": []}, {"id": 419759, "min_date": "2019-07-05T10:00:00Z", "max_date": "2019-07-05T10:57:00Z", "count_points": 5, "latitude": 46.11847, "longitude": 29.98144, "city": "Kulevcha", "images": []}, {"id": 419760, "min_date": "2019-07-05T11:42:00Z", "max_date": "2019-07-05T11:42:00Z", "count_points": 2, "latitude": 48.29869, "longitude": 34.27912, "city": "Krynychky", "images": []}, {"id": 419761, "min_date": "2019-07-05T11:42:00Z", "max_date": "2019-07-05T10:57:00Z", "count_points": 3, "latitude": 46.71238, "longitude": 31.31403, "city": "Rybakivka", "images": []}, {"id": 419762, "min_date": "2019-07-05T11:42:00Z", "max_date": "2019-07-05T11:42:00Z", "count_points": 2, "latitude": 45.80096, "longitude": 29.20817, "city": "Shevchenkove", "images": []}, {"id": 419763, "min_date": "2019-07-05T11:42:00Z", "max_date": "2019-07-05T11:42:00Z", "count_points": 2, "latitude": 47.02968, "longitude": 32.48674, "city": "Snihurivka", "images": []}, {"id": 419764, "min_date": "2019-07-05T11:42:00Z", "max_date": "2019-07-03T11:09:00Z", "count_points": 4, "latitude": 46.00806, "longitude": 30.18507, "city": "Serhiyivka", "images": []}, {"id": 419765, "min_date": "2019-07-05T11:42:00Z", "max_date": "2019-07-05T11:42:00Z", "count_points": 2, "latitude": 46.56636, "longitude": 30.57283, "city": "Usatove", "images": []}, {"id": 419766, "min_date": "2019-07-05T11:42:00Z", "max_date": "2019-07-05T11:42:00Z", "count_points": 1, "latitude": 46.53238, "longitude": 30.70668, "city": "Usatove", "images": []}, {"id": 419767, "min_date": "2019-07-05T11:42:00Z", "max_date": "2019-07-05T11:42:00Z", "count_points": 2, "latitude": 49.81568, "longitude": 33.53969, "city": "Myrhorod", "images": []}, {"id": 419768, "min_date": "2019-07-05T11:42:00Z", "max_date": "2019-07-05T11:42:00Z", "count_points": 1, "latitude": 46.8892, "longitude": 34.32144, "city": "Nyzhni Sirohozy", "images": []}, {"id": 419769, "min_date": "2019-07-05T11:42:00Z", "max_date": "2019-07-05T11:42:00Z", "count_points": 4, "latitude": 45.56251, "longitude": 28.78779, "city": "Kalcheva", "images": []}, {"id": 419770, "min_date": "2019-07-05T11:42:00Z", "max_date": "2019-07-05T11:42:00Z", "count_points": 16, "latitude": 48.0544, "longitude": 31.08921, "city": "Lysa Hora", "images": []}, {"id": 419771, "min_date": "2019-07-05T11:42:00Z", "max_date": "2019-07-05T11:42:00Z", "count_points": 3, "latitude": 47.32935, "longitude": 35.15758, "city": "Mykhaylivka", "images": []}, {"id": 419772, "min_date": "2019-07-05T11:42:00Z", "max_date": "2019-07-05T11:42:00Z", "count_points": 1, "latitude": 45.99658, "longitude": 34.38842, "city": "Yasnopolyanskoye", "images": []}, {"id": 419773, "min_date": "2019-07-05T11:42:00Z", "max_date": "2019-07-05T11:42:00Z", "count_points": 1, "latitude": 48.12094, "longitude": 31.48822, "city": "Pomichna", "images": []}, {"id": 419774, "min_date": "2019-07-05T11:42:00Z", "max_date": "2019-07-05T11:42:00Z", "count_points": 4, "latitude": 48.2865, "longitude": 33.82995, "city": "Vyshneve", "images": []}, {"id": 419775, "min_date": "2019-07-05T11:42:00Z", "max_date": "2019-07-05T11:42:00Z", "count_points": 2, "latitude": 47.50442, "longitude": 33.45215, "city": "Vysokopillya", "images": []}, {"id": 419776, "min_date": "2019-07-05T11:42:00Z", "max_date": "2019-07-05T11:42:00Z", "count_points": 1, "latitude": 48.58494, "longitude": 35.31569, "city": "Novomoskovs\u2019k", "images": []}, {"id": 419777, "min_date": "2019-07-05T11:42:00Z", "max_date": "2019-07-05T10:57:00Z", "count_points": 9, "latitude": 48.35548, "longitude": 36.48606, "city": "Petropavlivka", "images": []}, {"id": 419778, "min_date": "2019-07-05T11:42:00Z", "max_date": "2019-07-05T11:42:00Z", "count_points": 1, "latitude": 48.28744, "longitude": 36.35652, "city": "Petropavlivka", "images": []}, {"id": 419779, "min_date": "2019-07-05T11:42:00Z", "max_date": "2019-07-05T10:57:00Z", "count_points": 5, "latitude": 48.25986, "longitude": 36.42927, "city": "Petropavlivka", "images": []}, {"id": 419780, "min_date": "2019-07-05T11:42:00Z", "max_date": "2019-07-05T11:42:00Z", "count_points": 3, "latitude": 48.44442, "longitude": 36.49223, "city": "Petropavlivka", "images": []}, {"id": 419781, "min_date": "2019-07-05T11:42:00Z", "max_date": "2019-07-05T11:42:00Z", "count_points": 4, "latitude": 48.90508, "longitude": 33.64902, "city": "Horishni Plavni", "images": []}, {"id": 419782, "min_date": "2019-07-05T11:42:00Z", "max_date": "2019-07-05T11:42:00Z", "count_points": 1, "latitude": 47.12457, "longitude": 30.00453, "city": "Velyka Mykhaylivka", "images": []}, {"id": 419783, "min_date": "2019-07-05T22:12:00Z", "max_date": "2019-07-05T22:12:00Z", "count_points": 1, "latitude": 48.42511, "longitude": 38.43703, "city": "Debal\u2019tseve", "images": []}, {"id": 419784, "min_date": "2019-07-05T22:12:00Z", "max_date": "2019-07-05T23:54:00Z", "count_points": 9, "latitude": 48.27362, "longitude": 39.25613, "city": "Millerovo", "images": []}, {"id": 419785, "min_date": "2019-07-05T22:12:00Z", "max_date": "2019-07-07T10:45:00Z", "count_points": 6, "latitude": 48.86932, "longitude": 36.41231, "city": "Blyznyuky", "images": []}, {"id": 419786, "min_date": "2019-07-05T22:12:00Z", "max_date": "2019-07-05T22:12:00Z", "count_points": 2, "latitude": 48.88969, "longitude": 36.47733, "city": "Blyznyuky", "images": []}, {"id": 419787, "min_date": "2019-07-05T22:12:00Z", "max_date": "2019-07-05T10:57:00Z", "count_points": 5, "latitude": 46.9778, "longitude": 37.23404, "city": "Yalta", "images": []}, {"id": 419788, "min_date": "2019-07-05T23:54:00Z", "max_date": "2019-07-05T23:54:00Z", "count_points": 1, "latitude": 47.67819, "longitude": 36.12349, "city": "Zaliznychne", "images": []}, {"id": 419789, "min_date": "2019-07-05T23:54:00Z", "max_date": "2019-07-07T11:00:00Z", "count_points": 2, "latitude": 45.64005, "longitude": 29.27314, "city": "Shevchenkove", "images": []}, {"id": 419790, "min_date": "2019-07-06T09:42:00Z", "max_date": "2019-07-06T09:42:00Z", "count_points": 1, "latitude": 47.56616, "longitude": 35.72269, "city": "Orikhiv", "images": []}, {"id": 419791, "min_date": "2019-07-06T09:42:00Z", "max_date": "2019-07-06T10:02:00Z", "count_points": 5, "latitude": 45.53449, "longitude": 29.42448, "city": "Shevchenkove", "images": []}, {"id": 419792, "min_date": "2019-07-06T09:42:00Z", "max_date": "2019-07-07T11:00:00Z", "count_points": 8, "latitude": 45.54904, "longitude": 29.25838, "city": "Shevchenkove", "images": []}, {"id": 419793, "min_date": "2019-07-06T09:42:00Z", "max_date": "2019-07-06T09:42:00Z", "count_points": 1, "latitude": 48.7598, "longitude": 33.84836, "city": "Lykhivka", "images": []}, {"id": 419794, "min_date": "2019-07-06T09:42:00Z", "max_date": "2019-07-06T09:42:00Z", "count_points": 1, "latitude": 46.35653, "longitude": 34.45398, "city": "Novotroyits\u2019ke", "images": []}, {"id": 419795, "min_date": "2019-07-06T09:42:00Z", "max_date": "2019-07-06T09:42:00Z", "count_points": 1, "latitude": 51.81327, "longitude": 30.66415, "city": "Lyubech", "images": []}, {"id": 419796, "min_date": "2019-07-06T09:42:00Z", "max_date": "2019-07-06T09:42:00Z", "count_points": 1, "latitude": 46.71232, "longitude": 31.35319, "city": "Rybakivka", "images": []}, {"id": 419797, "min_date": "2019-07-06T09:42:00Z", "max_date": "2019-07-06T09:42:00Z", "count_points": 1, "latitude": 46.30675, "longitude": 29.97968, "city": "Starokozache", "images": []}, {"id": 419798, "min_date": "2019-07-06T09:42:00Z", "max_date": "2019-07-06T09:42:00Z", "count_points": 2, "latitude": 45.75141, "longitude": 29.23602, "city": "Shevchenkove", "images": []}, {"id": 419799, "min_date": "2019-07-06T09:42:00Z", "max_date": "2019-07-06T09:42:00Z", "count_points": 1, "latitude": 48.39075, "longitude": 31.1372, "city": "Dobrovelychkivka", "images": []}, {"id": 419800, "min_date": "2019-07-06T09:42:00Z", "max_date": "2019-07-06T10:01:00Z", "count_points": 3, "latitude": 45.68034, "longitude": 33.01949, "city": "Dalekoye", "images": []}, {"id": 419801, "min_date": "2019-07-06T09:42:00Z", "max_date": "2019-07-06T09:42:00Z", "count_points": 1, "latitude": 47.06047, "longitude": 32.77922, "city": "Snihurivka", "images": []}, {"id": 419802, "min_date": "2019-07-06T09:42:00Z", "max_date": "2019-07-06T09:42:00Z", "count_points": 4, "latitude": 48.85967, "longitude": 32.42892, "city": "Yelyzavethradka", "images": []}, {"id": 419803, "min_date": "2019-07-06T09:42:00Z", "max_date": "2019-07-06T09:42:00Z", "count_points": 2, "latitude": 46.02072, "longitude": 30.07811, "city": "Kulevcha", "images": []}, {"id": 419804, "min_date": "2019-07-06T09:42:00Z", "max_date": "2019-07-06T09:42:00Z", "count_points": 1, "latitude": 45.93687, "longitude": 29.23739, "city": "Artsyz", "images": []}, {"id": 419805, "min_date": "2019-07-06T09:42:00Z", "max_date": "2019-07-01T19:09:00Z", "count_points": 4, "latitude": 47.64201, "longitude": 33.32906, "city": "Shyroke", "images": []}, {"id": 419806, "min_date": "2019-07-06T11:18:00Z", "max_date": "2019-07-06T11:18:00Z", "count_points": 3, "latitude": 45.91789, "longitude": 28.80864, "city": "Horodnye", "images": []}, {"id": 419807, "min_date": "2019-07-06T11:18:00Z", "max_date": "2019-07-06T11:18:00Z", "count_points": 1, "latitude": 45.64884, "longitude": 28.80613, "city": "Kalcheva", "images": []}, {"id": 419808, "min_date": "2019-07-06T11:18:00Z", "max_date": "2019-07-06T11:18:00Z", "count_points": 1, "latitude": 46.84949, "longitude": 34.39764, "city": "Nyzhni Sirohozy", "images": []}, {"id": 419809, "min_date": "2019-07-06T11:18:00Z", "max_date": "2019-07-06T11:18:00Z", "count_points": 1, "latitude": 47.25625, "longitude": 29.86649, "city": "Zatyshshya", "images": []}, {"id": 419810, "min_date": "2019-07-06T11:18:00Z", "max_date": "2019-07-06T11:18:00Z", "count_points": 1, "latitude": 46.84934, "longitude": 32.25489, "city": "Shevchenkove", "images": []}, {"id": 419811, "min_date": "2019-07-06T11:18:00Z", "max_date": "2019-07-06T11:18:00Z", "count_points": 1, "latitude": 46.09398, "longitude": 30.30393, "city": "Shabo", "images": []}, {"id": 419812, "min_date": "2019-07-06T11:18:00Z", "max_date": "2019-07-06T11:18:00Z", "count_points": 4, "latitude": 45.27832, "longitude": 36.39669, "city": "Priozyornoye", "images": []}, {"id": 419813, "min_date": "2019-07-06T11:18:00Z", "max_date": "2019-07-06T11:18:00Z", "count_points": 3, "latitude": 46.88531, "longitude": 30.05818, "city": "Rozdil\u2019na", "images": []}, {"id": 419814, "min_date": "2019-07-06T11:18:00Z", "max_date": "2019-07-06T11:18:00Z", "count_points": 1, "latitude": 45.76009, "longitude": 29.81309, "city": "Tatarbunary", "images": []}, {"id": 419815, "min_date": "2019-07-06T11:18:00Z", "max_date": "2019-07-05T10:57:00Z", "count_points": 3, "latitude": 46.33502, "longitude": 30.39135, "city": "Ovidiopol", "images": []}, {"id": 419816, "min_date": "2019-07-06T11:24:00Z", "max_date": "2019-07-06T11:24:00Z", "count_points": 1, "latitude": 50.798, "longitude": 28.39963, "city": "Khoroshiv", "images": []}, {"id": 419817, "min_date": "2019-07-06T11:24:00Z", "max_date": "2019-07-06T11:24:00Z", "count_points": 1, "latitude": 48.45909, "longitude": 31.4711, "city": "Zlynka", "images": []}, {"id": 419818, "min_date": "2019-07-06T11:24:00Z", "max_date": "2019-07-06T11:24:00Z", "count_points": 6, "latitude": 48.93502, "longitude": 33.32804, "city": "Pavlysh", "images": []}, {"id": 419819, "min_date": "2019-07-06T11:24:00Z", "max_date": "2019-07-06T11:24:00Z", "count_points": 2, "latitude": 51.29854, "longitude": 32.27548, "city": "Borzna", "images": []}, {"id": 419820, "min_date": "2019-07-06T11:24:00Z", "max_date": "2019-07-06T11:24:00Z", "count_points": 1, "latitude": 49.47426, "longitude": 35.32152, "city": "Varvarivka", "images": []}, {"id": 419821, "min_date": "2019-07-06T11:24:00Z", "max_date": "2019-07-06T11:24:00Z", "count_points": 1, "latitude": 48.94797, "longitude": 30.97593, "city": "Katerynopil", "images": []}, {"id": 419822, "min_date": "2019-07-06T23:36:00Z", "max_date": "2019-07-06T23:36:00Z", "count_points": 1, "latitude": 50.01552, "longitude": 32.80821, "city": "Lubny", "images": []}, {"id": 419823, "min_date": "2019-07-06T23:36:00Z", "max_date": "2019-07-06T23:36:00Z", "count_points": 1, "latitude": 49.8246, "longitude": 32.62909, "city": "Orzhytsya", "images": []}, {"id": 419824, "min_date": "2019-07-06T23:36:00Z", "max_date": "2019-07-06T23:36:00Z", "count_points": 1, "latitude": 48.06603, "longitude": 37.57008, "city": "Mareyka", "images": []}, {"id": 419825, "min_date": "2019-07-06T23:36:00Z", "max_date": "2019-07-06T23:36:00Z", "count_points": 1, "latitude": 47.7173, "longitude": 32.23752, "city": "Novyy Buh", "images": []}, {"id": 419826, "min_date": "2019-07-06T23:36:00Z", "max_date": "2019-07-06T23:36:00Z", "count_points": 1, "latitude": 47.71814, "longitude": 31.04118, "city": "Domanivka", "images": []}, {"id": 419827, "min_date": "2019-07-06T23:36:00Z", "max_date": "2019-07-06T23:36:00Z", "count_points": 1, "latitude": 48.42493, "longitude": 30.84873, "city": "Tyshkivka", "images": []}, {"id": 419828, "min_date": "2019-07-06T23:36:00Z", "max_date": "2019-07-06T23:36:00Z", "count_points": 1, "latitude": 48.48101, "longitude": 33.1669, "city": "Novyy Starodub", "images": []}, {"id": 419829, "min_date": "2019-07-06T23:36:00Z", "max_date": "2019-07-06T23:36:00Z", "count_points": 1, "latitude": 47.85349, "longitude": 30.46229, "city": "Vradiyivka", "images": []}, {"id": 419830, "min_date": "2019-07-06T23:36:00Z", "max_date": "2019-07-06T19:27:00Z", "count_points": 10, "latitude": 49.82464, "longitude": 35.1161, "city": "Chutove", "images": []}, {"id": 419831, "min_date": "2019-07-06T23:36:00Z", "max_date": "2019-07-06T19:27:00Z", "count_points": 4, "latitude": 46.80345, "longitude": 34.64593, "city": "Ivanivka", "images": []}, {"id": 419832, "min_date": "2019-07-06T23:36:00Z", "max_date": "2019-07-07T10:44:00Z", "count_points": 14, "latitude": 46.98091, "longitude": 34.47659, "city": "Nyzhni Sirohozy", "images": []}, {"id": 419833, "min_date": "2019-07-06T23:36:00Z", "max_date": "2019-07-06T23:36:00Z", "count_points": 1, "latitude": 46.07034, "longitude": 29.14828, "city": "Tarutyne", "images": []}, {"id": 419834, "min_date": "2019-07-06T23:36:00Z", "max_date": "2019-07-06T23:36:00Z", "count_points": 1, "latitude": 50.98579, "longitude": 32.04966, "city": "Kruty", "images": []}, {"id": 419835, "min_date": "2019-07-06T23:36:00Z", "max_date": "2019-07-07T09:01:00Z", "count_points": 3, "latitude": 47.94743, "longitude": 30.51105, "city": "Vradiyivka", "images": []}, {"id": 419836, "min_date": "2019-07-06T23:36:00Z", "max_date": "2019-07-07T20:09:00Z", "count_points": 4, "latitude": 46.5898, "longitude": 34.08856, "city": "Askaniya-Nova", "images": []}, {"id": 419837, "min_date": "2019-07-06T23:36:00Z", "max_date": "2019-07-06T23:36:00Z", "count_points": 1, "latitude": 48.83826, "longitude": 24.22326, "city": "Nebyliv", "images": []}, {"id": 419838, "min_date": "2019-07-06T23:36:00Z", "max_date": "2019-07-06T23:36:00Z", "count_points": 1, "latitude": 46.94952, "longitude": 34.25748, "city": "Nyzhni Sirohozy", "images": []}, {"id": 419839, "min_date": "2019-07-06T23:36:00Z", "max_date": "2019-07-06T23:36:00Z", "count_points": 1, "latitude": 48.13616, "longitude": 38.28536, "city": "Yenakiyeve", "images": []}, {"id": 419840, "min_date": "2019-07-06T23:36:00Z", "max_date": "2019-07-06T19:27:00Z", "count_points": 2, "latitude": 46.91401, "longitude": 34.31403, "city": "Nyzhni Sirohozy", "images": []}, {"id": 419841, "min_date": "2019-07-06T23:36:00Z", "max_date": "2019-07-07T01:18:00Z", "count_points": 4, "latitude": 45.97345, "longitude": 29.17442, "city": "Dmytrivka", "images": []}, {"id": 419842, "min_date": "2019-07-06T23:36:00Z", "max_date": "2019-07-07T09:24:00Z", "count_points": 2, "latitude": 47.28269, "longitude": 32.84743, "city": "Bereznehuvate", "images": []}, {"id": 419843, "min_date": "2019-07-06T23:36:00Z", "max_date": "2019-07-06T23:36:00Z", "count_points": 1, "latitude": 47.82872, "longitude": 31.39991, "city": "Arbuzynka", "images": []}, {"id": 419844, "min_date": "2019-07-07T09:24:00Z", "max_date": "2019-07-07T09:24:00Z", "count_points": 4, "latitude": 46.90862, "longitude": 33.9969, "city": "Velyka Lepetykha", "images": []}, {"id": 419845, "min_date": "2019-07-07T09:24:00Z", "max_date": "2019-07-07T11:00:00Z", "count_points": 3, "latitude": 46.80599, "longitude": 33.88194, "city": "Kayiry", "images": []}, {"id": 419846, "min_date": "2019-07-07T09:24:00Z", "max_date": "2019-07-07T09:01:00Z", "count_points": 11, "latitude": 47.65615, "longitude": 36.04354, "city": "Zaliznychne", "images": []}, {"id": 419847, "min_date": "2019-07-07T09:24:00Z", "max_date": "2019-07-07T09:24:00Z", "count_points": 5, "latitude": 47.99733, "longitude": 30.22039, "city": "Kryve Ozero", "images": []}, {"id": 419848, "min_date": "2019-07-07T09:24:00Z", "max_date": "2019-07-07T09:01:00Z", "count_points": 5, "latitude": 47.71882, "longitude": 30.18662, "city": "Lyubashivka", "images": []}, {"id": 419849, "min_date": "2019-07-07T09:24:00Z", "max_date": "2019-07-07T09:01:00Z", "count_points": 10, "latitude": 47.67587, "longitude": 35.52851, "city": "Komyshuvakha", "images": []}, {"id": 419850, "min_date": "2019-07-07T09:24:00Z", "max_date": "2019-07-07T09:01:00Z", "count_points": 5, "latitude": 47.74782, "longitude": 30.44383, "city": "Vradiyivka", "images": []}, {"id": 419851, "min_date": "2019-07-07T09:24:00Z", "max_date": "2019-07-07T11:00:00Z", "count_points": 7, "latitude": 47.29351, "longitude": 37.78356, "city": "Sartana", "images": []}, {"id": 419852, "min_date": "2019-07-07T09:24:00Z", "max_date": "2019-07-07T09:00:00Z", "count_points": 3, "latitude": 48.91383, "longitude": 35.98491, "city": "Yur\u201dyivka", "images": []}, {"id": 419853, "min_date": "2019-07-07T09:24:00Z", "max_date": "2019-07-07T09:24:00Z", "count_points": 2, "latitude": 47.72342, "longitude": 31.00315, "city": "Domanivka", "images": []}, {"id": 419854, "min_date": "2019-07-07T09:24:00Z", "max_date": "2019-07-07T09:01:00Z", "count_points": 4, "latitude": 47.76518, "longitude": 31.03679, "city": "Kostyantynivka", "images": []}, {"id": 419855, "min_date": "2019-07-07T09:24:00Z", "max_date": "2019-07-07T09:01:00Z", "count_points": 4, "latitude": 48.33934, "longitude": 31.00527, "city": "Lypnyazhka", "images": []}, {"id": 419856, "min_date": "2019-07-07T09:24:00Z", "max_date": "2019-07-07T10:45:00Z", "count_points": 15, "latitude": 47.29326, "longitude": 32.14945, "city": "Bashtanka", "images": []}, {"id": 419857, "min_date": "2019-07-07T09:24:00Z", "max_date": "2019-07-07T09:24:00Z", "count_points": 1, "latitude": 47.66312, "longitude": 31.0428, "city": "Domanivka", "images": []}, {"id": 419858, "min_date": "2019-07-07T09:24:00Z", "max_date": "2019-07-07T09:24:00Z", "count_points": 1, "latitude": 47.76043, "longitude": 36.28696, "city": "Hulyaypole", "images": []}, {"id": 419859, "min_date": "2019-07-07T09:24:00Z", "max_date": "2019-07-07T09:01:00Z", "count_points": 13, "latitude": 46.65237, "longitude": 34.476, "city": "Ivanivka", "images": []}, {"id": 419860, "min_date": "2019-07-07T09:24:00Z", "max_date": "2019-07-07T09:24:00Z", "count_points": 1, "latitude": 46.87748, "longitude": 34.43809, "city": "Nyzhni Sirohozy", "images": []}, {"id": 419861, "min_date": "2019-07-07T09:24:00Z", "max_date": "2019-07-07T23:18:00Z", "count_points": 7, "latitude": 48.04019, "longitude": 35.27528, "city": "Vil\u2019nyans\u2019k", "images": []}, {"id": 419862, "min_date": "2019-07-07T09:24:00Z", "max_date": "2019-07-07T09:01:00Z", "count_points": 3, "latitude": 47.37381, "longitude": 31.42331, "city": "Veselynove", "images": []}, {"id": 419863, "min_date": "2019-07-07T09:24:00Z", "max_date": "2019-07-07T10:45:00Z", "count_points": 8, "latitude": 47.24504, "longitude": 32.19812, "city": "Bashtanka", "images": []}, {"id": 419864, "min_date": "2019-07-07T09:24:00Z", "max_date": "2019-07-07T09:24:00Z", "count_points": 2, "latitude": 47.28215, "longitude": 31.18471, "city": "Veselynove", "images": []}, {"id": 419865, "min_date": "2019-07-07T09:24:00Z", "max_date": "2019-07-07T09:24:00Z", "count_points": 1, "latitude": 47.5227, "longitude": 31.38126, "city": "Voznesensk", "images": []}, {"id": 419866, "min_date": "2019-07-07T09:24:00Z", "max_date": "2019-07-07T09:01:00Z", "count_points": 9, "latitude": 46.70649, "longitude": 30.2893, "city": "Stepove", "images": []}, {"id": 419867, "min_date": "2019-07-07T09:24:00Z", "max_date": "2019-07-07T09:00:00Z", "count_points": 2, "latitude": 48.56524, "longitude": 34.39707, "city": "Novomykolayivka", "images": []}, {"id": 419868, "min_date": "2019-07-07T09:24:00Z", "max_date": "2019-07-07T09:24:00Z", "count_points": 2, "latitude": 48.46878, "longitude": 33.61991, "city": "Piatykhatky", "images": []}, {"id": 419869, "min_date": "2019-07-07T09:24:00Z", "max_date": "2019-07-07T09:24:00Z", "count_points": 1, "latitude": 48.48867, "longitude": 39.51997, "city": "Simeykyne", "images": []}, {"id": 419870, "min_date": "2019-07-07T09:24:00Z", "max_date": "2019-07-07T10:44:00Z", "count_points": 7, "latitude": 46.82835, "longitude": 34.30684, "city": "Nyzhni Sirohozy", "images": []}, {"id": 419871, "min_date": "2019-07-07T09:24:00Z", "max_date": "2019-07-07T11:00:00Z", "count_points": 4, "latitude": 48.89318, "longitude": 38.04612, "city": "Sivers\u2019k", "images": []}, {"id": 419872, "min_date": "2019-07-07T09:24:00Z", "max_date": "2019-07-07T09:24:00Z", "count_points": 1, "latitude": 49.27795, "longitude": 34.25668, "city": "Novi Sanzhary", "images": []}, {"id": 419873, "min_date": "2019-07-07T11:00:00Z", "max_date": "2019-07-07T10:44:00Z", "count_points": 9, "latitude": 46.87231, "longitude": 34.27818, "city": "Nyzhni Sirohozy", "images": []}, {"id": 419874, "min_date": "2019-07-07T11:00:00Z", "max_date": "2019-07-07T11:00:00Z", "count_points": 2, "latitude": 48.62152, "longitude": 37.9915, "city": "Artemivs\u2019k", "images": []}, {"id": 419875, "min_date": "2019-07-07T11:00:00Z", "max_date": "2019-07-07T11:00:00Z", "count_points": 1, "latitude": 46.9309, "longitude": 34.38962, "city": "Nyzhni Sirohozy", "images": []}, {"id": 419876, "min_date": "2019-07-07T11:00:00Z", "max_date": "2019-07-07T10:44:00Z", "count_points": 3, "latitude": 46.24466, "longitude": 29.02393, "city": "Serpneve", "images": []}, {"id": 419877, "min_date": "2019-07-07T11:00:00Z", "max_date": "2019-07-07T10:44:00Z", "count_points": 3, "latitude": 46.68603, "longitude": 34.44119, "city": "Ivanivka", "images": []}, {"id": 419878, "min_date": "2019-07-07T11:00:00Z", "max_date": "2019-07-07T09:00:00Z", "count_points": 2, "latitude": 48.29141, "longitude": 33.39593, "city": "Zhovti Vody", "images": []}, {"id": 419879, "min_date": "2019-07-07T11:00:00Z", "max_date": "2019-07-07T11:00:00Z", "count_points": 1, "latitude": 47.60845, "longitude": 33.32704, "city": "Shyroke", "images": []}, {"id": 419880, "min_date": "2019-07-07T11:00:00Z", "max_date": "2019-07-07T11:00:00Z", "count_points": 1, "latitude": 47.92933, "longitude": 32.03183, "city": "Bobrynets", "images": []}, {"id": 419881, "min_date": "2019-07-07T11:00:00Z", "max_date": "2019-07-07T10:44:00Z", "count_points": 6, "latitude": 47.0983, "longitude": 34.26449, "city": "Verkhniy Rohachyk", "images": []}, {"id": 419882, "min_date": "2019-07-07T11:00:00Z", "max_date": "2019-07-07T09:01:00Z", "count_points": 2, "latitude": 46.441, "longitude": 33.37964, "city": "Chaplynka", "images": []}, {"id": 419883, "min_date": "2019-07-07T11:00:00Z", "max_date": "2019-07-07T11:00:00Z", "count_points": 1, "latitude": 47.16822, "longitude": 37.789, "city": "Sartana", "images": []}, {"id": 419884, "min_date": "2019-07-07T11:00:00Z", "max_date": "2019-07-07T10:45:00Z", "count_points": 2, "latitude": 47.41978, "longitude": 32.74409, "city": "Bereznehuvate", "images": []}, {"id": 419885, "min_date": "2019-07-07T11:00:00Z", "max_date": "2019-07-07T11:00:00Z", "count_points": 2, "latitude": 47.74866, "longitude": 32.80645, "city": "Kazanka", "images": []}, {"id": 419886, "min_date": "2019-07-07T11:00:00Z", "max_date": "2019-07-07T11:00:00Z", "count_points": 1, "latitude": 47.75843, "longitude": 30.18994, "city": "Lyubashivka", "images": []}, {"id": 419887, "min_date": "2019-07-07T11:00:00Z", "max_date": "2019-07-07T11:00:00Z", "count_points": 3, "latitude": 46.14929, "longitude": 33.4713, "city": "Kalanchak", "images": []}, {"id": 419888, "min_date": "2019-07-07T11:00:00Z", "max_date": "2019-07-07T10:44:00Z", "count_points": 3, "latitude": 46.38038, "longitude": 34.10386, "city": "Novotroyits\u2019ke", "images": []}, {"id": 419889, "min_date": "2019-07-07T11:00:00Z", "max_date": "2019-07-07T11:00:00Z", "count_points": 1, "latitude": 47.25613, "longitude": 33.47971, "city": "Velyka Oleksandrivka", "images": []}, {"id": 419890, "min_date": "2019-07-07T11:00:00Z", "max_date": "2019-07-07T11:00:00Z", "count_points": 2, "latitude": 49.60582, "longitude": 23.52195, "city": "Rudky", "images": []}, {"id": 419891, "min_date": "2019-07-07T11:00:00Z", "max_date": "2019-07-07T10:45:00Z", "count_points": 2, "latitude": 47.87793, "longitude": 29.99691, "city": "Ananyiv Pershyi", "images": []}, {"id": 419892, "min_date": "2019-07-07T11:00:00Z", "max_date": "2019-07-07T09:00:00Z", "count_points": 4, "latitude": 48.85745, "longitude": 33.95104, "city": "Lykhivka", "images": []}, {"id": 419893, "min_date": "2019-07-07T11:00:00Z", "max_date": "2019-07-07T11:00:00Z", "count_points": 2, "latitude": 47.98773, "longitude": 37.35313, "city": "Kurakhovo", "images": []}, {"id": 419894, "min_date": "2019-07-07T11:00:00Z", "max_date": "2019-07-07T11:00:00Z", "count_points": 4, "latitude": 47.32266, "longitude": 31.80284, "city": "Nova Odesa", "images": []}, {"id": 419895, "min_date": "2019-07-07T11:00:00Z", "max_date": "2019-07-07T11:00:00Z", "count_points": 8, "latitude": 48.31744, "longitude": 33.12736, "city": "Petrove", "images": []}, {"id": 419896, "min_date": "2019-07-07T11:00:00Z", "max_date": "2019-07-07T11:00:00Z", "count_points": 6, "latitude": 46.50844, "longitude": 30.65427, "city": "Usatove", "images": []}, {"id": 419897, "min_date": "2019-07-07T11:00:00Z", "max_date": "2019-07-07T10:44:00Z", "count_points": 5, "latitude": 47.0568, "longitude": 31.96554, "city": "Mykolayiv", "images": []}, {"id": 419898, "min_date": "2019-07-07T11:00:00Z", "max_date": "2019-07-07T11:00:00Z", "count_points": 2, "latitude": 46.35226, "longitude": 30.47718, "city": "Ovidiopol", "images": []}, {"id": 419899, "min_date": "2019-07-07T11:00:00Z", "max_date": "2019-07-07T11:00:00Z", "count_points": 1, "latitude": 48.02378, "longitude": 32.28824, "city": "Bobrynets", "images": []}, {"id": 419900, "min_date": "2019-07-07T11:00:00Z", "max_date": "2019-07-07T11:00:00Z", "count_points": 1, "latitude": 47.05391, "longitude": 30.54783, "city": "Ivanivka", "images": []}, {"id": 419901, "min_date": "2019-07-07T11:00:00Z", "max_date": "2019-07-07T11:00:00Z", "count_points": 1, "latitude": 49.14347, "longitude": 39.03618, "city": "Novoaydar", "images": []}, {"id": 419902, "min_date": "2019-07-07T11:00:00Z", "max_date": "2019-07-07T11:00:00Z", "count_points": 1, "latitude": 48.7967, "longitude": 35.27036, "city": "Hubynykha", "images": []}, {"id": 419903, "min_date": "2019-07-07T11:00:00Z", "max_date": "2019-07-07T11:00:00Z", "count_points": 1, "latitude": 49.20053, "longitude": 33.98239, "city": "Lutovynivka", "images": []}, {"id": 419904, "min_date": "2019-07-07T11:00:00Z", "max_date": "2019-07-07T11:00:00Z", "count_points": 1, "latitude": 49.00802, "longitude": 24.35066, "city": "Kalush", "images": []}, {"id": 419905, "min_date": "2019-07-07T11:00:00Z", "max_date": "2019-07-07T11:00:00Z", "count_points": 2, "latitude": 46.94021, "longitude": 32.4313, "city": "Shevchenkove", "images": []}, {"id": 419906, "min_date": "2019-07-07T11:00:00Z", "max_date": "2019-07-07T11:00:00Z", "count_points": 1, "latitude": 47.186, "longitude": 32.20144, "city": "Mykolayiv", "images": []}, {"id": 419907, "min_date": "2019-07-07T11:00:00Z", "max_date": "2019-07-07T10:44:00Z", "count_points": 15, "latitude": 46.07494, "longitude": 30.11618, "city": "Kulevcha", "images": []}, {"id": 419908, "min_date": "2019-07-07T11:00:00Z", "max_date": "2019-07-07T11:00:00Z", "count_points": 1, "latitude": 46.00311, "longitude": 30.04443, "city": "Kulevcha", "images": []}, {"id": 419909, "min_date": "2019-07-07T11:00:00Z", "max_date": "2019-07-07T11:00:00Z", "count_points": 1, "latitude": 47.46072, "longitude": 32.95458, "city": "Bereznehuvate", "images": []}, {"id": 419910, "min_date": "2019-07-07T11:00:00Z", "max_date": "2019-07-07T11:00:00Z", "count_points": 4, "latitude": 47.16055, "longitude": 30.30929, "city": "Ivanivka", "images": []}, {"id": 419911, "min_date": "2019-07-07T11:00:00Z", "max_date": "2019-07-07T11:00:00Z", "count_points": 2, "latitude": 46.87294, "longitude": 32.17795, "city": "Shevchenkove", "images": []}, {"id": 419912, "min_date": "2019-07-07T11:00:00Z", "max_date": "2019-07-07T10:45:00Z", "count_points": 5, "latitude": 47.31341, "longitude": 30.10751, "city": "Shyryayeve", "images": []}, {"id": 419913, "min_date": "2019-07-07T11:00:00Z", "max_date": "2019-07-07T10:45:00Z", "count_points": 5, "latitude": 47.49877, "longitude": 32.86651, "city": "Bereznehuvate", "images": []}, {"id": 419914, "min_date": "2019-07-07T11:00:00Z", "max_date": "2019-07-07T11:00:00Z", "count_points": 2, "latitude": 47.14169, "longitude": 32.88368, "city": "Snihurivka", "images": []}, {"id": 419915, "min_date": "2019-07-07T11:00:00Z", "max_date": "2019-07-07T11:00:00Z", "count_points": 1, "latitude": 47.05005, "longitude": 30.11265, "city": "Rozdil\u2019na", "images": []}, {"id": 419916, "min_date": "2019-07-07T11:00:00Z", "max_date": "2019-07-07T10:45:00Z", "count_points": 5, "latitude": 49.07871, "longitude": 35.41446, "city": "Zachepylivka", "images": []}, {"id": 419917, "min_date": "2019-07-07T11:00:00Z", "max_date": "2019-07-07T10:44:00Z", "count_points": 2, "latitude": 47.48836, "longitude": 35.481, "city": "Vasylivka", "images": []}, {"id": 419918, "min_date": "2019-07-07T11:00:00Z", "max_date": "2019-07-07T23:18:00Z", "count_points": 5, "latitude": 47.31003, "longitude": 34.79282, "city": "Velyka Bilozerka", "images": []}, {"id": 419919, "min_date": "2019-07-07T11:00:00Z", "max_date": "2019-07-07T11:00:00Z", "count_points": 2, "latitude": 46.70365, "longitude": 34.30736, "city": "Nyzhni Sirohozy", "images": []}, {"id": 419920, "min_date": "2019-07-07T11:00:00Z", "max_date": "2019-07-07T09:01:00Z", "count_points": 2, "latitude": 46.01724, "longitude": 28.99532, "city": "Dmytrivka", "images": []}, {"id": 419921, "min_date": "2019-07-07T11:00:00Z", "max_date": "2019-07-07T10:44:00Z", "count_points": 3, "latitude": 46.678, "longitude": 32.22244, "city": "Stanislav", "images": []}, {"id": 419922, "min_date": "2019-07-07T11:00:00Z", "max_date": "2019-07-07T11:00:00Z", "count_points": 1, "latitude": 47.00115, "longitude": 32.0492, "city": "Mykolayiv", "images": []}, {"id": 419923, "min_date": "2019-07-07T11:00:00Z", "max_date": "2019-07-07T11:00:00Z", "count_points": 1, "latitude": 46.74425, "longitude": 30.09973, "city": "Stepove", "images": []}, {"id": 419924, "min_date": "2019-07-07T23:18:00Z", "max_date": "2019-07-07T23:18:00Z", "count_points": 8, "latitude": 49.51055, "longitude": 38.64821, "city": "Bilokurakyne", "images": []}, {"id": 419925, "min_date": "2019-07-07T23:18:00Z", "max_date": "2019-07-07T23:18:00Z", "count_points": 1, "latitude": 49.40965, "longitude": 38.73525, "city": "Bilokurakyne", "images": []}, {"id": 419926, "min_date": "2019-07-07T23:18:00Z", "max_date": "2019-07-07T23:18:00Z", "count_points": 1, "latitude": 46.95635, "longitude": 34.36087, "city": "Nyzhni Sirohozy", "images": []}, {"id": 419927, "min_date": "2019-07-07T23:18:00Z", "max_date": "2019-07-07T23:18:00Z", "count_points": 2, "latitude": 46.8696, "longitude": 34.63377, "city": "Ivanivka", "images": []}, {"id": 419928, "min_date": "2019-07-07T23:18:00Z", "max_date": "2019-07-07T23:18:00Z", "count_points": 4, "latitude": 46.52346, "longitude": 34.6453, "city": "Partyzany", "images": []}, {"id": 419929, "min_date": "2019-07-07T23:18:00Z", "max_date": "2019-07-07T23:18:00Z", "count_points": 4, "latitude": 47.09728, "longitude": 34.71101, "city": "Velyka Bilozerka", "images": []}, {"id": 419930, "min_date": "2019-07-07T23:18:00Z", "max_date": "2019-07-07T23:18:00Z", "count_points": 1, "latitude": 47.54847, "longitude": 34.15982, "city": "Chortomlyk", "images": []}, {"id": 419931, "min_date": "2019-07-07T23:18:00Z", "max_date": "2019-07-07T23:18:00Z", "count_points": 1, "latitude": 46.7441, "longitude": 34.34503, "city": "Nyzhni Sirohozy", "images": []}, {"id": 419932, "min_date": "2019-07-07T23:18:00Z", "max_date": "2019-07-07T23:18:00Z", "count_points": 1, "latitude": 46.77778, "longitude": 33.66964, "city": "Lyubymivka", "images": []}, {"id": 419933, "min_date": "2019-07-07T23:18:00Z", "max_date": "2019-07-07T23:18:00Z", "count_points": 4, "latitude": 46.84786, "longitude": 34.09742, "city": "Nyzhni Sirohozy", "images": []}, {"id": 419934, "min_date": "2019-07-07T23:18:00Z", "max_date": "2019-07-07T23:18:00Z", "count_points": 3, "latitude": 46.75365, "longitude": 33.50182, "city": "Malokakhovka", "images": []}, {"id": 419935, "min_date": "2019-07-07T23:18:00Z", "max_date": "2019-07-07T23:18:00Z", "count_points": 2, "latitude": 47.33631, "longitude": 33.92633, "city": "Velyka Lepetykha", "images": []}, {"id": 419936, "min_date": "2019-07-07T23:18:00Z", "max_date": "2019-07-07T23:18:00Z", "count_points": 1, "latitude": 47.68984, "longitude": 33.64477, "city": "Apostolove", "images": []}, {"id": 419937, "min_date": "2019-07-07T23:18:00Z", "max_date": "2019-07-07T20:10:00Z", "count_points": 3, "latitude": 47.4055, "longitude": 33.89068, "city": "Novovorontsovka", "images": []}, {"id": 419938, "min_date": "2019-07-07T23:18:00Z", "max_date": "2019-07-07T23:18:00Z", "count_points": 1, "latitude": 48.91181, "longitude": 36.46366, "city": "Blyznyuky", "images": []}, {"id": 419939, "min_date": "2019-07-07T23:18:00Z", "max_date": "2019-07-07T23:18:00Z", "count_points": 2, "latitude": 47.03856, "longitude": 34.80125, "city": "Vesele", "images": []}, {"id": 419940, "min_date": "2019-07-07T23:18:00Z", "max_date": "2019-07-07T23:18:00Z", "count_points": 3, "latitude": 47.08002, "longitude": 34.66793, "city": "Velyka Bilozerka", "images": []}, {"id": 419941, "min_date": "2019-07-07T23:18:00Z", "max_date": "2019-07-07T23:18:00Z", "count_points": 1, "latitude": 46.76788, "longitude": 34.62298, "city": "Ivanivka", "images": []}, {"id": 419942, "min_date": "2019-07-07T23:18:00Z", "max_date": "2019-07-07T23:18:00Z", "count_points": 2, "latitude": 46.75318, "longitude": 34.17522, "city": "Nyzhni Sirohozy", "images": []}, {"id": 419943, "min_date": "2019-07-07T23:18:00Z", "max_date": "2019-07-07T23:18:00Z", "count_points": 3, "latitude": 49.41042, "longitude": 38.25569, "city": "Svatove", "images": []}, {"id": 419944, "min_date": "2019-07-01T00:12:00Z", "max_date": "2019-07-01T00:12:00Z", "count_points": 1, "latitude": 47.3621, "longitude": 32.8607, "city": "Bereznehuvate", "images": []}, {"id": 419945, "min_date": "2019-07-01T11:23:00Z", "max_date": "2019-07-01T11:23:00Z", "count_points": 1, "latitude": 51.1918, "longitude": 27.1634, "city": "Rokytne", "images": []}, {"id": 419946, "min_date": "2019-07-01T19:09:00Z", "max_date": "2019-07-01T19:09:00Z", "count_points": 2, "latitude": 48.60305, "longitude": 33.8234, "city": "Lykhivka", "images": []}, {"id": 419947, "min_date": "2019-07-01T20:47:00Z", "max_date": "2019-07-01T20:47:00Z", "count_points": 2, "latitude": 47.3757, "longitude": 31.82215, "city": "Nova Odesa", "images": []}, {"id": 419948, "min_date": "2019-07-01T20:47:00Z", "max_date": "2019-07-01T20:47:00Z", "count_points": 2, "latitude": 47.37645, "longitude": 31.88165, "city": "Nova Odesa", "images": []}, {"id": 419949, "min_date": "2019-07-02T08:42:00Z", "max_date": "2019-07-02T08:42:00Z", "count_points": 1, "latitude": 48.1944, "longitude": 39.7628, "city": "Krasnodon", "images": []}, {"id": 419950, "min_date": "2019-07-02T08:42:00Z", "max_date": "2019-07-02T08:42:00Z", "count_points": 1, "latitude": 48.8508, "longitude": 32.7963, "city": "Dmytrivka", "images": []}, {"id": 419951, "min_date": "2019-07-02T08:42:00Z", "max_date": "2019-07-02T08:42:00Z", "count_points": 2, "latitude": 48.4396, "longitude": 36.6314, "city": "Petropavlivka", "images": []}, {"id": 419952, "min_date": "2019-07-02T08:43:00Z", "max_date": "2019-07-02T08:43:00Z", "count_points": 1, "latitude": 46.0835, "longitude": 35.0028, "city": "Heniches\u2019k", "images": []}, {"id": 419953, "min_date": "2019-07-02T10:26:00Z", "max_date": "2019-07-02T10:26:00Z", "count_points": 1, "latitude": 48.2464, "longitude": 31.9281, "city": "Rivne", "images": []}, {"id": 419954, "min_date": "2019-07-02T10:26:00Z", "max_date": "2019-07-02T10:26:00Z", "count_points": 1, "latitude": 47.7444, "longitude": 33.3937, "city": "Shyroke", "images": []}, {"id": 419955, "min_date": "2019-07-02T10:26:00Z", "max_date": "2019-07-02T10:26:00Z", "count_points": 1, "latitude": 47.4931, "longitude": 35.535, "city": "Komyshuvakha", "images": []}, {"id": 419956, "min_date": "2019-07-02T10:26:00Z", "max_date": "2019-07-02T10:26:00Z", "count_points": 1, "latitude": 48.2371, "longitude": 33.5599, "city": "Zhovti Vody", "images": []}, {"id": 419957, "min_date": "2019-07-02T10:26:00Z", "max_date": "2019-07-02T10:26:00Z", "count_points": 2, "latitude": 47.8637, "longitude": 35.84775, "city": "Novomykolayivka", "images": []}, {"id": 419958, "min_date": "2019-07-02T19:51:00Z", "max_date": "2019-07-02T19:51:00Z", "count_points": 1, "latitude": 45.6722, "longitude": 28.8018, "city": "Kalcheva", "images": []}, {"id": 419959, "min_date": "2019-07-02T19:51:00Z", "max_date": "2019-07-02T19:51:00Z", "count_points": 1, "latitude": 46.778, "longitude": 29.9562, "city": "Stepanivka", "images": []}, {"id": 419960, "min_date": "2019-07-02T19:51:00Z", "max_date": "2019-07-02T19:51:00Z", "count_points": 1, "latitude": 46.1342, "longitude": 29.4655, "city": "Artsyz", "images": []}, {"id": 419961, "min_date": "2019-07-03T09:25:00Z", "max_date": "2019-07-03T09:25:00Z", "count_points": 1, "latitude": 47.5027, "longitude": 30.2896, "city": "Shyryayeve", "images": []}, {"id": 419962, "min_date": "2019-07-03T09:25:00Z", "max_date": "2019-07-03T09:25:00Z", "count_points": 2, "latitude": 47.55355, "longitude": 32.9648, "city": "Bereznehuvate", "images": []}, {"id": 419963, "min_date": "2019-07-03T09:25:00Z", "max_date": "2019-07-03T09:25:00Z", "count_points": 1, "latitude": 47.9332, "longitude": 30.1184, "city": "Lyubashivka", "images": []}, {"id": 419964, "min_date": "2019-07-03T09:26:00Z", "max_date": "2019-07-03T09:26:00Z", "count_points": 2, "latitude": 46.07675, "longitude": 29.93725, "city": "Kulevcha", "images": []}, {"id": 419965, "min_date": "2019-07-03T09:26:00Z", "max_date": "2019-07-03T09:26:00Z", "count_points": 2, "latitude": 45.6149, "longitude": 28.83295, "city": "Kalcheva", "images": []}, {"id": 419966, "min_date": "2019-07-03T09:26:00Z", "max_date": "2019-07-03T09:26:00Z", "count_points": 2, "latitude": 46.26455, "longitude": 29.96945, "city": "Starokozache", "images": []}, {"id": 419967, "min_date": "2019-07-03T09:26:00Z", "max_date": "2019-07-03T09:26:00Z", "count_points": 1, "latitude": 46.1838, "longitude": 29.7981, "city": "Kamyshevka Vtoraya", "images": []}, {"id": 419968, "min_date": "2019-07-03T09:26:00Z", "max_date": "2019-07-03T09:26:00Z", "count_points": 1, "latitude": 45.7317, "longitude": 29.5332, "city": "Tatarbunary", "images": []}, {"id": 419969, "min_date": "2019-07-03T09:26:00Z", "max_date": "2019-07-03T09:26:00Z", "count_points": 4, "latitude": 46.1331, "longitude": 30.28242, "city": "Bilhorod-Dnistrovskyi", "images": []}, {"id": 419970, "min_date": "2019-07-03T09:26:00Z", "max_date": "2019-07-03T09:26:00Z", "count_points": 1, "latitude": 45.5692, "longitude": 29.5112, "city": "Shevchenkove", "images": []}, {"id": 419971, "min_date": "2019-07-03T09:26:00Z", "max_date": "2019-07-03T09:26:00Z", "count_points": 1, "latitude": 45.8707, "longitude": 29.4681, "city": "Artsyz", "images": []}, {"id": 419972, "min_date": "2019-07-03T11:09:00Z", "max_date": "2019-07-03T11:09:00Z", "count_points": 1, "latitude": 46.4294, "longitude": 29.2013, "city": "Borodino", "images": []}, {"id": 419973, "min_date": "2019-07-03T11:09:00Z", "max_date": "2019-07-05T09:13:00Z", "count_points": 3, "latitude": 45.8957, "longitude": 29.7789, "city": "Zorya", "images": []}, {"id": 419974, "min_date": "2019-07-03T18:56:00Z", "max_date": "2019-07-03T18:56:00Z", "count_points": 1, "latitude": 48.6923, "longitude": 39.0491, "city": "Slov`yanoserbsk", "images": []}, {"id": 419975, "min_date": "2019-07-03T18:56:00Z", "max_date": "2019-07-03T18:56:00Z", "count_points": 1, "latitude": 46.6801, "longitude": 35.0455, "city": "Yakymivka", "images": []}, {"id": 419976, "min_date": "2019-07-03T18:56:00Z", "max_date": "2019-07-03T18:56:00Z", "count_points": 2, "latitude": 47.2329, "longitude": 37.61245, "city": "Sartana", "images": []}, {"id": 419977, "min_date": "2019-07-04T19:39:00Z", "max_date": "2019-07-04T19:39:00Z", "count_points": 1, "latitude": 46.4636, "longitude": 34.9478, "city": "Partyzany", "images": []}, {"id": 419978, "min_date": "2019-07-04T19:39:00Z", "max_date": "2019-07-04T19:39:00Z", "count_points": 2, "latitude": 47.62385, "longitude": 35.9734, "city": "Mala Tokmachka", "images": []},