[{"id": 438196, "min_date": "2019-10-28T00:54:00Z", "max_date": "2019-10-28T00:54:00Z", "count_points": 2, "latitude": 48.45541, "longitude": 23.60657, "city": "Synevyr", "images": []}, {"id": 438197, "min_date": "2019-10-28T00:54:00Z", "max_date": "2019-10-28T00:54:00Z", "count_points": 5, "latitude": 49.04194, "longitude": 23.80021, "city": "Bolekhiv", "images": []}, {"id": 438198, "min_date": "2019-10-28T00:54:00Z", "max_date": "2019-10-28T00:54:00Z", "count_points": 2, "latitude": 49.12784, "longitude": 23.57642, "city": "Verkhnie Synevydne", "images": []}, {"id": 438199, "min_date": "2019-10-28T01:00:00Z", "max_date": "2019-10-28T01:00:00Z", "count_points": 1, "latitude": 48.1627, "longitude": 23.80541, "city": "Neresnytsya", "images": []}, {"id": 438200, "min_date": "2019-10-28T01:00:00Z", "max_date": "2019-10-28T01:00:00Z", "count_points": 2, "latitude": 48.40861, "longitude": 23.53337, "city": "Mizhhiria", "images": []}, {"id": 438201, "min_date": "2019-10-28T01:00:00Z", "max_date": "2019-10-28T01:00:00Z", "count_points": 1, "latitude": 48.35002, "longitude": 23.57573, "city": "Berezovo", "images": []}, {"id": 438202, "min_date": "2019-10-28T01:00:00Z", "max_date": "2019-10-31T00:00:00Z", "count_points": 3, "latitude": 48.28648, "longitude": 23.53412, "city": "Drahovo", "images": []}, {"id": 438203, "min_date": "2019-10-28T09:06:00Z", "max_date": "2019-10-28T09:06:00Z", "count_points": 2, "latitude": 49.22036, "longitude": 33.92279, "city": "Lutovynivka", "images": []}, {"id": 438204, "min_date": "2019-10-28T09:06:00Z", "max_date": "2019-10-29T10:24:00Z", "count_points": 4, "latitude": 49.12787, "longitude": 32.59375, "city": "Chyhyryn", "images": []}, {"id": 438205, "min_date": "2019-10-28T10:42:00Z", "max_date": "2019-10-30T09:31:00Z", "count_points": 4, "latitude": 48.92613, "longitude": 32.75614, "city": "Dmytrivka", "images": []}, {"id": 438206, "min_date": "2019-10-28T10:42:00Z", "max_date": "2019-10-28T10:42:00Z", "count_points": 1, "latitude": 49.23289, "longitude": 33.16003, "city": "Hradyz\u2019k", "images": []}, {"id": 438207, "min_date": "2019-10-28T10:42:00Z", "max_date": "2019-10-28T11:28:00Z", "count_points": 8, "latitude": 48.65967, "longitude": 32.58851, "city": "Subottsi", "images": []}, {"id": 438208, "min_date": "2019-10-28T10:42:00Z", "max_date": "2019-10-28T10:42:00Z", "count_points": 1, "latitude": 49.71852, "longitude": 32.59952, "city": "Orzhytsya", "images": []}, {"id": 438209, "min_date": "2019-10-28T10:42:00Z", "max_date": "2019-10-28T10:42:00Z", "count_points": 1, "latitude": 49.62615, "longitude": 32.64057, "city": "Orzhytsya", "images": []}, {"id": 438210, "min_date": "2019-10-28T10:42:00Z", "max_date": "2019-10-28T10:42:00Z", "count_points": 1, "latitude": 49.50685, "longitude": 33.01778, "city": "Semenivka", "images": []}, {"id": 438211, "min_date": "2019-10-28T10:42:00Z", "max_date": "2019-10-28T10:42:00Z", "count_points": 4, "latitude": 49.3492, "longitude": 32.20271, "city": "Chervona Sloboda", "images": []}, {"id": 438212, "min_date": "2019-10-28T10:42:00Z", "max_date": "2019-10-31T10:21:00Z", "count_points": 3, "latitude": 49.3425, "longitude": 32.15356, "city": "Chervona Sloboda", "images": []}, {"id": 438213, "min_date": "2019-10-28T10:42:00Z", "max_date": "2019-10-28T10:42:00Z", "count_points": 1, "latitude": 48.6855, "longitude": 28.87912, "city": "Tulchyn", "images": []}, {"id": 438214, "min_date": "2019-10-28T10:42:00Z", "max_date": "2019-10-28T10:42:00Z", "count_points": 3, "latitude": 48.56442, "longitude": 33.19195, "city": "Novyy Starodub", "images": []}, {"id": 438215, "min_date": "2019-10-28T10:42:00Z", "max_date": "2019-10-28T10:42:00Z", "count_points": 2, "latitude": 49.08539, "longitude": 29.252, "city": "Illintsi", "images": []}, {"id": 438216, "min_date": "2019-10-28T10:42:00Z", "max_date": "2019-10-28T10:42:00Z", "count_points": 1, "latitude": 49.52521, "longitude": 32.84037, "city": "Orzhytsya", "images": []}, {"id": 438217, "min_date": "2019-10-28T10:42:00Z", "max_date": "2019-10-28T11:28:00Z", "count_points": 3, "latitude": 49.41062, "longitude": 32.98005, "city": "Hradyz\u2019k", "images": []}, {"id": 438218, "min_date": "2019-10-28T10:42:00Z", "max_date": "2019-10-28T10:42:00Z", "count_points": 2, "latitude": 48.9556, "longitude": 31.77273, "city": "Kapitanivka", "images": []}, {"id": 438219, "min_date": "2019-10-28T10:42:00Z", "max_date": "2019-10-28T10:42:00Z", "count_points": 2, "latitude": 48.97672, "longitude": 31.8002, "city": "Kapitanivka", "images": []}, {"id": 438220, "min_date": "2019-10-28T10:42:00Z", "max_date": "2019-10-28T10:42:00Z", "count_points": 1, "latitude": 48.89798, "longitude": 32.72303, "city": "Dmytrivka", "images": []}, {"id": 438221, "min_date": "2019-10-28T10:42:00Z", "max_date": "2019-10-28T10:42:00Z", "count_points": 1, "latitude": 49.09, "longitude": 31.89073, "city": "Smila", "images": []}, {"id": 438222, "min_date": "2019-10-28T10:42:00Z", "max_date": "2019-10-28T10:42:00Z", "count_points": 2, "latitude": 49.36821, "longitude": 29.7487, "city": "Tetiiv", "images": []}, {"id": 438223, "min_date": "2019-10-28T10:42:00Z", "max_date": "2019-10-28T10:42:00Z", "count_points": 2, "latitude": 49.17074, "longitude": 30.4856, "city": "Buky", "images": []}, {"id": 438224, "min_date": "2019-10-28T10:42:00Z", "max_date": "2019-10-28T09:50:00Z", "count_points": 10, "latitude": 49.27157, "longitude": 31.55504, "city": "Mleyev", "images": []}, {"id": 438225, "min_date": "2019-10-28T10:42:00Z", "max_date": "2019-10-28T10:42:00Z", "count_points": 1, "latitude": 48.77459, "longitude": 33.20686, "city": "Oleksandriya", "images": []}, {"id": 438226, "min_date": "2019-10-28T10:42:00Z", "max_date": "2019-10-28T10:42:00Z", "count_points": 1, "latitude": 49.44937, "longitude": 30.02398, "city": "Volodarka", "images": []}, {"id": 438227, "min_date": "2019-10-28T10:42:00Z", "max_date": "2019-10-28T11:28:00Z", "count_points": 6, "latitude": 49.50362, "longitude": 33.10869, "city": "Semenivka", "images": []}, {"id": 438228, "min_date": "2019-10-28T10:42:00Z", "max_date": "2019-10-28T10:42:00Z", "count_points": 1, "latitude": 49.31898, "longitude": 29.51542, "city": "Orativ", "images": []}, {"id": 438229, "min_date": "2019-10-28T10:42:00Z", "max_date": "2019-10-28T10:42:00Z", "count_points": 1, "latitude": 49.14145, "longitude": 32.12173, "city": "Kamianka", "images": []}, {"id": 438230, "min_date": "2019-10-28T10:42:00Z", "max_date": "2019-10-28T11:28:00Z", "count_points": 6, "latitude": 48.985, "longitude": 30.21194, "city": "Mankivka", "images": []}, {"id": 438231, "min_date": "2019-10-28T10:42:00Z", "max_date": "2019-10-28T10:42:00Z", "count_points": 1, "latitude": 48.94464, "longitude": 31.92641, "city": "Kamianka", "images": []}, {"id": 438232, "min_date": "2019-10-28T10:42:00Z", "max_date": "2019-10-28T10:42:00Z", "count_points": 1, "latitude": 49.3022, "longitude": 32.98708, "city": "Hradyz\u2019k", "images": []}, {"id": 438233, "min_date": "2019-10-28T10:42:00Z", "max_date": "2019-10-28T10:42:00Z", "count_points": 2, "latitude": 49.28351, "longitude": 33.22211, "city": "Hradyz\u2019k", "images": []}, {"id": 438234, "min_date": "2019-10-28T10:42:00Z", "max_date": "2019-10-28T10:42:00Z", "count_points": 1, "latitude": 49.2975, "longitude": 29.60021, "city": "Tetiiv", "images": []}, {"id": 438235, "min_date": "2019-10-28T10:42:00Z", "max_date": "2019-10-28T10:42:00Z", "count_points": 1, "latitude": 49.30325, "longitude": 34.18592, "city": "Novi Sanzhary", "images": []}, {"id": 438236, "min_date": "2019-10-28T10:42:00Z", "max_date": "2019-10-28T10:42:00Z", "count_points": 2, "latitude": 49.03726, "longitude": 33.88672, "city": "Kozel\u2019shchyna", "images": []}, {"id": 438237, "min_date": "2019-10-28T10:42:00Z", "max_date": "2019-10-31T09:48:00Z", "count_points": 5, "latitude": 48.96884, "longitude": 33.9155, "city": "Horishni Plavni", "images": []}, {"id": 438238, "min_date": "2019-10-28T10:42:00Z", "max_date": "2019-10-29T10:33:00Z", "count_points": 9, "latitude": 48.76858, "longitude": 33.32316, "city": "Pavlysh", "images": []}, {"id": 438239, "min_date": "2019-10-28T10:42:00Z", "max_date": "2019-10-28T10:42:00Z", "count_points": 3, "latitude": 49.39712, "longitude": 33.55317, "city": "Hlobyne", "images": []}, {"id": 438240, "min_date": "2019-10-28T10:42:00Z", "max_date": "2019-10-28T10:42:00Z", "count_points": 2, "latitude": 45.54268, "longitude": 29.45029, "city": "Shevchenkove", "images": []}, {"id": 438241, "min_date": "2019-10-28T10:42:00Z", "max_date": "2019-10-28T10:42:00Z", "count_points": 2, "latitude": 49.23692, "longitude": 33.26876, "city": "Hradyz\u2019k", "images": []}, {"id": 438242, "min_date": "2019-10-28T10:42:00Z", "max_date": "2019-10-28T10:42:00Z", "count_points": 1, "latitude": 49.32339, "longitude": 34.16586, "city": "Novi Sanzhary", "images": []}, {"id": 438243, "min_date": "2019-10-28T10:42:00Z", "max_date": "2019-10-28T10:42:00Z", "count_points": 1, "latitude": 49.4415, "longitude": 34.15968, "city": "Reshetylivka", "images": []}, {"id": 438244, "min_date": "2019-10-28T10:42:00Z", "max_date": "2019-11-02T10:48:00Z", "count_points": 5, "latitude": 49.5151, "longitude": 33.96311, "city": "Reshetylivka", "images": []}, {"id": 438245, "min_date": "2019-10-28T10:42:00Z", "max_date": "2019-11-02T10:48:00Z", "count_points": 3, "latitude": 49.71296, "longitude": 34.54288, "city": "Dykan\u2019ka", "images": []}, {"id": 438246, "min_date": "2019-10-28T10:42:00Z", "max_date": "2019-10-28T10:42:00Z", "count_points": 3, "latitude": 49.13089, "longitude": 33.97401, "city": "Lutovynivka", "images": []}, {"id": 438247, "min_date": "2019-10-28T10:42:00Z", "max_date": "2019-10-28T10:42:00Z", "count_points": 2, "latitude": 49.41329, "longitude": 33.71369, "city": "Kozel\u2019shchyna", "images": []}, {"id": 438248, "min_date": "2019-10-28T10:42:00Z", "max_date": "2019-10-28T10:42:00Z", "count_points": 1, "latitude": 49.40093, "longitude": 33.66965, "city": "Kozel\u2019shchyna", "images": []}, {"id": 438249, "min_date": "2019-10-28T10:42:00Z", "max_date": "2019-10-28T10:42:00Z", "count_points": 2, "latitude": 49.16043, "longitude": 33.99176, "city": "Lutovynivka", "images": []}, {"id": 438250, "min_date": "2019-10-28T10:42:00Z", "max_date": "2019-10-28T10:42:00Z", "count_points": 1, "latitude": 49.07088, "longitude": 34.4961, "city": "Tsarychanka", "images": []}, {"id": 438251, "min_date": "2019-10-28T10:42:00Z", "max_date": "2019-10-28T10:42:00Z", "count_points": 1, "latitude": 49.23914, "longitude": 34.61102, "city": "Hupalivka", "images": []}, {"id": 438252, "min_date": "2019-10-28T10:42:00Z", "max_date": "2019-10-28T10:42:00Z", "count_points": 1, "latitude": 49.4267, "longitude": 34.32893, "city": "Novi Sanzhary", "images": []}, {"id": 438253, "min_date": "2019-10-28T10:42:00Z", "max_date": "2019-10-28T10:42:00Z", "count_points": 1, "latitude": 49.48922, "longitude": 33.38013, "city": "Hlobyne", "images": []}, {"id": 438254, "min_date": "2019-10-28T10:42:00Z", "max_date": "2019-10-28T10:42:00Z", "count_points": 1, "latitude": 48.86899, "longitude": 33.66528, "city": "Horishni Plavni", "images": []}, {"id": 438255, "min_date": "2019-10-28T10:42:00Z", "max_date": "2019-10-28T10:42:00Z", "count_points": 2, "latitude": 50.28581, "longitude": 35.63439, "city": "Bohodukhiv", "images": []}, {"id": 438256, "min_date": "2019-10-28T10:42:00Z", "max_date": "2019-10-28T10:42:00Z", "count_points": 1, "latitude": 47.63739, "longitude": 29.70113, "city": "Podil\u2019s\u2019k", "images": []}, {"id": 438257, "min_date": "2019-10-28T10:42:00Z", "max_date": "2019-10-28T10:42:00Z", "count_points": 1, "latitude": 51.39454, "longitude": 25.64053, "city": "Manevychi", "images": []}, {"id": 438258, "min_date": "2019-10-28T10:42:00Z", "max_date": "2019-10-28T10:42:00Z", "count_points": 1, "latitude": 51.45869, "longitude": 27.43849, "city": "Rokytne", "images": []}, {"id": 438259, "min_date": "2019-10-28T10:42:00Z", "max_date": "2019-10-28T10:42:00Z", "count_points": 2, "latitude": 49.2587, "longitude": 33.36101, "city": "Hlobyne", "images": []}, {"id": 438260, "min_date": "2019-10-28T10:42:00Z", "max_date": "2019-10-29T10:33:00Z", "count_points": 4, "latitude": 49.06391, "longitude": 33.95595, "city": "Lutovynivka", "images": [{"image_url": "438260.jpg", "timestamp": "2019-10-29T10:33:00Z"}]}, {"id": 438261, "min_date": "2019-10-28T10:42:00Z", "max_date": "2019-10-29T08:48:00Z", "count_points": 3, "latitude": 49.11102, "longitude": 34.43927, "city": "Tsarychanka", "images": []}, {"id": 438262, "min_date": "2019-10-28T10:42:00Z", "max_date": "2019-10-28T10:42:00Z", "count_points": 1, "latitude": 48.82845, "longitude": 33.80191, "city": "Lykhivka", "images": []}, {"id": 438263, "min_date": "2019-10-28T10:42:00Z", "max_date": "2019-10-28T10:42:00Z", "count_points": 3, "latitude": 46.61788, "longitude": 34.05477, "city": "Askaniya-Nova", "images": []}, {"id": 438264, "min_date": "2019-10-28T10:42:00Z", "max_date": "2019-10-28T10:42:00Z", "count_points": 2, "latitude": 46.39827, "longitude": 33.99342, "city": "Askaniya-Nova", "images": []}, {"id": 438265, "min_date": "2019-10-28T10:42:00Z", "max_date": "2019-11-01T11:02:00Z", "count_points": 18, "latitude": 46.13797, "longitude": 33.42815, "city": "Kalanchak", "images": []}, {"id": 438266, "min_date": "2019-10-28T10:42:00Z", "max_date": "2019-10-28T10:42:00Z", "count_points": 1, "latitude": 48.42611, "longitude": 32.7448, "city": "Novhorodka", "images": []}, {"id": 438267, "min_date": "2019-10-28T10:42:00Z", "max_date": "2019-10-28T10:42:00Z", "count_points": 1, "latitude": 49.50764, "longitude": 34.15556, "city": "Reshetylivka", "images": []}, {"id": 438268, "min_date": "2019-10-28T10:42:00Z", "max_date": "2019-10-28T10:42:00Z", "count_points": 2, "latitude": 49.44547, "longitude": 34.29741, "city": "Novi Sanzhary", "images": []}, {"id": 438269, "min_date": "2019-10-28T10:42:00Z", "max_date": "2019-10-28T10:42:00Z", "count_points": 1, "latitude": 46.5317, "longitude": 30.64597, "city": "Usatove", "images": []}, {"id": 438270, "min_date": "2019-10-28T22:54:00Z", "max_date": "2019-10-28T22:54:00Z", "count_points": 1, "latitude": 50.9487, "longitude": 28.63675, "city": "Korosten\u2019", "images": []}, {"id": 438271, "min_date": "2019-10-29T00:36:00Z", "max_date": "2019-10-29T00:36:00Z", "count_points": 1, "latitude": 50.42193, "longitude": 33.59543, "city": "Lypova Dolyna", "images": []}, {"id": 438272, "min_date": "2019-10-29T10:24:00Z", "max_date": "2019-10-29T10:24:00Z", "count_points": 2, "latitude": 50.25255, "longitude": 35.21672, "city": "Kyrykivka", "images": []}, {"id": 438273, "min_date": "2019-10-29T10:24:00Z", "max_date": "2019-10-29T10:24:00Z", "count_points": 1, "latitude": 49.78587, "longitude": 34.94883, "city": "Chutove", "images": []}, {"id": 438274, "min_date": "2019-10-29T10:24:00Z", "max_date": "2019-10-29T10:24:00Z", "count_points": 1, "latitude": 49.73119, "longitude": 34.96495, "city": "Chutove", "images": []}, {"id": 438275, "min_date": "2019-10-29T10:24:00Z", "max_date": "2019-10-29T10:24:00Z", "count_points": 1, "latitude": 49.75258, "longitude": 33.27875, "city": "Khorol", "images": []}, {"id": 438276, "min_date": "2019-10-29T10:24:00Z", "max_date": "2019-10-29T10:24:00Z", "count_points": 1, "latitude": 48.85, "longitude": 33.34694, "city": "Pavlysh", "images": []}, {"id": 438277, "min_date": "2019-10-29T10:24:00Z", "max_date": "2019-10-29T10:24:00Z", "count_points": 1, "latitude": 49.1979, "longitude": 34.90551, "city": "Hupalivka", "images": []}, {"id": 438278, "min_date": "2019-10-29T10:24:00Z", "max_date": "2019-10-29T10:24:00Z", "count_points": 2, "latitude": 49.72123, "longitude": 34.76761, "city": "Dykan\u2019ka", "images": []}, {"id": 438279, "min_date": "2019-10-29T10:24:00Z", "max_date": "2019-10-29T10:24:00Z", "count_points": 1, "latitude": 49.70956, "longitude": 34.67701, "city": "Poltava", "images": []}, {"id": 438280, "min_date": "2019-10-29T10:24:00Z", "max_date": "2019-10-29T10:24:00Z", "count_points": 1, "latitude": 49.43612, "longitude": 34.72234, "city": "Mashivka", "images": []}, {"id": 438281, "min_date": "2019-10-29T10:24:00Z", "max_date": "2019-10-29T10:33:00Z", "count_points": 2, "latitude": 50.45339, "longitude": 30.06106, "city": "Vorzel\u2019", "images": []}, {"id": 438282, "min_date": "2019-10-29T10:24:00Z", "max_date": "2019-10-29T10:24:00Z", "count_points": 1, "latitude": 50.26673, "longitude": 30.77937, "city": "Hnidyn", "images": []}, {"id": 438283, "min_date": "2019-10-29T10:24:00Z", "max_date": "2019-11-01T11:03:00Z", "count_points": 10, "latitude": 49.85862, "longitude": 32.23076, "city": "Drabiv", "images": []}, {"id": 438284, "min_date": "2019-10-29T10:24:00Z", "max_date": "2019-10-29T10:24:00Z", "count_points": 3, "latitude": 49.89694, "longitude": 31.72795, "city": "Tsybli", "images": []}, {"id": 438285, "min_date": "2019-10-29T10:24:00Z", "max_date": "2019-10-29T10:24:00Z", "count_points": 2, "latitude": 49.68038, "longitude": 37.6316, "city": "Kupjansk", "images": []}, {"id": 438286, "min_date": "2019-10-29T10:24:00Z", "max_date": "2019-10-29T10:24:00Z", "count_points": 1, "latitude": 50.04142, "longitude": 32.9009, "city": "Lubny", "images": []}, {"id": 438287, "min_date": "2019-10-29T10:24:00Z", "max_date": "2019-10-29T10:24:00Z", "count_points": 1, "latitude": 49.92423, "longitude": 31.78188, "city": "Tsybli", "images": []}, {"id": 438288, "min_date": "2019-10-29T10:24:00Z", "max_date": "2019-10-29T10:24:00Z", "count_points": 1, "latitude": 49.14022, "longitude": 30.07975, "city": "Zhashkiv", "images": []}, {"id": 438289, "min_date": "2019-10-29T10:24:00Z", "max_date": "2019-10-29T10:24:00Z", "count_points": 1, "latitude": 49.71204, "longitude": 33.19904, "city": "Khorol", "images": []}, {"id": 438290, "min_date": "2019-10-29T10:24:00Z", "max_date": "2019-11-02T10:48:00Z", "count_points": 4, "latitude": 49.7675, "longitude": 32.39049, "city": "Chornobay", "images": [{"image_url": "438290.jpg", "timestamp": "2019-11-02T10:48:00Z"}]}, {"id": 438291, "min_date": "2019-10-29T10:24:00Z", "max_date": "2019-10-29T10:24:00Z", "count_points": 1, "latitude": 49.71268, "longitude": 30.81276, "city": "Karapyshi", "images": []}, {"id": 438292, "min_date": "2019-10-29T10:24:00Z", "max_date": "2019-10-29T10:24:00Z", "count_points": 1, "latitude": 48.70924, "longitude": 32.43684, "city": "Subottsi", "images": []}, {"id": 438293, "min_date": "2019-10-29T10:24:00Z", "max_date": "2019-10-29T10:33:00Z", "count_points": 3, "latitude": 49.61994, "longitude": 37.10636, "city": "Shevchenkove", "images": []}, {"id": 438294, "min_date": "2019-10-29T10:24:00Z", "max_date": "2019-10-29T10:24:00Z", "count_points": 1, "latitude": 50.10627, "longitude": 32.35514, "city": "Hrebinka", "images": []}, {"id": 438295, "min_date": "2019-10-29T10:24:00Z", "max_date": "2019-10-29T10:24:00Z", "count_points": 1, "latitude": 49.19183, "longitude": 36.21146, "city": "Krasnopavlivka", "images": []}, {"id": 438296, "min_date": "2019-10-29T10:24:00Z", "max_date": "2019-10-29T10:24:00Z", "count_points": 1, "latitude": 48.99917, "longitude": 36.4679, "city": "Blyznyuky", "images": []}, {"id": 438297, "min_date": "2019-10-29T10:24:00Z", "max_date": "2019-10-29T10:24:00Z", "count_points": 1, "latitude": 49.90403, "longitude": 36.20002, "city": "Pokotylivka", "images": []}, {"id": 438298, "min_date": "2019-10-29T10:24:00Z", "max_date": "2019-10-29T10:33:00Z", "count_points": 2, "latitude": 49.07767, "longitude": 35.91983, "city": "Sakhnovshchyna", "images": []}, {"id": 438299, "min_date": "2019-10-29T10:24:00Z", "max_date": "2019-10-29T10:24:00Z", "count_points": 1, "latitude": 49.56543, "longitude": 32.46784, "city": "Chornobay", "images": []}, {"id": 438300, "min_date": "2019-10-29T10:24:00Z", "max_date": "2019-10-29T10:24:00Z", "count_points": 1, "latitude": 48.9188, "longitude": 33.39566, "city": "Pavlysh", "images": []}, {"id": 438301, "min_date": "2019-10-29T10:24:00Z", "max_date": "2019-10-29T10:24:00Z", "count_points": 1, "latitude": 49.04214, "longitude": 34.5094, "city": "Tsarychanka", "images": []}, {"id": 438302, "min_date": "2019-10-29T10:24:00Z", "max_date": "2019-10-29T10:24:00Z", "count_points": 1, "latitude": 49.35247, "longitude": 34.91883, "city": "Mashivka", "images": []}, {"id": 438303, "min_date": "2019-10-29T10:24:00Z", "max_date": "2019-10-29T10:24:00Z", "count_points": 1, "latitude": 49.53953, "longitude": 34.2736, "city": "Reshetylivka", "images": []}, {"id": 438304, "min_date": "2019-10-29T10:24:00Z", "max_date": "2019-11-02T10:48:00Z", "count_points": 7, "latitude": 49.62227, "longitude": 35.16282, "city": "Chutove", "images": [{"image_url": "438304.jpg", "timestamp": "2019-11-02T10:48:00Z"}]}, {"id": 438305, "min_date": "2019-10-29T10:24:00Z", "max_date": "2019-10-29T10:24:00Z", "count_points": 2, "latitude": 50.44879, "longitude": 32.05487, "city": "Chernyakhivka", "images": []}, {"id": 438306, "min_date": "2019-10-29T10:24:00Z", "max_date": "2019-10-29T10:24:00Z", "count_points": 1, "latitude": 49.31805, "longitude": 33.81492, "city": "Kozel\u2019shchyna", "images": []}, {"id": 438307, "min_date": "2019-10-29T10:24:00Z", "max_date": "2019-10-29T10:24:00Z", "count_points": 1, "latitude": 49.03255, "longitude": 34.46894, "city": "Tsarychanka", "images": []}, {"id": 438308, "min_date": "2019-10-29T10:24:00Z", "max_date": "2019-10-29T10:33:00Z", "count_points": 3, "latitude": 48.98621, "longitude": 35.02804, "city": "Mahdalynivka", "images": []}, {"id": 438309, "min_date": "2019-10-29T10:24:00Z", "max_date": "2019-11-02T10:08:00Z", "count_points": 5, "latitude": 49.72741, "longitude": 33.39119, "city": "Khorol", "images": []}, {"id": 438310, "min_date": "2019-10-29T10:24:00Z", "max_date": "2019-10-29T10:33:00Z", "count_points": 8, "latitude": 49.11313, "longitude": 34.65719, "city": "Hupalivka", "images": [{"image_url": "438310.jpg", "timestamp": "2019-10-29T10:33:00Z"}]}, {"id": 438311, "min_date": "2019-10-29T10:24:00Z", "max_date": "2019-10-29T10:24:00Z", "count_points": 1, "latitude": 50.00669, "longitude": 32.56244, "city": "Hrebinka", "images": []}, {"id": 438312, "min_date": "2019-10-29T10:24:00Z", "max_date": "2019-10-29T10:33:00Z", "count_points": 2, "latitude": 49.01378, "longitude": 34.33845, "city": "Tsarychanka", "images": []}, {"id": 438313, "min_date": "2019-10-29T10:24:00Z", "max_date": "2019-10-31T11:30:00Z", "count_points": 3, "latitude": 48.92449, "longitude": 34.24731, "city": "Tsarychanka", "images": []}, {"id": 438314, "min_date": "2019-10-29T10:24:00Z", "max_date": "2019-10-29T10:24:00Z", "count_points": 1, "latitude": 48.9404, "longitude": 35.15141, "city": "Hubynykha", "images": []}, {"id": 438315, "min_date": "2019-10-29T10:24:00Z", "max_date": "2019-10-29T10:33:00Z", "count_points": 2, "latitude": 48.97643, "longitude": 34.34344, "city": "Tsarychanka", "images": []}, {"id": 438316, "min_date": "2019-10-29T10:24:00Z", "max_date": "2019-10-29T10:33:00Z", "count_points": 6, "latitude": 48.91102, "longitude": 35.01, "city": "Mahdalynivka", "images": []}, {"id": 438317, "min_date": "2019-10-29T10:24:00Z", "max_date": "2019-10-31T10:20:00Z", "count_points": 3, "latitude": 48.97649, "longitude": 34.56087, "city": "Tsarychanka", "images": []}, {"id": 438318, "min_date": "2019-10-29T10:24:00Z", "max_date": "2019-10-29T10:33:00Z", "count_points": 3, "latitude": 50.35807, "longitude": 32.34003, "city": "Pyryatyn", "images": []}, {"id": 438319, "min_date": "2019-10-29T10:24:00Z", "max_date": "2019-11-02T10:08:00Z", "count_points": 5, "latitude": 49.31692, "longitude": 35.3262, "city": "Zachepylivka", "images": []}, {"id": 438320, "min_date": "2019-10-29T10:24:00Z", "max_date": "2019-10-29T10:33:00Z", "count_points": 2, "latitude": 48.90144, "longitude": 33.61147, "city": "Horishni Plavni", "images": []}, {"id": 438321, "min_date": "2019-10-29T10:24:00Z", "max_date": "2019-10-29T10:33:00Z", "count_points": 4, "latitude": 48.89347, "longitude": 33.53496, "city": "Kamennyye Potoki", "images": []}, {"id": 438322, "min_date": "2019-10-29T10:24:00Z", "max_date": "2019-10-29T10:24:00Z", "count_points": 1, "latitude": 49.63465, "longitude": 34.29248, "city": "Reshetylivka", "images": []}, {"id": 438323, "min_date": "2019-10-29T10:24:00Z", "max_date": "2019-10-29T10:33:00Z", "count_points": 5, "latitude": 49.28896, "longitude": 34.02496, "city": "Lutovynivka", "images": [{"image_url": "438323.jpg", "timestamp": "2019-10-29T10:33:00Z"}]}, {"id": 438324, "min_date": "2019-10-29T10:24:00Z", "max_date": "2019-11-02T09:12:00Z", "count_points": 5, "latitude": 49.12678, "longitude": 34.0248, "city": "Lutovynivka", "images": [{"image_url": "438324.jpg", "timestamp": "2019-11-02T09:12:00Z"}]}, {"id": 438325, "min_date": "2019-10-29T10:24:00Z", "max_date": "2019-10-29T10:33:00Z", "count_points": 2, "latitude": 49.09022, "longitude": 34.06715, "city": "Kobelyaky", "images": []}, {"id": 438326, "min_date": "2019-10-29T10:24:00Z", "max_date": "2019-10-30T11:48:00Z", "count_points": 4, "latitude": 49.69743, "longitude": 32.97451, "city": "Semenivka", "images": []}, {"id": 438327, "min_date": "2019-10-29T10:24:00Z", "max_date": "2019-10-29T10:24:00Z", "count_points": 1, "latitude": 49.66572, "longitude": 33.01081, "city": "Semenivka", "images": []}, {"id": 438328, "min_date": "2019-10-29T10:24:00Z", "max_date": "2019-10-29T10:33:00Z", "count_points": 3, "latitude": 50.49994, "longitude": 33.93551, "city": "Hadyach", "images": []}, {"id": 438329, "min_date": "2019-10-29T10:24:00Z", "max_date": "2019-10-29T10:33:00Z", "count_points": 3, "latitude": 48.99871, "longitude": 33.91414, "city": "Kozel\u2019shchyna", "images": []}, {"id": 438330, "min_date": "2019-10-29T10:24:00Z", "max_date": "2019-10-29T10:24:00Z", "count_points": 1, "latitude": 49.4828, "longitude": 34.12799, "city": "Reshetylivka", "images": []}, {"id": 438331, "min_date": "2019-10-29T10:24:00Z", "max_date": "2019-10-29T10:24:00Z", "count_points": 1, "latitude": 49.1035, "longitude": 35.30962, "city": "Zachepylivka", "images": []}, {"id": 438332, "min_date": "2019-10-29T10:24:00Z", "max_date": "2019-10-29T10:24:00Z", "count_points": 1, "latitude": 49.04516, "longitude": 34.015, "city": "Kobelyaky", "images": []}, {"id": 438333, "min_date": "2019-10-29T10:24:00Z", "max_date": "2019-10-29T10:33:00Z", "count_points": 8, "latitude": 49.02591, "longitude": 33.94916, "city": "Kozel\u2019shchyna", "images": [{"image_url": "438333.jpg", "timestamp": "2019-10-29T10:33:00Z"}]}, {"id": 438334, "min_date": "2019-10-29T10:24:00Z", "max_date": "2019-10-29T10:24:00Z", "count_points": 1, "latitude": 49.72933, "longitude": 38.50125, "city": "Pavlivka", "images": []}, {"id": 438335, "min_date": "2019-10-29T10:24:00Z", "max_date": "2019-10-30T10:06:00Z", "count_points": 3, "latitude": 49.00207, "longitude": 34.0904, "city": "Kobelyaky", "images": []}, {"id": 438336, "min_date": "2019-10-29T10:24:00Z", "max_date": "2019-10-29T10:33:00Z", "count_points": 2, "latitude": 49.28877, "longitude": 34.60068, "city": "Hupalivka", "images": []}, {"id": 438337, "min_date": "2019-10-29T10:24:00Z", "max_date": "2019-10-29T10:24:00Z", "count_points": 1, "latitude": 49.99522, "longitude": 35.26272, "city": "Krasnokuts\u2019k", "images": []}, {"id": 438338, "min_date": "2019-10-29T10:24:00Z", "max_date": "2019-10-29T10:24:00Z", "count_points": 1, "latitude": 49.04789, "longitude": 34.97622, "city": "Mahdalynivka", "images": []}, {"id": 438339, "min_date": "2019-10-29T10:24:00Z", "max_date": "2019-10-29T10:33:00Z", "count_points": 4, "latitude": 49.85192, "longitude": 38.31173, "city": "Troyits\u2019ke", "images": []}, {"id": 438340, "min_date": "2019-10-29T10:24:00Z", "max_date": "2019-10-29T10:33:00Z", "count_points": 2, "latitude": 49.24378, "longitude": 34.50518, "city": "Novi Sanzhary", "images": []}, {"id": 438341, "min_date": "2019-10-29T10:24:00Z", "max_date": "2019-10-29T10:24:00Z", "count_points": 1, "latitude": 49.63617, "longitude": 37.53576, "city": "Kupjansk", "images": []}, {"id": 438342, "min_date": "2019-10-29T10:24:00Z", "max_date": "2019-10-29T08:47:00Z", "count_points": 2, "latitude": 51.19666, "longitude": 34.33394, "city": "Bilopillya", "images": []}, {"id": 438343, "min_date": "2019-10-29T10:24:00Z", "max_date": "2019-10-29T10:24:00Z", "count_points": 1, "latitude": 50.21087, "longitude": 34.20398, "city": "Zin\u2019kiv", "images": []}, {"id": 438344, "min_date": "2019-10-29T10:24:00Z", "max_date": "2019-10-29T10:24:00Z", "count_points": 1, "latitude": 49.76952, "longitude": 35.40046, "city": "Kolomak", "images": []}, {"id": 438345, "min_date": "2019-10-29T10:24:00Z", "max_date": "2019-10-29T10:24:00Z", "count_points": 2, "latitude": 51.11983, "longitude": 33.90852, "city": "Buryn\u2019", "images": []}, {"id": 438346, "min_date": "2019-10-29T10:24:00Z", "max_date": "2019-10-29T10:24:00Z", "count_points": 1, "latitude": 49.41534, "longitude": 37.23098, "city": "Savyntsi", "images": []}, {"id": 438347, "min_date": "2019-10-29T10:24:00Z", "max_date": "2019-10-29T10:24:00Z", "count_points": 1, "latitude": 50.63473, "longitude": 33.49141, "city": "Romny", "images": []}, {"id": 438348, "min_date": "2019-10-29T10:24:00Z", "max_date": "2019-10-29T10:24:00Z", "count_points": 1, "latitude": 49.95546, "longitude": 37.49849, "city": "Velykyy Burluk", "images": []}, {"id": 438349, "min_date": "2019-10-29T10:24:00Z", "max_date": "2019-10-29T10:24:00Z", "count_points": 1, "latitude": 51.99252, "longitude": 32.23339, "city": "Koryukivka", "images": []}, {"id": 438350, "min_date": "2019-10-30T00:18:00Z", "max_date": "2019-10-30T11:16:00Z", "count_points": 9, "latitude": 49.96217, "longitude": 32.47518, "city": "Hrebinka", "images": []}, {"id": 438351, "min_date": "2019-10-30T00:18:00Z", "max_date": "2019-10-30T10:06:00Z", "count_points": 2, "latitude": 49.53263, "longitude": 30.62271, "city": "Tarashcha", "images": []}, {"id": 438352, "min_date": "2019-10-30T00:18:00Z", "max_date": "2019-10-30T00:18:00Z", "count_points": 1, "latitude": 50.6787, "longitude": 26.16642, "city": "Tynne", "images": []}, {"id": 438353, "min_date": "2019-10-30T00:18:00Z", "max_date": "2019-11-01T09:19:00Z", "count_points": 6, "latitude": 48.14288, "longitude": 23.8494, "city": "Kalyny", "images": []}, {"id": 438354, "min_date": "2019-10-30T00:18:00Z", "max_date": "2019-10-30T00:18:00Z", "count_points": 1, "latitude": 50.94495, "longitude": 26.89106, "city": "Berezne", "images": []}, {"id": 438355, "min_date": "2019-10-30T00:18:00Z", "max_date": "2019-10-30T00:18:00Z", "count_points": 2, "latitude": 50.05903, "longitude": 33.77473, "city": "Komyshnya", "images": []}, {"id": 438356, "min_date": "2019-10-30T00:18:00Z", "max_date": "2019-10-30T11:48:00Z", "count_points": 4, "latitude": 49.73896, "longitude": 33.60877, "city": "Velyka Bahachka", "images": [{"image_url": "438356.jpg", "timestamp": "2019-10-30T11:48:00Z"}]}, {"id": 438357, "min_date": "2019-10-30T00:18:00Z", "max_date": "2019-10-30T11:48:00Z", "count_points": 6, "latitude": 50.39247, "longitude": 32.31152, "city": "Pryluky", "images": []}, {"id": 438358, "min_date": "2019-10-30T10:06:00Z", "max_date": "2019-10-30T10:06:00Z", "count_points": 2, "latitude": 48.86432, "longitude": 34.98972, "city": "Mahdalynivka", "images": []}, {"id": 438359, "min_date": "2019-10-30T10:06:00Z", "max_date": "2019-10-30T10:06:00Z", "count_points": 2, "latitude": 50.69753, "longitude": 33.99873, "city": "Nedryhayliv", "images": []}, {"id": 438360, "min_date": "2019-10-30T10:06:00Z", "max_date": "2019-10-30T09:30:00Z", "count_points": 3, "latitude": 50.06316, "longitude": 35.05366, "city": "Krasnokuts\u2019k", "images": []}, {"id": 438361, "min_date": "2019-10-30T10:06:00Z", "max_date": "2019-10-30T10:06:00Z", "count_points": 1, "latitude": 49.88533, "longitude": 33.83002, "city": "Velyka Bahachka", "images": []}, {"id": 438362, "min_date": "2019-10-30T10:06:00Z", "max_date": "2019-10-30T10:06:00Z", "count_points": 1, "latitude": 49.09641, "longitude": 34.61147, "city": "Hupalivka", "images": []}, {"id": 438363, "min_date": "2019-10-30T10:06:00Z", "max_date": "2019-10-30T10:06:00Z", "count_points": 1, "latitude": 49.43217, "longitude": 38.94459, "city": "Starobil\u2019s\u2019k", "images": []}, {"id": 438364, "min_date": "2019-10-30T10:06:00Z", "max_date": "2019-10-30T10:06:00Z", "count_points": 1, "latitude": 48.97295, "longitude": 34.96636, "city": "Mahdalynivka", "images": []}, {"id": 438365, "min_date": "2019-10-30T10:06:00Z", "max_date": "2019-10-30T10:06:00Z", "count_points": 2, "latitude": 51.0516, "longitude": 33.90938, "city": "Terny", "images": []}, {"id": 438366, "min_date": "2019-10-30T10:06:00Z", "max_date": "2019-11-02T10:08:00Z", "count_points": 8, "latitude": 49.00015, "longitude": 34.88967, "city": "Mahdalynivka", "images": []}, {"id": 438367, "min_date": "2019-10-30T10:06:00Z", "max_date": "2019-10-31T11:30:00Z", "count_points": 7, "latitude": 49.05085, "longitude": 34.68364, "city": "Hupalivka", "images": []}, {"id": 438368, "min_date": "2019-10-30T10:06:00Z", "max_date": "2019-11-01T09:30:00Z", "count_points": 3, "latitude": 49.84431, "longitude": 34.68108, "city": "Oposhnya", "images": []}, {"id": 438369, "min_date": "2019-10-30T10:06:00Z", "max_date": "2019-10-30T10:06:00Z", "count_points": 2, "latitude": 49.10701, "longitude": 34.98109, "city": "Mahdalynivka", "images": []}, {"id": 438370, "min_date": "2019-10-30T10:06:00Z", "max_date": "2019-11-01T09:30:00Z", "count_points": 2, "latitude": 49.03386, "longitude": 35.48201, "city": "Zachepylivka", "images": []}, {"id": 438371, "min_date": "2019-10-30T10:06:00Z", "max_date": "2019-10-30T10:06:00Z", "count_points": 2, "latitude": 49.68675, "longitude": 39.12573, "city": "Novopskov", "images": []}, {"id": 438372, "min_date": "2019-10-30T10:06:00Z", "max_date": "2019-10-30T10:06:00Z", "count_points": 1, "latitude": 48.94879, "longitude": 35.03412, "city": "Mahdalynivka", "images": []}, {"id": 438373, "min_date": "2019-10-30T10:06:00Z", "max_date": "2019-10-30T10:06:00Z", "count_points": 1, "latitude": 49.47036, "longitude": 33.73618, "city": "Kozel\u2019shchyna", "images": []}, {"id": 438374, "min_date": "2019-10-30T10:06:00Z", "max_date": "2019-10-30T10:06:00Z", "count_points": 1, "latitude": 48.73917, "longitude": 33.97709, "city": "Lykhivka", "images": []}, {"id": 438375, "min_date": "2019-10-30T10:06:00Z", "max_date": "2019-10-30T10:06:00Z", "count_points": 2, "latitude": 49.43129, "longitude": 35.09179, "city": "Karlivka", "images": []}, {"id": 438376, "min_date": "2019-10-30T10:06:00Z", "max_date": "2019-10-30T11:15:00Z", "count_points": 10, "latitude": 47.86151, "longitude": 29.24145, "city": "Slobidka", "images": [{"image_url": "438376.jpg", "timestamp": "2019-10-30T11:15:00Z"}]}, {"id": 438377, "min_date": "2019-10-30T10:06:00Z", "max_date": "2019-10-30T10:06:00Z", "count_points": 1, "latitude": 50.07296, "longitude": 33.32935, "city": "Romodan", "images": []}, {"id": 438378, "min_date": "2019-10-30T10:06:00Z", "max_date": "2019-10-30T10:06:00Z", "count_points": 1, "latitude": 48.20226, "longitude": 32.42784, "city": "Kompaniyivka", "images": []}, {"id": 438379, "min_date": "2019-10-30T10:06:00Z", "max_date": "2019-10-30T11:48:00Z", "count_points": 4, "latitude": 48.16448, "longitude": 29.9233, "city": "Zavallya", "images": []}, {"id": 438380, "min_date": "2019-10-30T10:06:00Z", "max_date": "2019-10-30T11:15:00Z", "count_points": 3, "latitude": 48.12991, "longitude": 29.84233, "city": "Peschana", "images": []}, {"id": 438381, "min_date": "2019-10-30T10:06:00Z", "max_date": "2019-10-31T10:20:00Z", "count_points": 3, "latitude": 47.92014, "longitude": 29.41539, "city": "Slobidka", "images": []}, {"id": 438382, "min_date": "2019-10-30T10:06:00Z", "max_date": "2019-10-30T10:06:00Z", "count_points": 2, "latitude": 49.2804, "longitude": 25.57363, "city": "Mikulintsy", "images": []}, {"id": 438383, "min_date": "2019-10-30T10:06:00Z", "max_date": "2019-10-30T11:15:00Z", "count_points": 2, "latitude": 48.17979, "longitude": 31.90772, "city": "Rivne", "images": []}, {"id": 438384, "min_date": "2019-10-30T10:06:00Z", "max_date": "2019-10-30T10:06:00Z", "count_points": 1, "latitude": 48.77418, "longitude": 35.6558, "city": "Melioratyvne", "images": []}, {"id": 438385, "min_date": "2019-10-30T10:06:00Z", "max_date": "2019-10-30T10:06:00Z", "count_points": 1, "latitude": 51.14187, "longitude": 33.22056, "city": "Konotop", "images": []}, {"id": 438386, "min_date": "2019-10-30T10:06:00Z", "max_date": "2019-10-30T11:16:00Z", "count_points": 6, "latitude": 50.50824, "longitude": 34.162, "city": "Hadyach", "images": []}, {"id": 438387, "min_date": "2019-10-30T10:06:00Z", "max_date": "2019-10-30T11:15:00Z", "count_points": 3, "latitude": 47.25649, "longitude": 32.46853, "city": "Bashtanka", "images": []}, {"id": 438388, "min_date": "2019-10-30T10:06:00Z", "max_date": "2019-10-30T11:15:00Z", "count_points": 2, "latitude": 46.94687, "longitude": 32.31619, "city": "Shevchenkove", "images": []}, {"id": 438389, "min_date": "2019-10-30T10:06:00Z", "max_date": "2019-10-30T10:06:00Z", "count_points": 1, "latitude": 48.4992, "longitude": 28.40599, "city": "Klembivka", "images": []}, {"id": 438390, "min_date": "2019-10-30T10:06:00Z", "max_date": "2019-10-30T11:48:00Z", "count_points": 2, "latitude": 49.64472, "longitude": 35.02609, "city": "Chutove", "images": []}, {"id": 438391, "min_date": "2019-10-30T10:06:00Z", "max_date": "2019-10-30T09:30:00Z", "count_points": 3, "latitude": 50.69496, "longitude": 34.92119, "city": "Boromlya", "images": []}, {"id": 438392, "min_date": "2019-10-30T10:06:00Z", "max_date": "2019-10-30T10:06:00Z", "count_points": 1, "latitude": 48.86177, "longitude": 25.63117, "city": "Nyrkiv", "images": []}, {"id": 438393, "min_date": "2019-10-30T10:06:00Z", "max_date": "2019-10-30T10:06:00Z", "count_points": 4, "latitude": 49.62776, "longitude": 35.70961, "city": "Nova Vodolaha", "images": []}, {"id": 438394, "min_date": "2019-10-30T10:06:00Z", "max_date": "2019-10-30T10:06:00Z", "count_points": 1, "latitude": 48.08313, "longitude": 30.44911, "city": "Kryve Ozero", "images": []}, {"id": 438395, "min_date": "2019-10-30T10:06:00Z", "max_date": "2019-10-30T10:06:00Z", "count_points": 1, "latitude": 49.73822, "longitude": 28.37624, "city": "Ulaniv", "images": []}, {"id": 438396, "min_date": "2019-10-30T10:06:00Z", "max_date": "2019-10-30T11:15:00Z", "count_points": 13, "latitude": 47.36117, "longitude": 32.22111, "city": "Bashtanka", "images": []}, {"id": 438397, "min_date": "2019-10-30T10:06:00Z", "max_date": "2019-10-30T09:31:00Z", "count_points": 9, "latitude": 46.68893, "longitude": 31.80735, "city": "Parutyne", "images": [{"image_url": "438397.jpg", "timestamp": "2019-10-30T09:31:00Z"}]}, {"id": 438398, "min_date": "2019-10-30T10:06:00Z", "max_date": "2019-11-01T09:19:00Z", "count_points": 7, "latitude": 48.34292, "longitude": 29.01055, "city": "Tsybulevka", "images": [{"image_url": "438398.jpg", "timestamp": "2019-11-01T09:19:00Z"}]}, {"id": 438399, "min_date": "2019-10-30T10:06:00Z", "max_date": "2019-10-30T11:15:00Z", "count_points": 4, "latitude": 48.3543, "longitude": 28.83538, "city": "Kryzhopil\u2019", "images": []}, {"id": 438400, "min_date": "2019-10-30T10:06:00Z", "max_date": "2019-10-30T10:06:00Z", "count_points": 1, "latitude": 50.36767, "longitude": 37.29423, "city": "Prykolotne", "images": []}, {"id": 438401, "min_date": "2019-10-30T10:06:00Z", "max_date": "2019-10-30T10:06:00Z", "count_points": 1, "latitude": 48.7509, "longitude": 35.91038, "city": "Yur\u201dyivka", "images": []}, {"id": 438402, "min_date": "2019-10-30T10:06:00Z", "max_date": "2019-10-30T10:06:00Z", "count_points": 1, "latitude": 49.75687, "longitude": 36.72504, "city": "Malynivka", "images": []}, {"id": 438403, "min_date": "2019-10-30T10:06:00Z", "max_date": "2019-10-30T10:06:00Z", "count_points": 2, "latitude": 49.30864, "longitude": 36.4686, "city": "Krasnopavlivka", "images": []}, {"id": 438404, "min_date": "2019-10-30T10:06:00Z", "max_date": "2019-10-30T10:06:00Z", "count_points": 1, "latitude": 48.5322, "longitude": 38.80508, "city": "Alchevs\u2019k", "images": []}, {"id": 438405, "min_date": "2019-10-30T10:06:00Z", "max_date": "2019-10-30T10:06:00Z", "count_points": 1, "latitude": 48.00314, "longitude": 37.10072, "city": "Kurakhovo", "images": []}, {"id": 438406, "min_date": "2019-10-30T10:06:00Z", "max_date": "2019-10-30T10:06:00Z", "count_points": 3, "latitude": 47.86005, "longitude": 35.76552, "city": "Novomykolayivka", "images": []}, {"id": 438407, "min_date": "2019-10-30T10:06:00Z", "max_date": "2019-10-30T10:06:00Z", "count_points": 1, "latitude": 48.1164, "longitude": 37.09946, "city": "Krasnoarmiys\u2019k", "images": []}, {"id": 438408, "min_date": "2019-10-30T10:06:00Z", "max_date": "2019-10-30T10:06:00Z", "count_points": 1, "latitude": 48.46919, "longitude": 36.38344, "city": "Petropavlivka", "images": []}, {"id": 438409, "min_date": "2019-10-30T10:06:00Z", "max_date": "2019-10-30T10:06:00Z", "count_points": 1, "latitude": 48.42088, "longitude": 37.03026, "city": "Dobropillya", "images": []}, {"id": 438410, "min_date": "2019-10-30T10:06:00Z", "max_date": "2019-10-30T10:06:00Z", "count_points": 1, "latitude": 50.73165, "longitude": 29.87526, "city": "Borodianka", "images": []}, {"id": 438411, "min_date": "2019-10-30T10:06:00Z", "max_date": "2019-10-30T10:06:00Z", "count_points": 1, "latitude": 47.89658, "longitude": 37.3045, "city": "Kurakhovo", "images": []}, {"id": 438412, "min_date": "2019-10-30T10:06:00Z", "max_date": "2019-10-30T10:06:00Z", "count_points": 1, "latitude": 49.37358, "longitude": 35.50238, "city": "Verbivka", "images": []}, {"id": 438413, "min_date": "2019-10-30T10:06:00Z", "max_date": "2019-10-30T10:06:00Z", "count_points": 2, "latitude": 49.5836, "longitude": 34.81412, "city": "Mashivka", "images": []}, {"id": 438414, "min_date": "2019-10-30T10:06:00Z", "max_date": "2019-10-30T09:38:00Z", "count_points": 20, "latitude": 49.62343, "longitude": 34.9612, "city": "Mashivka", "images": []}, {"id": 438415, "min_date": "2019-10-30T10:06:00Z", "max_date": "2019-10-30T10:06:00Z", "count_points": 2, "latitude": 49.36808, "longitude": 33.63785, "city": "Kozel\u2019shchyna", "images": []}, {"id": 438416, "min_date": "2019-10-30T10:06:00Z", "max_date": "2019-10-30T09:31:00Z", "count_points": 6, "latitude": 48.44217, "longitude": 29.73403, "city": "Hayvoron", "images": [{"image_url": "438416.jpg", "timestamp": "2019-10-30T09:31:00Z"}]}, {"id": 438417, "min_date": "2019-10-30T10:06:00Z", "max_date": "2019-10-30T10:06:00Z", "count_points": 1, "latitude": 48.4688, "longitude": 29.84787, "city": "Hayvoron", "images": []}, {"id": 438418, "min_date": "2019-10-30T10:06:00Z", "max_date": "2019-10-30T10:06:00Z", "count_points": 1, "latitude": 48.42303, "longitude": 29.83269, "city": "Hayvoron", "images": []}, {"id": 438419, "min_date": "2019-10-30T10:06:00Z", "max_date": "2019-10-30T10:06:00Z", "count_points": 4, "latitude": 50.85177, "longitude": 32.12991, "city": "Kruty", "images": []}, {"id": 438420, "min_date": "2019-10-30T10:06:00Z", "max_date": "2019-11-01T11:06:00Z", "count_points": 3, "latitude": 48.70317, "longitude": 27.20608, "city": "Nova Ushytsya", "images": []}, {"id": 438421, "min_date": "2019-10-30T10:06:00Z", "max_date": "2019-10-30T09:30:00Z", "count_points": 3, "latitude": 48.68942, "longitude": 34.88477, "city": "Spas\u2019ke", "images": []}, {"id": 438422, "min_date": "2019-10-30T10:06:00Z", "max_date": "2019-10-30T11:15:00Z", "count_points": 9, "latitude": 48.33894, "longitude": 30.18137, "city": "Blahovishchens\u2019ke", "images": [{"image_url": "438422.jpg", "timestamp": "2019-10-30T11:15:00Z"}]}, {"id": 438423, "min_date": "2019-10-30T10:06:00Z", "max_date": "2019-10-30T10:06:00Z", "count_points": 1, "latitude": 48.41514, "longitude": 30.20877, "city": "Blahovishchens\u2019ke", "images": []}, {"id": 438424, "min_date": "2019-10-30T10:06:00Z", "max_date": "2019-10-30T10:06:00Z", "count_points": 2, "latitude": 48.21085, "longitude": 31.10222, "city": "Lysa Hora", "images": []}, {"id": 438425, "min_date": "2019-10-30T10:06:00Z", "max_date": "2019-10-30T10:06:00Z", "count_points": 1, "latitude": 48.39229, "longitude": 29.42098, "city": "Bershad", "images": []}, {"id": 438426, "min_date": "2019-10-30T10:06:00Z", "max_date": "2019-10-29T10:33:00Z", "count_points": 2, "latitude": 49.20543, "longitude": 34.17554, "city": "Kobelyaky", "images": []}, {"id": 438427, "min_date": "2019-10-30T10:06:00Z", "max_date": "2019-10-30T10:06:00Z", "count_points": 1, "latitude": 48.567, "longitude": 35.59394, "city": "Melioratyvne", "images": []}, {"id": 438428, "min_date": "2019-10-30T10:06:00Z", "max_date": "2019-10-30T10:06:00Z", "count_points": 1, "latitude": 48.90435, "longitude": 35.11142, "city": "Hubynykha", "images": []}, {"id": 438429, "min_date": "2019-10-30T10:06:00Z", "max_date": "2019-10-30T09:31:00Z", "count_points": 11, "latitude": 48.50346, "longitude": 29.87758, "city": "Hayvoron", "images": [{"image_url": "438429.jpg", "timestamp": "2019-10-30T09:31:00Z"}]}, {"id": 438430, "min_date": "2019-10-30T10:06:00Z", "max_date": "2019-10-30T11:15:00Z", "count_points": 2, "latitude": 48.0895, "longitude": 32.97289, "city": "Dolynska", "images": []}, {"id": 438431, "min_date": "2019-10-30T10:06:00Z", "max_date": "2019-10-30T10:06:00Z", "count_points": 8, "latitude": 48.25034, "longitude": 35.14452, "city": "Kaydaki", "images": []}, {"id": 438432, "min_date": "2019-10-30T10:06:00Z", "max_date": "2019-10-30T10:06:00Z", "count_points": 1, "latitude": 49.44286, "longitude": 33.50652, "city": "Hlobyne", "images": []}, {"id": 438433, "min_date": "2019-10-30T10:06:00Z", "max_date": "2019-10-30T09:30:00Z", "count_points": 5, "latitude": 49.41356, "longitude": 33.50385, "city": "Hlobyne", "images": []}, {"id": 438434, "min_date": "2019-10-30T10:06:00Z", "max_date": "2019-10-30T10:06:00Z", "count_points": 1, "latitude": 48.47477, "longitude": 30.42054, "city": "Holovanivs\u2019k", "images": []}, {"id": 438435, "min_date": "2019-10-30T10:06:00Z", "max_date": "2019-10-31T11:30:00Z", "count_points": 4, "latitude": 49.60318, "longitude": 34.20432, "city": "Reshetylivka", "images": []}, {"id": 438436, "min_date": "2019-10-30T10:06:00Z", "max_date": "2019-10-30T10:06:00Z", "count_points": 1, "latitude": 48.36579, "longitude": 34.46982, "city": "Krynychky", "images": []}, {"id": 438437, "min_date": "2019-10-30T10:06:00Z", "max_date": "2019-10-30T10:06:00Z", "count_points": 4, "latitude": 48.50417, "longitude": 31.49109, "city": "Zlynka", "images": []}, {"id": 438438, "min_date": "2019-10-30T10:06:00Z", "max_date": "2019-10-30T11:48:00Z", "count_points": 4, "latitude": 47.79586, "longitude": 33.15404, "city": "Shyroke", "images": []}, {"id": 438439, "min_date": "2019-10-30T10:06:00Z", "max_date": "2019-10-30T10:06:00Z", "count_points": 1, "latitude": 47.99647, "longitude": 29.38307, "city": "Slobidka", "images": []}, {"id": 438440, "min_date": "2019-10-30T10:06:00Z", "max_date": "2019-10-30T10:06:00Z", "count_points": 6, "latitude": 48.53892, "longitude": 31.34496, "city": "Zlynka", "images": []}, {"id": 438441, "min_date": "2019-10-30T10:06:00Z", "max_date": "2019-10-30T11:15:00Z", "count_points": 10, "latitude": 48.54042, "longitude": 30.30953, "city": "Perehonivka", "images": [{"image_url": "438441.jpg", "timestamp": "2019-10-30T11:15:00Z"}]}, {"id": 438442, "min_date": "2019-10-30T10:06:00Z", "max_date": "2019-10-30T11:15:00Z", "count_points": 15, "latitude": 48.77731, "longitude": 32.9193, "city": "Pantayivka", "images": [{"image_url": "438442.jpg", "timestamp": "2019-10-30T11:15:00Z"}]}, {"id": 438443, "min_date": "2019-10-30T10:06:00Z", "max_date": "2019-10-30T10:06:00Z", "count_points": 1, "latitude": 48.72433, "longitude": 32.02376, "city": "Kropyvnytskyi", "images": []}, {"id": 438444, "min_date": "2019-10-30T10:06:00Z", "max_date": "2019-10-30T11:15:00Z", "count_points": 8, "latitude": 48.67247, "longitude": 32.2777, "city": "Kropyvnytskyi", "images": []}, {"id": 438445, "min_date": "2019-10-30T10:06:00Z", "max_date": "2019-10-30T09:31:00Z", "count_points": 5, "latitude": 49.04465, "longitude": 31.27169, "city": "Shpola", "images": []}, {"id": 438446, "min_date": "2019-10-30T10:06:00Z", "max_date": "2019-10-30T10:06:00Z", "count_points": 2, "latitude": 48.93388, "longitude": 36.66448, "city": "Blyznyuky", "images": []}, {"id": 438447, "min_date": "2019-10-30T10:06:00Z", "max_date": "2019-10-30T10:06:00Z", "count_points": 1, "latitude": 50.28652, "longitude": 32.17129, "city": "Chernyakhivka", "images": []}, {"id": 438448, "min_date": "2019-10-30T10:06:00Z", "max_date": "2019-10-30T10:06:00Z", "count_points": 2, "latitude": 49.17205, "longitude": 29.44436, "city": "Orativ", "images": []}, {"id": 438449, "min_date": "2019-10-30T10:06:00Z", "max_date": "2019-10-30T10:06:00Z", "count_points": 5, "latitude": 48.55178, "longitude": 29.81834, "city": "Teplyk", "images": [{"image_url": "438449.jpg", "timestamp": "2019-10-30T10:06:00Z"}]}, {"id": 438450, "min_date": "2019-10-30T10:06:00Z", "max_date": "2019-11-02T08:23:00Z", "count_points": 18, "latitude": 49.07372, "longitude": 30.33804, "city": "Buky", "images": [{"image_url": "438450.jpg", "timestamp": "2019-11-02T08:23:00Z"}]}, {"id": 438451, "min_date": "2019-10-30T10:06:00Z", "max_date": "2019-10-30T10:06:00Z", "count_points": 3, "latitude": 49.05103, "longitude": 30.93097, "city": "Zvenihorodka", "images": []}, {"id": 438452, "min_date": "2019-10-30T10:06:00Z", "max_date": "2019-10-30T10:06:00Z", "count_points": 1, "latitude": 48.81295, "longitude": 32.83719, "city": "Dmytrivka", "images": []}, {"id": 438453, "min_date": "2019-10-30T10:06:00Z", "max_date": "2019-10-31T11:30:00Z", "count_points": 4, "latitude": 48.63778, "longitude": 29.56476, "city": "Teplyk", "images": [{"image_url": "438453.jpg", "timestamp": "2019-10-31T11:30:00Z"}]}, {"id": 438454, "min_date": "2019-10-30T10:06:00Z", "max_date": "2019-11-01T11:03:00Z", "count_points": 9, "latitude": 48.63781, "longitude": 30.92918, "city": "Novoarkhanhel\u2019s\u2019k", "images": [{"image_url": "438454.jpg", "timestamp": "2019-11-01T11:03:00Z"}]}, {"id": 438455, "min_date": "2019-10-30T10:06:00Z", "max_date": "2019-10-31T10:21:00Z", "count_points": 11, "latitude": 48.9051, "longitude": 29.77965, "city": "Nove-Misto", "images": []}, {"id": 438456, "min_date": "2019-10-30T10:06:00Z", "max_date": "2019-10-30T10:06:00Z", "count_points": 1, "latitude": 48.62985, "longitude": 32.00692, "city": "Kropyvnytskyi", "images": []}, {"id": 438457, "min_date": "2019-10-30T10:06:00Z", "max_date": "2019-10-30T11:15:00Z", "count_points": 4, "latitude": 48.88187, "longitude": 37.39332, "city": "Studenok", "images": []}, {"id": 438458, "min_date": "2019-10-30T10:06:00Z", "max_date": "2019-10-31T10:20:00Z", "count_points": 6, "latitude": 48.76244, "longitude": 30.82302, "city": "Glybochek", "images": []}, {"id": 438459, "min_date": "2019-10-30T10:06:00Z", "max_date": "2019-10-30T10:06:00Z", "count_points": 5, "latitude": 48.78818, "longitude": 36.51804, "city": "Blyznyuky", "images": []}, {"id": 438460, "min_date": "2019-10-30T10:06:00Z", "max_date": "2019-11-02T10:48:00Z", "count_points": 8, "latitude": 48.76766, "longitude": 31.44572, "city": "Novomyrhorod", "images": []}, {"id": 438461, "min_date": "2019-10-30T10:06:00Z", "max_date": "2019-10-30T11:16:00Z", "count_points": 3, "latitude": 48.85151, "longitude": 31.42732, "city": "Lebedyn", "images": []}, {"id": 438462, "min_date": "2019-10-30T10:06:00Z", "max_date": "2019-10-30T10:06:00Z", "count_points": 1, "latitude": 48.73603, "longitude": 30.36184, "city": "Babanka", "images": []}, {"id": 438463, "min_date": "2019-10-30T10:06:00Z", "max_date": "2019-10-30T10:06:00Z", "count_points": 4, "latitude": 48.77861, "longitude": 30.45035, "city": "Babanka", "images": [{"image_url": "438463.jpg", "timestamp": "2019-10-30T10:06:00Z"}]}, {"id": 438464, "min_date": "2019-10-30T10:06:00Z", "max_date": "2019-10-30T10:06:00Z", "count_points": 1, "latitude": 48.80664, "longitude": 30.3926, "city": "Babanka", "images": []}, {"id": 438465, "min_date": "2019-10-30T10:06:00Z", "max_date": "2019-10-30T11:16:00Z", "count_points": 3, "latitude": 48.86912, "longitude": 29.59839, "city": "Haisyn", "images": []}, {"id": 438466, "min_date": "2019-10-30T10:06:00Z", "max_date": "2019-10-30T10:06:00Z", "count_points": 1, "latitude": 49.97177, "longitude": 32.82084, "city": "Lubny", "images": []}, {"id": 438467, "min_date": "2019-10-30T10:06:00Z", "max_date": "2019-10-30T11:48:00Z", "count_points": 4, "latitude": 49.34853, "longitude": 30.4982, "city": "Kalynove", "images": []}, {"id": 438468, "min_date": "2019-10-30T10:06:00Z", "max_date": "2019-11-02T10:48:00Z", "count_points": 3, "latitude": 48.53394, "longitude": 31.5961, "city": "Zlynka", "images": []}, {"id": 438469, "min_date": "2019-10-30T10:06:00Z", "max_date": "2019-10-30T10:06:00Z", "count_points": 1, "latitude": 48.76854, "longitude": 36.98787, "city": "Oleksandrivka", "images": []}, {"id": 438470, "min_date": "2019-10-30T10:06:00Z", "max_date": "2019-10-30T10:06:00Z", "count_points": 3, "latitude": 48.56706, "longitude": 31.46167, "city": "Zlynka", "images": []}, {"id": 438471, "min_date": "2019-10-30T10:06:00Z", "max_date": "2019-10-30T10:06:00Z", "count_points": 3, "latitude": 49.29929, "longitude": 29.03737, "city": "Lypovets", "images": []}, {"id": 438472, "min_date": "2019-10-30T10:06:00Z", "max_date": "2019-10-30T11:48:00Z", "count_points": 3, "latitude": 48.88653, "longitude": 31.79222, "city": "Kapitanivka", "images": []}, {"id": 438473, "min_date": "2019-10-30T10:06:00Z", "max_date": "2019-10-30T10:06:00Z", "count_points": 2, "latitude": 49.04179, "longitude": 32.7613, "city": "Chyhyryn", "images": []}, {"id": 438474, "min_date": "2019-10-30T10:06:00Z", "max_date": "2019-10-30T09:31:00Z", "count_points": 2, "latitude": 48.90696, "longitude": 31.26746, "city": "Shpola", "images": []}, {"id": 438475, "min_date": "2019-10-30T10:06:00Z", "max_date": "2019-10-30T10:06:00Z", "count_points": 1, "latitude": 48.56558, "longitude": 35.88054, "city": "Pavlohrad", "images": []}, {"id": 438476, "min_date": "2019-10-30T10:06:00Z", "max_date": "2019-10-30T10:06:00Z", "count_points": 1, "latitude": 49.28104, "longitude": 28.73208, "city": "Turbiv", "images": []}, {"id": 438477, "min_date": "2019-10-30T10:06:00Z", "max_date": "2019-10-30T10:06:00Z", "count_points": 1, "latitude": 49.27545, "longitude": 28.78626, "city": "Turbiv", "images": []}, {"id": 438478, "min_date": "2019-10-30T10:06:00Z", "max_date": "2019-10-30T09:31:00Z", "count_points": 6, "latitude": 48.63915, "longitude": 31.04591, "city": "Tyshkivka", "images": []}, {"id": 438479, "min_date": "2019-10-30T10:06:00Z", "max_date": "2019-10-30T09:31:00Z", "count_points": 2, "latitude": 48.84851, "longitude": 30.01436, "city": "Verkhnyachka", "images": []}, {"id": 438480, "min_date": "2019-10-30T10:06:00Z", "max_date": "2019-10-30T10:06:00Z", "count_points": 3, "latitude": 49.18035, "longitude": 32.3553, "city": "Oleksandrivka", "images": []}, {"id": 438481, "min_date": "2019-10-30T10:06:00Z", "max_date": "2019-10-30T10:06:00Z", "count_points": 1, "latitude": 49.04412, "longitude": 29.03092, "city": "Lypovets", "images": []}, {"id": 438482, "min_date": "2019-10-30T10:06:00Z", "max_date": "2019-10-30T11:15:00Z", "count_points": 4, "latitude": 49.08089, "longitude": 36.78693, "city": "Petrivs\u2019ke", "images": []}, {"id": 438483, "min_date": "2019-10-30T10:06:00Z", "max_date": "2019-10-30T10:06:00Z", "count_points": 2, "latitude": 49.45045, "longitude": 37.28055, "city": "Savyntsi", "images": []}, {"id": 438484, "min_date": "2019-10-30T10:06:00Z", "max_date": "2019-10-30T11:15:00Z", "count_points": 3, "latitude": 48.55437, "longitude": 31.21989, "city": "Dobrovelychkivka", "images": []}, {"id": 438485, "min_date": "2019-10-30T10:06:00Z", "max_date": "2019-10-30T11:48:00Z", "count_points": 3, "latitude": 50.10871, "longitude": 31.72068, "city": "Yahotyn", "images": []}, {"id": 438486, "min_date": "2019-10-30T10:06:00Z", "max_date": "2019-11-01T11:06:00Z", "count_points": 2, "latitude": 48.81934, "longitude": 31.07722, "city": "Katerynopil", "images": []}, {"id": 438487, "min_date": "2019-10-30T10:06:00Z", "max_date": "2019-10-30T09:30:00Z", "count_points": 12, "latitude": 49.73572, "longitude": 30.66688, "city": "Karapyshi", "images": []}, {"id": 438488, "min_date": "2019-10-30T10:06:00Z", "max_date": "2019-10-30T10:06:00Z", "count_points": 1, "latitude": 49.02966, "longitude": 36.29002, "city": "Panyutyne", "images": []}, {"id": 438489, "min_date": "2019-10-30T10:06:00Z", "max_date": "2019-10-30T10:06:00Z", "count_points": 6, "latitude": 48.59575, "longitude": 30.33171, "city": "Babanka", "images": []}, {"id": 438490, "min_date": "2019-10-30T10:06:00Z", "max_date": "2019-10-30T10:06:00Z", "count_points": 3, "latitude": 48.67597, "longitude": 30.53228, "city": "Babanka", "images": []}, {"id": 438491, "min_date": "2019-10-30T10:06:00Z", "max_date": "2019-10-31T10:21:00Z", "count_points": 9, "latitude": 49.51166, "longitude": 30.40235, "city": "Tarashcha", "images": []}, {"id": 438492, "min_date": "2019-10-30T10:06:00Z", "max_date": "2019-10-30T10:06:00Z", "count_points": 1, "latitude": 48.55085, "longitude": 36.90199, "city": "Novodonets\u2019ke", "images": []}, {"id": 438493, "min_date": "2019-10-30T10:06:00Z", "max_date": "2019-10-30T09:31:00Z", "count_points": 5, "latitude": 48.89313, "longitude": 31.53401, "city": "Lebedyn", "images": []}, {"id": 438494, "min_date": "2019-10-30T10:06:00Z", "max_date": "2019-10-30T10:06:00Z", "count_points": 1, "latitude": 48.89464, "longitude": 31.6841, "city": "Kapitanivka", "images": []}, {"id": 438495, "min_date": "2019-10-30T10:06:00Z", "max_date": "2019-11-01T11:03:00Z", "count_points": 20, "latitude": 48.63396, "longitude": 31.84144, "city": "Mala Vyska", "images": []}, {"id": 438496, "min_date": "2019-10-30T10:06:00Z", "max_date": "2019-10-30T10:06:00Z", "count_points": 3, "latitude": 48.7833, "longitude": 31.53656, "city": "Novomyrhorod", "images": []}, {"id": 438497, "min_date": "2019-10-30T10:06:00Z", "max_date": "2019-10-31T11:30:00Z", "count_points": 6, "latitude": 48.63529, "longitude": 29.98031, "city": "Khrystynivka", "images": [{"image_url": "438497.jpg", "timestamp": "2019-10-31T11:30:00Z"}]}, {"id": 438498, "min_date": "2019-10-30T10:06:00Z", "max_date": "2019-10-30T11:16:00Z", "count_points": 3, "latitude": 48.80641, "longitude": 30.03073, "city": "Verkhnyachka", "images": []}, {"id": 438499, "min_date": "2019-10-30T10:06:00Z", "max_date": "2019-10-30T11:48:00Z", "count_points": 4, "latitude": 48.56184, "longitude": 29.60761, "city": "Viytivka", "images": [{"image_url": "438499.jpg", "timestamp": "2019-10-30T11:48:00Z"}]}, {"id": 438500, "min_date": "2019-10-30T10:06:00Z", "max_date": "2019-10-30T10:06:00Z", "count_points": 1, "latitude": 48.71786, "longitude": 30.70305, "city": "Novoarkhanhel\u2019s\u2019k", "images": []}, {"id": 438501, "min_date": "2019-10-30T10:06:00Z", "max_date": "2019-10-30T10:06:00Z", "count_points": 1, "latitude": 48.87764, "longitude": 30.15594, "city": "Verkhnyachka", "images": []}, {"id": 438502, "min_date": "2019-10-30T10:06:00Z", "max_date": "2019-10-30T09:31:00Z", "count_points": 3, "latitude": 48.60206, "longitude": 30.2753, "city": "Uman\u2019", "images": []}, {"id": 438503, "min_date": "2019-10-30T10:06:00Z", "max_date": "2019-10-30T10:06:00Z", "count_points": 1, "latitude": 49.32072, "longitude": 33.85101, "city": "Lutovynivka", "images": []}, {"id": 438504, "min_date": "2019-10-30T10:06:00Z", "max_date": "2019-10-30T09:30:00Z", "count_points": 6, "latitude": 49.4103, "longitude": 34.62657, "city": "Poltava", "images": []}, {"id": 438505, "min_date": "2019-10-30T10:06:00Z", "max_date": "2019-11-01T11:03:00Z", "count_points": 11, "latitude": 48.93873, "longitude": 33.45734, "city": "Onufriyivka", "images": [{"image_url": "438505.jpg", "timestamp": "2019-11-01T11:03:00Z"}]}, {"id": 438506, "min_date": "2019-10-30T10:06:00Z", "max_date": "2019-10-30T10:06:00Z", "count_points": 1, "latitude": 47.90483, "longitude": 37.89408, "city": "Makiyivka", "images": []}, {"id": 438507, "min_date": "2019-10-30T10:06:00Z", "max_date": "2019-10-30T10:06:00Z", "count_points": 1, "latitude": 48.98402, "longitude": 33.87478, "city": "Kozel\u2019shchyna", "images": []}, {"id": 438508, "min_date": "2019-10-30T10:06:00Z", "max_date": "2019-10-30T10:06:00Z", "count_points": 2, "latitude": 48.92722, "longitude": 37.95522, "city": "Sivers\u2019k", "images": []}, {"id": 438509, "min_date": "2019-10-30T10:06:00Z", "max_date": "2019-10-30T10:06:00Z", "count_points": 1, "latitude": 50.03057, "longitude": 33.59333, "city": "Myrhorod", "images": []}, {"id": 438510, "min_date": "2019-10-30T10:06:00Z", "max_date": "2019-10-30T10:06:00Z", "count_points": 1, "latitude": 49.15521, "longitude": 34.58516, "city": "Hupalivka", "images": []}, {"id": 438511, "min_date": "2019-10-30T10:06:00Z", "max_date": "2019-10-31T10:20:00Z", "count_points": 3, "latitude": 48.69718, "longitude": 33.9324, "city": "Lykhivka", "images": []}, {"id": 438512, "min_date": "2019-10-30T10:06:00Z", "max_date": "2019-10-30T10:06:00Z", "count_points": 2, "latitude": 49.0969, "longitude": 37.81141, "city": "Krasnyy Lyman", "images": []}, {"id": 438513, "min_date": "2019-10-30T10:06:00Z", "max_date": "2019-10-30T10:06:00Z", "count_points": 1, "latitude": 51.12221, "longitude": 34.39684, "city": "Bilopillya", "images": []}, {"id": 438514, "min_date": "2019-10-30T10:06:00Z", "max_date": "2019-10-31T08:35:00Z", "count_points": 2, "latitude": 51.6653, "longitude": 31.8222, "city": "Berezna", "images": []}, {"id": 438515, "min_date": "2019-10-30T10:06:00Z", "max_date": "2019-10-30T10:06:00Z", "count_points": 1, "latitude": 49.13003, "longitude": 34.82235, "city": "Hupalivka", "images": []}, {"id": 438516, "min_date": "2019-10-30T10:06:00Z", "max_date": "2019-10-30T10:06:00Z", "count_points": 1, "latitude": 48.60066, "longitude": 34.28012, "city": "Verkhn\u2019odniprovs\u2019k", "images": []}, {"id": 438517, "min_date": "2019-10-30T10:06:00Z", "max_date": "2019-10-30T10:06:00Z", "count_points": 1, "latitude": 51.71149, "longitude": 32.33585, "city": "Koryukivka", "images": []}, {"id": 438518, "min_date": "2019-10-30T10:06:00Z", "max_date": "2019-10-30T09:30:00Z", "count_points": 3, "latitude": 49.69088, "longitude": 34.27692, "city": "Reshetylivka", "images": []}, {"id": 438519, "min_date": "2019-10-30T10:06:00Z", "max_date": "2019-10-30T10:06:00Z", "count_points": 1, "latitude": 51.12028, "longitude": 33.95802, "city": "Terny", "images": []}, {"id": 438520, "min_date": "2019-10-30T10:06:00Z", "max_date": "2019-10-30T10:06:00Z", "count_points": 1, "latitude": 49.06701, "longitude": 35.22748, "city": "Zachepylivka", "images": []}, {"id": 438521, "min_date": "2019-10-30T10:06:00Z", "max_date": "2019-10-30T10:06:00Z", "count_points": 1, "latitude": 51.44539, "longitude": 32.3612, "city": "Sosnytsya", "images": []}, {"id": 438522, "min_date": "2019-10-30T10:06:00Z", "max_date": "2019-11-01T11:04:00Z", "count_points": 19, "latitude": 48.98298, "longitude": 25.65287, "city": "Yahil\u2019nytsya", "images": []}, {"id": 438523, "min_date": "2019-10-30T10:06:00Z", "max_date": "2019-10-30T10:06:00Z", "count_points": 1, "latitude": 48.79888, "longitude": 25.71629, "city": "Tovste", "images": []}, {"id": 438524, "min_date": "2019-10-30T10:06:00Z", "max_date": "2019-10-30T10:06:00Z", "count_points": 3, "latitude": 48.17957, "longitude": 34.00655, "city": "Sofiyivka", "images": []}, {"id": 438525, "min_date": "2019-10-30T10:06:00Z", "max_date": "2019-10-30T10:06:00Z", "count_points": 1, "latitude": 48.29133, "longitude": 33.64546, "city": "Piatykhatky", "images": []}, {"id": 438526, "min_date": "2019-10-30T10:06:00Z", "max_date": "2019-10-30T10:06:00Z", "count_points": 1, "latitude": 48.40614, "longitude": 34.32473, "city": "Krynychky", "images": []}, {"id": 438527, "min_date": "2019-10-30T10:06:00Z", "max_date": "2019-10-30T10:06:00Z", "count_points": 6, "latitude": 48.18488, "longitude": 34.61942, "city": "Novopokrovka", "images": []}, {"id": 438528, "min_date": "2019-10-30T10:06:00Z", "max_date": "2019-10-30T10:06:00Z", "count_points": 1, "latitude": 48.15461, "longitude": 34.73833, "city": "Surs\u2019ko-Mykhaylivka", "images": []}, {"id": 438529, "min_date": "2019-10-30T10:06:00Z", "max_date": "2019-10-30T10:06:00Z", "count_points": 1, "latitude": 48.43692, "longitude": 34.34425, "city": "Novomykolayivka", "images": []}, {"id": 438530, "min_date": "2019-10-30T10:06:00Z", "max_date": "2019-10-30T09:31:00Z", "count_points": 4, "latitude": 49.39598, "longitude": 26.48759, "city": "Narkevychi", "images": []}, {"id": 438531, "min_date": "2019-10-30T10:06:00Z", "max_date": "2019-10-30T10:06:00Z", "count_points": 1, "latitude": 49.33721, "longitude": 34.66893, "city": "Mashivka", "images": []}, {"id": 438532, "min_date": "2019-10-30T10:06:00Z", "max_date": "2019-10-30T10:06:00Z", "count_points": 1, "latitude": 49.0244, "longitude": 34.92875, "city": "Mahdalynivka", "images": []}, {"id": 438533, "min_date": "2019-10-30T10:06:00Z", "max_date": "2019-10-30T10:06:00Z", "count_points": 1, "latitude": 48.12424, "longitude": 30.13162, "city": "Savran", "images": []}, {"id": 438534, "min_date": "2019-10-30T10:06:00Z", "max_date": "2019-10-30T10:06:00Z", "count_points": 1, "latitude": 49.23266, "longitude": 33.34124, "city": "Hlobyne", "images": []}, {"id": 438535, "min_date": "2019-10-30T10:06:00Z", "max_date": "2019-10-29T10:33:00Z", "count_points": 3, "latitude": 48.99537, "longitude": 33.98989, "city": "Kobelyaky", "images": []}, {"id": 438536, "min_date": "2019-10-30T10:06:00Z", "max_date": "2019-10-30T10:06:00Z", "count_points": 2, "latitude": 49.17995, "longitude": 26.90064, "city": "Yarmolyntsi", "images": []}, {"id": 438537, "min_date": "2019-10-30T10:06:00Z", "max_date": "2019-10-30T10:06:00Z", "count_points": 1, "latitude": 48.92016, "longitude": 34.03555, "city": "Lykhivka", "images": []}, {"id": 438538, "min_date": "2019-10-30T10:06:00Z", "max_date": "2019-10-30T10:06:00Z", "count_points": 1, "latitude": 49.32766, "longitude": 38.01938, "city": "Svatove", "images": []}, {"id": 438539, "min_date": "2019-10-30T10:06:00Z", "max_date": "2019-10-30T10:06:00Z", "count_points": 1, "latitude": 49.64384, "longitude": 37.60799, "city": "Kupjansk", "images": []}, {"id": 438540, "min_date": "2019-10-30T10:06:00Z", "max_date": "2019-10-30T10:06:00Z", "count_points": 1, "latitude": 50.54798, "longitude": 34.79064, "city": "Trostyanets\u2019", "images": []}, {"id": 438541, "min_date": "2019-10-30T10:06:00Z", "max_date": "2019-10-30T10:06:00Z", "count_points": 1, "latitude": 49.8612, "longitude": 38.77912, "city": "Lozno-Oleksandrivka", "images": []}, {"id": 438542, "min_date": "2019-10-30T10:06:00Z", "max_date": "2019-10-30T10:06:00Z", "count_points": 2, "latitude": 48.27497, "longitude": 32.67445, "city": "Novhorodka", "images": []}, {"id": 438543, "min_date": "2019-10-30T10:06:00Z", "max_date": "2019-10-30T10:06:00Z", "count_points": 2, "latitude": 48.37979, "longitude": 31.97771, "city": "Rivne", "images": []}, {"id": 438544, "min_date": "2019-10-30T10:06:00Z", "max_date": "2019-10-30T10:06:00Z", "count_points": 2, "latitude": 48.45657, "longitude": 31.62314, "city": "Zlynka", "images": []}, {"id": 438545, "min_date": "2019-10-30T10:06:00Z", "max_date": "2019-10-30T11:15:00Z", "count_points": 7, "latitude": 48.43168, "longitude": 31.04573, "city": "Lypnyazhka", "images": []}, {"id": 438546, "min_date": "2019-10-30T10:06:00Z", "max_date": "2019-10-30T11:15:00Z", "count_points": 3, "latitude": 48.17276, "longitude": 29.45486, "city": "Chechelnyk", "images": []}, {"id": 438547, "min_date": "2019-10-30T10:06:00Z", "max_date": "2019-10-30T10:06:00Z", "count_points": 1, "latitude": 48.50284, "longitude": 29.37197, "city": "Trostyanets\u2019", "images": []}, {"id": 438548, "min_date": "2019-10-30T10:06:00Z", "max_date": "2019-11-02T10:48:00Z", "count_points": 2, "latitude": 48.473, "longitude": 31.5849, "city": "Zlynka", "images": []}, {"id": 438549, "min_date": "2019-10-30T10:06:00Z", "max_date": "2019-10-30T10:06:00Z", "count_points": 1, "latitude": 47.75183, "longitude": 31.79052, "city": "Yelanets\u2019", "images": []}, {"id": 438550, "min_date": "2019-10-30T10:06:00Z", "max_date": "2019-10-30T10:06:00Z", "count_points": 2, "latitude": 48.41048, "longitude": 30.85566, "city": "Tyshkivka", "images": []}, {"id": 438551, "min_date": "2019-10-30T10:06:00Z", "max_date": "2019-10-30T10:06:00Z", "count_points": 1, "latitude": 47.99163, "longitude": 29.95837, "city": "Savran", "images": []}, {"id": 438552, "min_date": "2019-10-30T10:06:00Z", "max_date": "2019-10-30T10:06:00Z", "count_points": 1, "latitude": 48.39656, "longitude": 33.13721, "city": "Novyy Starodub", "images": []}, {"id": 438553, "min_date": "2019-10-30T10:06:00Z", "max_date": "2019-10-30T09:31:00Z", "count_points": 6, "latitude": 48.44053, "longitude": 29.89255, "city": "Hayvoron", "images": [{"image_url": "438553.jpg", "timestamp": "2019-10-30T09:31:00Z"}]}, {"id": 438554, "min_date": "2019-10-30T10:06:00Z", "max_date": "2019-10-30T10:06:00Z", "count_points": 1, "latitude": 48.18811, "longitude": 28.79433, "city": "Pishchanka", "images": []}, {"id": 438555, "min_date": "2019-10-30T10:06:00Z", "max_date": "2019-10-30T10:06:00Z", "count_points": 2, "latitude": 47.99696, "longitude": 32.35335, "city": "Ustynivka", "images": []}, {"id": 438556, "min_date": "2019-10-30T10:06:00Z", "max_date": "2019-11-02T10:48:00Z", "count_points": 5, "latitude": 48.28452, "longitude": 30.13451, "city": "Blahovishchens\u2019ke", "images": [{"image_url": "438556.jpg", "timestamp": "2019-11-02T10:48:00Z"}]}, {"id": 438557, "min_date": "2019-10-30T10:06:00Z", "max_date": "2019-10-30T10:06:00Z", "count_points": 1, "latitude": 48.14243, "longitude": 31.19272, "city": "Lysa Hora", "images": []}, {"id": 438558, "min_date": "2019-10-30T10:06:00Z", "max_date": "2019-10-30T10:06:00Z", "count_points": 3, "latitude": 48.40193, "longitude": 32.61421, "city": "Novhorodka", "images": []}, {"id": 438559, "min_date": "2019-10-30T10:06:00Z", "max_date": "2019-10-30T09:31:00Z", "count_points": 3, "latitude": 48.12804, "longitude": 29.58278, "city": "Peschana", "images": []}, {"id": 438560, "min_date": "2019-10-30T10:06:00Z", "max_date": "2019-10-30T11:15:00Z", "count_points": 7, "latitude": 48.17741, "longitude": 30.10999, "city": "Savran", "images": [{"image_url": "438560.jpg", "timestamp": "2019-10-30T11:15:00Z"}]}, {"id": 438561, "min_date": "2019-10-30T10:06:00Z", "max_date": "2019-10-30T11:15:00Z", "count_points": 8, "latitude": 48.16615, "longitude": 29.74083, "city": "Peschana", "images": [{"image_url": "438561.jpg", "timestamp": "2019-10-30T11:15:00Z"}]}, {"id": 438562, "min_date": "2019-10-30T10:06:00Z", "max_date": "2019-10-30T10:06:00Z", "count_points": 1, "latitude": 48.38644, "longitude": 30.79176, "city": "Vil\u2019shanka", "images": []}, {"id": 438563, "min_date": "2019-10-30T10:06:00Z", "max_date": "2019-10-30T10:06:00Z", "count_points": 1, "latitude": 48.45351, "longitude": 30.82981, "city": "Tyshkivka", "images": []}, {"id": 438564, "min_date": "2019-10-30T10:06:00Z", "max_date": "2019-10-30T11:48:00Z", "count_points": 2, "latitude": 47.62209, "longitude": 32.03651, "city": "Yelanets\u2019", "images": []}, {"id": 438565, "min_date": "2019-10-30T11:48:00Z", "max_date": "2019-10-30T11:15:00Z", "count_points": 3, "latitude": 48.37953, "longitude": 32.95908, "city": "Nova Praha", "images": []}, {"id": 438566, "min_date": "2019-10-30T11:48:00Z", "max_date": "2019-10-30T11:48:00Z", "count_points": 1, "latitude": 48.16897, "longitude": 31.40134, "city": "Pomichna", "images": []}, {"id": 438567, "min_date": "2019-10-30T11:48:00Z", "max_date": "2019-10-30T11:48:00Z", "count_points": 1, "latitude": 47.88008, "longitude": 30.22842, "city": "Lyubashivka", "images": []}, {"id": 438568, "min_date": "2019-10-30T11:48:00Z", "max_date": "2019-10-30T11:15:00Z", "count_points": 2, "latitude": 48.33463, "longitude": 30.97671, "city": "Vil\u2019shanka", "images": []}, {"id": 438569, "min_date": "2019-10-30T11:48:00Z", "max_date": "2019-10-30T11:15:00Z", "count_points": 4, "latitude": 48.34698, "longitude": 31.2735, "city": "Dobrovelychkivka", "images": []}, {"id": 438570, "min_date": "2019-10-30T11:48:00Z", "max_date": "2019-10-30T11:48:00Z", "count_points": 3, "latitude": 48.01908, "longitude": 31.86808, "city": "Rivne", "images": []}, {"id": 438571, "min_date": "2019-10-30T11:48:00Z", "max_date": "2019-10-30T09:31:00Z", "count_points": 4, "latitude": 48.32627, "longitude": 30.92656, "city": "Vil\u2019shanka", "images": []}, {"id": 438572, "min_date": "2019-10-30T11:48:00Z", "max_date": "2019-10-30T11:48:00Z", "count_points": 6, "latitude": 47.6212, "longitude": 29.4642, "city": "Okny", "images": [{"image_url": "438572.jpg", "timestamp": "2019-10-30T11:48:00Z"}]}, {"id": 438573, "min_date": "2019-10-30T11:48:00Z", "max_date": "2019-10-30T11:48:00Z", "count_points": 4, "latitude": 48.45717, "longitude": 31.90151, "city": "Rivne", "images": [{"image_url": "438573.jpg", "timestamp": "2019-10-30T11:48:00Z"}]}, {"id": 438574, "min_date": "2019-10-30T11:48:00Z", "max_date": "2019-10-30T11:48:00Z", "count_points": 1, "latitude": 48.08398, "longitude": 29.36998, "city": "Chechelnyk", "images": []}, {"id": 438575, "min_date": "2019-10-30T11:48:00Z", "max_date": "2019-10-30T11:48:00Z", "count_points": 2, "latitude": 47.59958, "longitude": 30.8402, "city": "Mykolayivka", "images": []}, {"id": 438576, "min_date": "2019-10-30T11:48:00Z", "max_date": "2019-10-30T11:48:00Z", "count_points": 2, "latitude": 47.98468, "longitude": 29.05781, "city": "Kodyma", "images": []}, {"id": 438577, "min_date": "2019-10-30T11:48:00Z", "max_date": "2019-10-30T11:48:00Z", "count_points": 1, "latitude": 47.99411, "longitude": 28.97806, "city": "Zagnitkiv", "images": []}, {"id": 438578, "min_date": "2019-10-30T11:48:00Z", "max_date": "2019-11-01T09:19:00Z", "count_points": 7, "latitude": 48.36641, "longitude": 32.46072, "city": "Adzhamka", "images": []}, {"id": 438579, "min_date": "2019-10-30T11:48:00Z", "max_date": "2019-11-01T11:04:00Z", "count_points": 7, "latitude": 49.38288, "longitude": 25.2788, "city": "Kozova", "images": []}, {"id": 438580, "min_date": "2019-10-30T11:48:00Z", "max_date": "2019-10-30T11:48:00Z", "count_points": 5, "latitude": 48.02102, "longitude": 29.92607, "city": "Savran", "images": []}, {"id": 438581, "min_date": "2019-10-30T11:48:00Z", "max_date": "2019-10-29T10:33:00Z", "count_points": 3, "latitude": 49.65027, "longitude": 33.55495, "city": "Velyka Bahachka", "images": []}, {"id": 438582, "min_date": "2019-10-30T11:48:00Z", "max_date": "2019-11-01T11:06:00Z", "count_points": 3, "latitude": 48.1881, "longitude": 30.01083, "city": "Zavallya", "images": []}, {"id": 438583, "min_date": "2019-10-30T11:48:00Z", "max_date": "2019-10-30T11:48:00Z", "count_points": 2, "latitude": 48.15508, "longitude": 32.32393, "city": "Kompaniyivka", "images": []}, {"id": 438584, "min_date": "2019-10-30T11:48:00Z", "max_date": "2019-11-01T09:19:00Z", "count_points": 10, "latitude": 48.27767, "longitude": 32.08685, "city": "Kompaniyivka", "images": [{"image_url": "438584.jpg", "timestamp": "2019-11-01T09:19:00Z"}]}, {"id": 438585, "min_date": "2019-10-30T11:48:00Z", "max_date": "2019-10-30T11:48:00Z", "count_points": 1, "latitude": 50.03764, "longitude": 33.33322, "city": "Romodan", "images": []}, {"id": 438586, "min_date": "2019-10-30T11:48:00Z", "max_date": "2019-10-30T11:48:00Z", "count_points": 1, "latitude": 48.36187, "longitude": 28.25101, "city": "Yampil\u2019", "images": []}, {"id": 438587, "min_date": "2019-10-30T11:48:00Z", "max_date": "2019-10-30T11:16:00Z", "count_points": 5, "latitude": 48.36629, "longitude": 28.19796, "city": "Yampil\u2019", "images": []}, {"id": 438588, "min_date": "2019-10-30T11:48:00Z", "max_date": "2019-10-30T11:48:00Z", "count_points": 1, "latitude": 50.14359, "longitude": 33.84964, "city": "Velyki Sorochyntsi", "images": []}, {"id": 438589, "min_date": "2019-10-30T11:48:00Z", "max_date": "2019-11-01T11:03:00Z", "count_points": 2, "latitude": 48.97533, "longitude": 28.13123, "city": "Zhmerynka", "images": []}, {"id": 438590, "min_date": "2019-10-30T11:48:00Z", "max_date": "2019-10-30T11:16:00Z", "count_points": 6, "latitude": 49.84707, "longitude": 27.744, "city": "Liubar", "images": []}, {"id": 438591, "min_date": "2019-10-30T11:48:00Z", "max_date": "2019-11-01T11:03:00Z", "count_points": 7, "latitude": 48.52653, "longitude": 27.88566, "city": "Mohyliv-Podilskyi", "images": []}, {"id": 438592, "min_date": "2019-10-30T11:48:00Z", "max_date": "2019-10-30T11:48:00Z", "count_points": 4, "latitude": 49.59406, "longitude": 28.27509, "city": "Ulaniv", "images": []}, {"id": 438593, "min_date": "2019-10-30T11:48:00Z", "max_date": "2019-10-30T11:16:00Z", "count_points": 8, "latitude": 49.75593, "longitude": 27.67726, "city": "Stara Syniava", "images": []}, {"id": 438594, "min_date": "2019-10-30T11:48:00Z", "max_date": "2019-10-30T11:48:00Z", "count_points": 3, "latitude": 49.75698, "longitude": 26.34024, "city": "Teofipol", "images": []}, {"id": 438595, "min_date": "2019-10-30T11:48:00Z", "max_date": "2019-10-30T11:48:00Z", "count_points": 2, "latitude": 49.66056, "longitude": 28.35197, "city": "Ulaniv", "images": []}, {"id": 438596, "min_date": "2019-10-30T11:48:00Z", "max_date": "2019-10-30T11:15:00Z", "count_points": 4, "latitude": 48.05454, "longitude": 29.02624, "city": "Kodyma", "images": []}, {"id": 438597, "min_date": "2019-10-30T11:48:00Z", "max_date": "2019-10-30T11:48:00Z", "count_points": 7, "latitude": 48.90905, "longitude": 26.73293, "city": "Dunaivtsi", "images": []}, {"id": 438598, "min_date": "2019-10-30T11:48:00Z", "max_date": "2019-10-30T11:48:00Z", "count_points": 2, "latitude": 48.34428, "longitude": 28.62699, "city": "Klembivka", "images": []}, {"id": 438599, "min_date": "2019-10-30T11:48:00Z", "max_date": "2019-10-30T11:16:00Z", "count_points": 4, "latitude": 48.99034, "longitude": 26.06534, "city": "Husiatyn", "images": []}, {"id": 438600, "min_date": "2019-10-30T11:48:00Z", "max_date": "2019-10-30T11:48:00Z", "count_points": 1, "latitude": 47.01164, "longitude": 30.02541, "city": "Rozdil\u2019na", "images": []}, {"id": 438601, "min_date": "2019-10-30T11:48:00Z", "max_date": "2019-10-30T11:48:00Z", "count_points": 1, "latitude": 48.25502, "longitude": 28.35942, "city": "Yampil\u2019", "images": []}, {"id": 438602, "min_date": "2019-10-30T11:48:00Z", "max_date": "2019-10-30T11:48:00Z", "count_points": 2, "latitude": 48.09798, "longitude": 31.78522, "city": "Rivne", "images": []}, {"id": 438603, "min_date": "2019-10-30T11:48:00Z", "max_date": "2019-10-30T11:15:00Z", "count_points": 7, "latitude": 48.04612, "longitude": 29.65748, "city": "Peschana", "images": []}, {"id": 438604, "min_date": "2019-10-30T11:48:00Z", "max_date": "2019-10-30T11:48:00Z", "count_points": 5, "latitude": 48.04306, "longitude": 29.50479, "city": "Balta", "images": []}, {"id": 438605, "min_date": "2019-10-30T11:48:00Z", "max_date": "2019-10-30T11:48:00Z", "count_points": 1, "latitude": 48.22517, "longitude": 31.17722, "city": "Lysa Hora", "images": []}, {"id": 438606, "min_date": "2019-10-30T11:48:00Z", "max_date": "2019-10-30T11:15:00Z", "count_points": 3, "latitude": 48.48864, "longitude": 29.41424, "city": "Viytivka", "images": []}, {"id": 438607, "min_date": "2019-10-30T11:48:00Z", "max_date": "2019-10-30T11:48:00Z", "count_points": 2, "latitude": 48.11736, "longitude": 31.74657, "city": "Rivne", "images": []}, {"id": 438608, "min_date": "2019-10-30T11:48:00Z", "max_date": "2019-10-30T11:15:00Z", "count_points": 10, "latitude": 48.1304, "longitude": 31.80436, "city": "Rivne", "images": []}, {"id": 438609, "min_date": "2019-10-30T11:48:00Z", "max_date": "2019-10-30T11:48:00Z", "count_points": 2, "latitude": 48.26716, "longitude": 30.46745, "city": "Holovanivs\u2019k", "images": []}, {"id": 438610, "min_date": "2019-10-30T11:48:00Z", "max_date": "2019-11-01T11:03:00Z", "count_points": 6, "latitude": 48.48029, "longitude": 29.51035, "city": "Viytivka", "images": []}, {"id": 438611, "min_date": "2019-10-30T11:48:00Z", "max_date": "2019-10-30T11:48:00Z", "count_points": 1, "latitude": 49.78915, "longitude": 35.02055, "city": "Chutove", "images": []}, {"id": 438612, "min_date": "2019-10-30T11:48:00Z", "max_date": "2019-10-30T11:48:00Z", "count_points": 1, "latitude": 48.25042, "longitude": 31.17698, "city": "Lysa Hora", "images": []}, {"id": 438613, "min_date": "2019-10-30T11:48:00Z", "max_date": "2019-10-30T11:16:00Z", "count_points": 4, "latitude": 50.04998, "longitude": 29.10921, "city": "Andrushivka", "images": []}, {"id": 438614, "min_date": "2019-10-30T11:48:00Z", "max_date": "2019-10-30T11:15:00Z", "count_points": 2, "latitude": 48.004, "longitude": 29.64118, "city": "Balta", "images": []}, {"id": 438615, "min_date": "2019-10-30T11:48:00Z", "max_date": "2019-10-30T11:48:00Z", "count_points": 1, "latitude": 51.3414, "longitude": 25.08673, "city": "Ho\u0142oby", "images": []}, {"id": 438616, "min_date": "2019-10-30T11:48:00Z", "max_date": "2019-10-30T11:16:00Z", "count_points": 5, "latitude": 51.58011, "longitude": 32.75527, "city": "Korop", "images": []}, {"id": 438617, "min_date": "2019-10-30T11:48:00Z", "max_date": "2019-10-30T11:48:00Z", "count_points": 5, "latitude": 49.39296, "longitude": 30.04717, "city": "Roskoshnyy", "images": []}, {"id": 438618, "min_date": "2019-10-30T11:48:00Z", "max_date": "2019-10-30T11:48:00Z", "count_points": 1, "latitude": 50.84887, "longitude": 31.75908, "city": "Nosivka", "images": []}, {"id": 438619, "min_date": "2019-10-30T11:48:00Z", "max_date": "2019-10-31T10:21:00Z", "count_points": 14, "latitude": 50.13514, "longitude": 32.95941, "city": "Lubny", "images": []}, {"id": 438620, "min_date": "2019-10-30T11:48:00Z", "max_date": "2019-10-30T11:48:00Z", "count_points": 2, "latitude": 49.79883, "longitude": 31.74786, "city": "Tsybli", "images": []}, {"id": 438621, "min_date": "2019-10-30T11:48:00Z", "max_date": "2019-10-30T11:48:00Z", "count_points": 1, "latitude": 49.8699, "longitude": 31.76613, "city": "Tsybli", "images": []}, {"id": 438622, "min_date": "2019-10-30T11:48:00Z", "max_date": "2019-10-30T11:16:00Z", "count_points": 4, "latitude": 50.11721, "longitude": 31.49726, "city": "Pereyaslav-Khmel\u2019nyts\u2019kyy", "images": []}, {"id": 438623, "min_date": "2019-10-30T11:48:00Z", "max_date": "2019-10-30T11:16:00Z", "count_points": 2, "latitude": 49.72434, "longitude": 28.64175, "city": "Berdychiv", "images": []}, {"id": 438624, "min_date": "2019-10-30T11:48:00Z", "max_date": "2019-10-30T11:16:00Z", "count_points": 4, "latitude": 50.08305, "longitude": 32.16243, "city": "Drabiv", "images": [{"image_url": "438624.jpg", "timestamp": "2019-10-30T11:16:00Z"}]}, {"id": 438625, "min_date": "2019-10-30T11:48:00Z", "max_date": "2019-10-30T11:16:00Z", "count_points": 2, "latitude": 49.83069, "longitude": 32.51212, "city": "Orzhytsya", "images": []}, {"id": 438626, "min_date": "2019-10-30T11:48:00Z", "max_date": "2019-10-28T11:28:00Z", "count_points": 3, "latitude": 49.44871, "longitude": 32.99647, "city": "Semenivka", "images": []}, {"id": 438627, "min_date": "2019-10-30T11:48:00Z", "max_date": "2019-10-30T11:48:00Z", "count_points": 1, "latitude": 49.61004, "longitude": 33.12513, "city": "Semenivka", "images": []}, {"id": 438628, "min_date": "2019-10-30T11:48:00Z", "max_date": "2019-10-30T11:48:00Z", "count_points": 1, "latitude": 49.87203, "longitude": 32.42728, "city": "Chornobay", "images": []}, {"id": 438629, "min_date": "2019-10-30T11:48:00Z", "max_date": "2019-10-30T11:16:00Z", "count_points": 2, "latitude": 48.6533, "longitude": 29.49903, "city": "Haisyn", "images": []}, {"id": 438630, "min_date": "2019-10-30T11:48:00Z", "max_date": "2019-10-30T11:48:00Z", "count_points": 1, "latitude": 49.66179, "longitude": 32.15897, "city": "Zolotonosha", "images": []}, {"id": 438631, "min_date": "2019-10-30T11:48:00Z", "max_date": "2019-10-30T11:48:00Z", "count_points": 3, "latitude": 49.69626, "longitude": 31.03693, "city": "Myronivka", "images": []}, {"id": 438632, "min_date": "2019-10-30T11:48:00Z", "max_date": "2019-10-30T11:48:00Z", "count_points": 1, "latitude": 48.93482, "longitude": 31.55977, "city": "Lebedyn", "images": []}, {"id": 438633, "min_date": "2019-10-30T11:48:00Z", "max_date": "2019-11-02T10:48:00Z", "count_points": 5, "latitude": 49.80049, "longitude": 31.96834, "city": "Zolotonosha", "images": []}, {"id": 438634, "min_date": "2019-10-30T11:48:00Z", "max_date": "2019-11-01T11:03:00Z", "count_points": 13, "latitude": 49.42361, "longitude": 31.04992, "city": "Stebl\u00ebv", "images": []}, {"id": 438635, "min_date": "2019-10-30T11:48:00Z", "max_date": "2019-10-30T11:48:00Z", "count_points": 2, "latitude": 49.63486, "longitude": 32.22291, "city": "Chornobay", "images": []}, {"id": 438636, "min_date": "2019-10-30T11:48:00Z", "max_date": "2019-10-30T09:31:00Z", "count_points": 14, "latitude": 49.37823, "longitude": 30.65872, "city": "Kalynove", "images": []}, {"id": 438637, "min_date": "2019-10-30T11:48:00Z", "max_date": "2019-10-30T11:48:00Z", "count_points": 2, "latitude": 49.31772, "longitude": 29.71979, "city": "Tetiiv", "images": []}, {"id": 438638, "min_date": "2019-10-30T11:48:00Z", "max_date": "2019-11-01T11:03:00Z", "count_points": 3, "latitude": 48.5161, "longitude": 29.74337, "city": "Teplyk", "images": []}, {"id": 438639, "min_date": "2019-10-30T11:48:00Z", "max_date": "2019-10-30T11:16:00Z", "count_points": 2, "latitude": 49.96631, "longitude": 33.7901, "city": "Velyki Sorochyntsi", "images": []}, {"id": 438640, "min_date": "2019-10-30T11:48:00Z", "max_date": "2019-10-30T11:48:00Z", "count_points": 4, "latitude": 50.94383, "longitude": 32.04493, "city": "Talalayivka", "images": []}, {"id": 438641, "min_date": "2019-10-30T11:48:00Z", "max_date": "2019-10-30T11:48:00Z", "count_points": 1, "latitude": 49.62669, "longitude": 27.63779, "city": "Stara Syniava", "images": []}, {"id": 438642, "min_date": "2019-10-30T11:48:00Z", "max_date": "2019-10-30T09:31:00Z", "count_points": 3, "latitude": 48.80339, "longitude": 25.62954, "city": "Nyrkiv", "images": []}, {"id": 438643, "min_date": "2019-10-30T11:48:00Z", "max_date": "2019-10-30T11:16:00Z", "count_points": 2, "latitude": 49.21329, "longitude": 25.84209, "city": "Khorostkiv", "images": []}, {"id": 438644, "min_date": "2019-10-30T11:48:00Z", "max_date": "2019-11-01T11:04:00Z", "count_points": 4, "latitude": 49.46359, "longitude": 27.78118, "city": "Letychiv", "images": []}, {"id": 438645, "min_date": "2019-10-30T22:18:00Z", "max_date": "2019-11-03T10:30:00Z", "count_points": 3, "latitude": 47.789, "longitude": 36.18705, "city": "Ternuvate", "images": []}, {"id": 438646, "min_date": "2019-10-31T00:00:00Z", "max_date": "2019-10-31T00:00:00Z", "count_points": 1, "latitude": 48.76693, "longitude": 30.99682, "city": "Katerynopil", "images": []}, {"id": 438647, "min_date": "2019-10-31T00:00:00Z", "max_date": "2019-10-30T19:03:00Z", "count_points": 4, "latitude": 50.51226, "longitude": 34.24031, "city": "Lebedyn", "images": [{"image_url": "438647.jpg", "timestamp": "2019-10-30T19:03:00Z"}]}, {"id": 438648, "min_date": "2019-10-31T00:00:00Z", "max_date": "2019-10-31T00:00:00Z", "count_points": 1, "latitude": 51.98201, "longitude": 33.24884, "city": "Novhorod-Sivers\u2019kyy", "images": []}, {"id": 438649, "min_date": "2019-10-31T09:48:00Z", "max_date": "2019-10-31T10:20:00Z", "count_points": 5, "latitude": 49.96292, "longitude": 37.27102, "city": "Velykyy Burluk", "images": [{"image_url": "438649.jpg", "timestamp": "2019-10-31T10:20:00Z"}]}, {"id": 438650, "min_date": "2019-10-31T09:48:00Z", "max_date": "2019-10-31T09:48:00Z", "count_points": 1, "latitude": 51.96739, "longitude": 33.46523, "city": "Shostka", "images": []}, {"id": 438651, "min_date": "2019-10-31T09:48:00Z", "max_date": "2019-10-31T09:48:00Z", "count_points": 1, "latitude": 52.12637, "longitude": 33.63513, "city": "Yampil\u2019", "images": []}, {"id": 438652, "min_date": "2019-10-31T09:48:00Z", "max_date": "2019-10-31T09:48:00Z", "count_points": 1, "latitude": 48.82699, "longitude": 37.47445, "city": "Kramators\u2019k", "images": []}, {"id": 438653, "min_date": "2019-10-31T09:48:00Z", "max_date": "2019-10-31T09:48:00Z", "count_points": 1, "latitude": 52.09759, "longitude": 32.79652, "city": "Semenivka", "images": []}, {"id": 438654, "min_date": "2019-10-31T09:48:00Z", "max_date": "2019-10-31T09:48:00Z", "count_points": 2, "latitude": 49.33609, "longitude": 30.10812, "city": "Roskoshnyy", "images": []}, {"id": 438655, "min_date": "2019-10-31T09:48:00Z", "max_date": "2019-10-31T09:48:00Z", "count_points": 1, "latitude": 49.42862, "longitude": 30.06208, "city": "Stavyshche", "images": []}, {"id": 438656, "min_date": "2019-10-31T09:48:00Z", "max_date": "2019-10-31T10:20:00Z", "count_points": 3, "latitude": 48.82755, "longitude": 31.75165, "city": "Kapitanivka", "images": []}, {"id": 438657, "min_date": "2019-10-31T09:48:00Z", "max_date": "2019-10-31T09:48:00Z", "count_points": 1, "latitude": 50.22176, "longitude": 31.68392, "city": "Yahotyn", "images": []}, {"id": 438658, "min_date": "2019-10-31T09:48:00Z", "max_date": "2019-10-31T09:48:00Z", "count_points": 1, "latitude": 48.94222, "longitude": 28.55154, "city": "Tyvriv", "images": []}, {"id": 438659, "min_date": "2019-10-31T09:48:00Z", "max_date": "2019-10-31T09:48:00Z", "count_points": 1, "latitude": 49.85049, "longitude": 32.54584, "city": "Orzhytsya", "images": []}, {"id": 438660, "min_date": "2019-10-31T09:48:00Z", "max_date": "2019-10-31T09:48:00Z", "count_points": 2, "latitude": 50.10503, "longitude": 31.25451, "city": "Pereyaslav-Khmel\u2019nyts\u2019kyy", "images": []}, {"id": 438661, "min_date": "2019-10-31T09:48:00Z", "max_date": "2019-10-31T10:21:00Z", "count_points": 6, "latitude": 49.52504, "longitude": 30.22758, "city": "Stavyshche", "images": []}, {"id": 438662, "min_date": "2019-10-31T09:48:00Z", "max_date": "2019-11-01T11:03:00Z", "count_points": 27, "latitude": 49.02209, "longitude": 29.91439, "city": "Tsibulev", "images": []}, {"id": 438663, "min_date": "2019-10-31T09:48:00Z", "max_date": "2019-10-31T09:48:00Z", "count_points": 1, "latitude": 49.66677, "longitude": 32.29649, "city": "Chornobay", "images": []}, {"id": 438664, "min_date": "2019-10-31T09:48:00Z", "max_date": "2019-10-31T09:48:00Z", "count_points": 1, "latitude": 48.6158, "longitude": 29.66975, "city": "Teplyk", "images": []}, {"id": 438665, "min_date": "2019-10-31T09:48:00Z", "max_date": "2019-10-31T09:48:00Z", "count_points": 1, "latitude": 49.73015, "longitude": 32.3523, "city": "Chornobay", "images": []}, {"id": 438666, "min_date": "2019-10-31T09:48:00Z", "max_date": "2019-10-31T09:48:00Z", "count_points": 1, "latitude": 49.32041, "longitude": 29.66091, "city": "Tetiiv", "images": []}, {"id": 438667, "min_date": "2019-10-31T09:48:00Z", "max_date": "2019-10-31T09:48:00Z", "count_points": 5, "latitude": 50.01378, "longitude": 32.60646, "city": "Hrebinka", "images": [{"image_url": "438667.jpg", "timestamp": "2019-10-31T09:48:00Z"}]}, {"id": 438668, "min_date": "2019-10-31T09:48:00Z", "max_date": "2019-10-31T09:48:00Z", "count_points": 1, "latitude": 49.37489, "longitude": 35.00892, "city": "Karlivka", "images": []}, {"id": 438669, "min_date": "2019-10-31T09:48:00Z", "max_date": "2019-10-31T09:48:00Z", "count_points": 2, "latitude": 49.50928, "longitude": 38.95561, "city": "Novopskov", "images": []}, {"id": 438670, "min_date": "2019-10-31T09:48:00Z", "max_date": "2019-10-31T09:48:00Z", "count_points": 2, "latitude": 48.58139, "longitude": 32.68859, "city": "Znomenka", "images": []}, {"id": 438671, "min_date": "2019-10-31T09:48:00Z", "max_date": "2019-10-31T10:21:00Z", "count_points": 8, "latitude": 49.58943, "longitude": 33.66287, "city": "Velyka Bahachka", "images": []}, {"id": 438672, "min_date": "2019-10-31T09:48:00Z", "max_date": "2019-10-31T10:20:00Z", "count_points": 11, "latitude": 48.66901, "longitude": 35.41693, "city": "Melioratyvne", "images": []}, {"id": 438673, "min_date": "2019-10-31T09:48:00Z", "max_date": "2019-10-31T09:48:00Z", "count_points": 2, "latitude": 48.60916, "longitude": 34.69789, "city": "Petrykivka", "images": []}, {"id": 438674, "min_date": "2019-10-31T09:48:00Z", "max_date": "2019-10-31T10:20:00Z", "count_points": 4, "latitude": 48.63055, "longitude": 38.92555, "city": "Slov`yanoserbsk", "images": []}, {"id": 438675, "min_date": "2019-10-31T09:48:00Z", "max_date": "2019-10-31T11:30:00Z", "count_points": 2, "latitude": 49.12123, "longitude": 33.85389, "city": "Kozel\u2019shchyna", "images": []}, {"id": 438676, "min_date": "2019-10-31T09:48:00Z", "max_date": "2019-10-31T11:30:00Z", "count_points": 2, "latitude": 50.20772, "longitude": 32.19791, "city": "Chernyakhivka", "images": []}, {"id": 438677, "min_date": "2019-10-31T09:48:00Z", "max_date": "2019-10-31T10:20:00Z", "count_points": 8, "latitude": 48.50771, "longitude": 31.91989, "city": "Rivne", "images": []}, {"id": 438678, "min_date": "2019-10-31T09:48:00Z", "max_date": "2019-10-31T09:48:00Z", "count_points": 1, "latitude": 48.50017, "longitude": 33.33872, "city": "Novyy Starodub", "images": []}, {"id": 438679, "min_date": "2019-10-31T09:48:00Z", "max_date": "2019-10-31T10:20:00Z", "count_points": 4, "latitude": 48.86698, "longitude": 34.26798, "city": "Tsarychanka", "images": []}, {"id": 438680, "min_date": "2019-10-31T09:48:00Z", "max_date": "2019-10-31T09:48:00Z", "count_points": 1, "latitude": 48.50219, "longitude": 30.41378, "city": "Perehonivka", "images": []}, {"id": 438681, "min_date": "2019-10-31T09:48:00Z", "max_date": "2019-10-31T09:48:00Z", "count_points": 1, "latitude": 48.45649, "longitude": 33.84824, "city": "Vyshneve", "images": []}, {"id": 438682, "min_date": "2019-10-31T09:48:00Z", "max_date": "2019-10-31T09:48:00Z", "count_points": 2, "latitude": 48.33077, "longitude": 22.72621, "city": "Velyki Berehy", "images": []}, {"id": 438683, "min_date": "2019-10-31T09:48:00Z", "max_date": "2019-10-30T09:31:00Z", "count_points": 12, "latitude": 48.19299, "longitude": 31.70161, "city": "Rivne", "images": []}, {"id": 438684, "min_date": "2019-10-31T09:48:00Z", "max_date": "2019-10-31T09:48:00Z", "count_points": 1, "latitude": 48.76225, "longitude": 35.02273, "city": "Spas\u2019ke", "images": []}, {"id": 438685, "min_date": "2019-10-31T09:48:00Z", "max_date": "2019-10-31T09:48:00Z", "count_points": 1, "latitude": 47.06538, "longitude": 36.03544, "city": "Chernihivka", "images": []}, {"id": 438686, "min_date": "2019-10-31T09:48:00Z", "max_date": "2019-10-31T09:48:00Z", "count_points": 1, "latitude": 49.5052, "longitude": 33.58335, "city": "Velyka Bahachka", "images": []}, {"id": 438687, "min_date": "2019-10-31T09:48:00Z", "max_date": "2019-10-31T10:21:00Z", "count_points": 2, "latitude": 50.25916, "longitude": 31.22531, "city": "Baryshivka", "images": []}, {"id": 438688, "min_date": "2019-10-31T09:48:00Z", "max_date": "2019-10-31T09:48:00Z", "count_points": 1, "latitude": 50.00996, "longitude": 34.26871, "city": "Zin\u2019kiv", "images": []}, {"id": 438689, "min_date": "2019-10-31T09:48:00Z", "max_date": "2019-10-31T10:21:00Z", "count_points": 3, "latitude": 50.68748, "longitude": 32.19711, "city": "Lisovi Sorochyntsi", "images": []}, {"id": 438690, "min_date": "2019-10-31T09:48:00Z", "max_date": "2019-10-31T10:20:00Z", "count_points": 2, "latitude": 48.63775, "longitude": 35.15453, "city": "Pidhorodne", "images": []}, {"id": 438691, "min_date": "2019-10-31T09:48:00Z", "max_date": "2019-10-31T10:21:00Z", "count_points": 3, "latitude": 50.19045, "longitude": 35.284, "city": "Huty", "images": []}, {"id": 438692, "min_date": "2019-10-31T09:48:00Z", "max_date": "2019-11-01T11:03:00Z", "count_points": 5, "latitude": 47.98395, "longitude": 29.26343, "city": "Slobidka", "images": []}, {"id": 438693, "min_date": "2019-10-31T09:48:00Z", "max_date": "2019-10-31T09:48:00Z", "count_points": 1, "latitude": 47.8847, "longitude": 30.40002, "city": "Kryve Ozero", "images": []}, {"id": 438694, "min_date": "2019-10-31T09:48:00Z", "max_date": "2019-10-31T09:48:00Z", "count_points": 2, "latitude": 49.60945, "longitude": 33.57435, "city": "Velyka Bahachka", "images": []}, {"id": 438695, "min_date": "2019-10-31T09:48:00Z", "max_date": "2019-10-31T11:30:00Z", "count_points": 3, "latitude": 49.66935, "longitude": 33.35378, "city": "Khorol", "images": []}, {"id": 438696, "min_date": "2019-10-31T09:48:00Z", "max_date": "2019-10-31T11:30:00Z", "count_points": 5, "latitude": 48.06446, "longitude": 29.85422, "city": "Peschana", "images": []}, {"id": 438697, "min_date": "2019-10-31T09:48:00Z", "max_date": "2019-10-31T11:30:00Z", "count_points": 2, "latitude": 51.39975, "longitude": 32.95399, "city": "Baturyn", "images": []}, {"id": 438698, "min_date": "2019-10-31T09:48:00Z", "max_date": "2019-10-31T11:30:00Z", "count_points": 5, "latitude": 51.58794, "longitude": 31.69142, "city": "Berezna", "images": []}, {"id": 438699, "min_date": "2019-10-31T09:48:00Z", "max_date": "2019-10-31T09:48:00Z", "count_points": 1, "latitude": 51.6545, "longitude": 32.67738, "city": "Sosnytsya", "images": []}, {"id": 438700, "min_date": "2019-10-31T09:48:00Z", "max_date": "2019-10-31T11:30:00Z", "count_points": 4, "latitude": 51.06917, "longitude": 34.02777, "city": "Terny", "images": []}, {"id": 438701, "min_date": "2019-10-31T09:48:00Z", "max_date": "2019-10-31T09:48:00Z", "count_points": 2, "latitude": 47.85496, "longitude": 37.84959, "city": "Donetsk", "images": []}, {"id": 438702, "min_date": "2019-10-31T09:48:00Z", "max_date": "2019-11-02T09:12:00Z", "count_points": 5, "latitude": 50.05181, "longitude": 33.55352, "city": "Myrhorod", "images": []}, {"id": 438703, "min_date": "2019-10-31T09:48:00Z", "max_date": "2019-10-31T09:48:00Z", "count_points": 1, "latitude": 49.27669, "longitude": 33.8695, "city": "Lutovynivka", "images": []}, {"id": 438704, "min_date": "2019-10-31T09:48:00Z", "max_date": "2019-11-01T11:06:00Z", "count_points": 2, "latitude": 48.32542, "longitude": 22.57474, "city": "Strabychovo", "images": []}, {"id": 438705, "min_date": "2019-10-31T09:48:00Z", "max_date": "2019-10-31T10:14:00Z", "count_points": 6, "latitude": 48.25958, "longitude": 22.52217, "city": "Koson\u2019", "images": []}, {"id": 438706, "min_date": "2019-10-31T09:48:00Z", "max_date": "2019-10-31T08:36:00Z", "count_points": 2, "latitude": 47.003, "longitude": 32.3245, "city": "Shevchenkove", "images": []}, {"id": 438707, "min_date": "2019-10-31T09:48:00Z", "max_date": "2019-10-31T09:48:00Z", "count_points": 1, "latitude": 48.31639, "longitude": 28.89066, "city": "Kryzhopil\u2019", "images": []}, {"id": 438708, "min_date": "2019-10-31T09:48:00Z", "max_date": "2019-11-03T09:07:00Z", "count_points": 9, "latitude": 46.19099, "longitude": 33.11042, "city": "Kalanchak", "images": [{"image_url": "438708.jpg", "timestamp": "2019-11-03T09:07:00Z"}]}, {"id": 438709, "min_date": "2019-10-31T09:48:00Z", "max_date": "2019-11-02T09:12:00Z", "count_points": 2, "latitude": 48.96551, "longitude": 34.06849, "city": "Kobelyaky", "images": []}, {"id": 438710, "min_date": "2019-10-31T09:48:00Z", "max_date": "2019-10-31T08:36:00Z", "count_points": 2, "latitude": 47.50778, "longitude": 35.53798, "city": "Komyshuvakha", "images": []}, {"id": 438711, "min_date": "2019-10-31T09:48:00Z", "max_date": "2019-10-31T09:48:00Z", "count_points": 1, "latitude": 50.11089, "longitude": 33.34773, "city": "Romodan", "images": []}, {"id": 438712, "min_date": "2019-10-31T09:48:00Z", "max_date": "2019-10-31T09:48:00Z", "count_points": 2, "latitude": 50.30234, "longitude": 34.62626, "city": "Kotel\u2019va", "images": []}, {"id": 438713, "min_date": "2019-10-31T11:24:00Z", "max_date": "2019-10-31T11:24:00Z", "count_points": 1, "latitude": 46.63217, "longitude": 34.88181, "city": "Yakymivka", "images": []}, {"id": 438714, "min_date": "2019-10-31T11:24:00Z", "max_date": "2019-10-31T11:24:00Z", "count_points": 2, "latitude": 46.0944, "longitude": 33.46672, "city": "Suvorovo", "images": []},