[{"id": 462685, "min_date": "2020-08-15T09:18:00Z", "max_date": "2020-08-15T11:06:00Z", "count_points": 7, "latitude": 51.09678, "longitude": 28.51993, "city": "Luhyny", "images": []}, {"id": 462914, "min_date": "2020-08-11T10:42:00Z", "max_date": "2020-08-11T10:42:00Z", "count_points": 1, "latitude": 47.88076, "longitude": 29.75359, "city": "Balta", "images": []}, {"id": 462537, "min_date": "2020-08-10T09:00:00Z", "max_date": "2020-08-10T09:24:00Z", "count_points": 5, "latitude": 48.09146, "longitude": 37.69254, "city": "Avdiyivka", "images": []}, {"id": 462538, "min_date": "2020-08-10T09:00:00Z", "max_date": "2020-08-10T09:00:00Z", "count_points": 1, "latitude": 49.8587, "longitude": 24.6788, "city": "Krasne", "images": []}, {"id": 462539, "min_date": "2020-08-10T09:00:00Z", "max_date": "2020-08-10T09:00:00Z", "count_points": 1, "latitude": 49.7863, "longitude": 25.2628, "city": "Zaliztsi", "images": []}, {"id": 462540, "min_date": "2020-08-10T09:00:00Z", "max_date": "2020-08-10T09:00:00Z", "count_points": 1, "latitude": 48.2157, "longitude": 36.4512, "city": "Petropavlivka", "images": []}, {"id": 462541, "min_date": "2020-08-10T09:00:00Z", "max_date": "2020-08-10T09:00:00Z", "count_points": 1, "latitude": 49.2573, "longitude": 29.555, "city": "Orativ", "images": []}, {"id": 462542, "min_date": "2020-08-10T09:00:00Z", "max_date": "2020-08-15T23:24:00Z", "count_points": 7, "latitude": 47.65338, "longitude": 38.2499, "city": "Kuteynykove", "images": []}, {"id": 462543, "min_date": "2020-08-10T09:00:00Z", "max_date": "2020-08-12T10:24:00Z", "count_points": 5, "latitude": 49.0687, "longitude": 29.76777, "city": "Tsibulev", "images": []}, {"id": 462544, "min_date": "2020-08-10T09:00:00Z", "max_date": "2020-08-10T09:00:00Z", "count_points": 1, "latitude": 47.6156, "longitude": 37.6738, "city": "Dokuchayevs\u2019k", "images": []}, {"id": 462545, "min_date": "2020-08-10T09:00:00Z", "max_date": "2020-08-10T09:24:00Z", "count_points": 5, "latitude": 48.66248, "longitude": 37.79021, "city": "Chasiv Yar", "images": []}, {"id": 462546, "min_date": "2020-08-10T09:00:00Z", "max_date": "2020-08-10T09:00:00Z", "count_points": 1, "latitude": 50.3469, "longitude": 37.223, "city": "Prykolotne", "images": []}, {"id": 462547, "min_date": "2020-08-10T09:00:00Z", "max_date": "2020-08-10T09:00:00Z", "count_points": 1, "latitude": 50.6038, "longitude": 33.9416, "city": "Lypova Dolyna", "images": []}, {"id": 462548, "min_date": "2020-08-10T09:00:00Z", "max_date": "2020-08-10T09:00:00Z", "count_points": 1, "latitude": 50.9419, "longitude": 29.6865, "city": "Krasyatychi", "images": []}, {"id": 462549, "min_date": "2020-08-10T09:00:00Z", "max_date": "2020-08-10T09:00:00Z", "count_points": 1, "latitude": 50.4637, "longitude": 32.3036, "city": "Pryluky", "images": []}, {"id": 462550, "min_date": "2020-08-10T09:00:00Z", "max_date": "2020-08-10T09:00:00Z", "count_points": 1, "latitude": 50.7115, "longitude": 28.5031, "city": "Khoroshiv", "images": []}, {"id": 462551, "min_date": "2020-08-10T09:00:00Z", "max_date": "2020-08-11T09:00:00Z", "count_points": 12, "latitude": 48.51593, "longitude": 39.7528, "city": "Uralo-Kavkaz", "images": []}, {"id": 462552, "min_date": "2020-08-10T09:00:00Z", "max_date": "2020-08-10T09:00:00Z", "count_points": 1, "latitude": 48.9093, "longitude": 37.6763, "city": "Sloviansk", "images": []}, {"id": 462553, "min_date": "2020-08-10T09:00:00Z", "max_date": "2020-08-10T09:00:00Z", "count_points": 1, "latitude": 49.2076, "longitude": 36.0201, "city": "Sakhnovshchyna", "images": []}, {"id": 462554, "min_date": "2020-08-10T09:00:00Z", "max_date": "2020-08-10T09:00:00Z", "count_points": 1, "latitude": 48.6631, "longitude": 37.3414, "city": "Krasnotorka", "images": []}, {"id": 462555, "min_date": "2020-08-10T09:00:00Z", "max_date": "2020-08-10T09:00:00Z", "count_points": 1, "latitude": 50.1148, "longitude": 27.4333, "city": "Polonne", "images": []}, {"id": 462556, "min_date": "2020-08-10T09:00:00Z", "max_date": "2020-08-15T11:06:00Z", "count_points": 6, "latitude": 48.92625, "longitude": 34.60128, "city": "Tsarychanka", "images": []}, {"id": 462557, "min_date": "2020-08-10T09:00:00Z", "max_date": "2020-08-10T09:24:00Z", "count_points": 2, "latitude": 48.30156, "longitude": 37.79654, "city": "Shcherbynivka", "images": []}, {"id": 462558, "min_date": "2020-08-10T09:00:00Z", "max_date": "2020-08-16T10:48:00Z", "count_points": 2, "latitude": 48.67591, "longitude": 34.97446, "city": "Spas\u2019ke", "images": []}, {"id": 462559, "min_date": "2020-08-10T09:00:00Z", "max_date": "2020-08-13T00:18:00Z", "count_points": 10, "latitude": 48.19659, "longitude": 37.48109, "city": "Selydove", "images": []}, {"id": 462560, "min_date": "2020-08-10T09:01:00Z", "max_date": "2020-08-10T09:01:00Z", "count_points": 1, "latitude": 47.1237, "longitude": 32.256, "city": "Shevchenkove", "images": []}, {"id": 462561, "min_date": "2020-08-10T10:38:00Z", "max_date": "2020-08-12T12:06:00Z", "count_points": 2, "latitude": 50.34727, "longitude": 25.00891, "city": "Berestechko", "images": []}, {"id": 462562, "min_date": "2020-08-10T10:45:00Z", "max_date": "2020-08-12T10:24:00Z", "count_points": 5, "latitude": 47.96813, "longitude": 38.95605, "city": "Dmytrivka", "images": []}, {"id": 462563, "min_date": "2020-08-10T10:45:00Z", "max_date": "2020-08-10T10:45:00Z", "count_points": 1, "latitude": 49.1375, "longitude": 35.4255, "city": "Zachepylivka", "images": []}, {"id": 462564, "min_date": "2020-08-10T10:45:00Z", "max_date": "2020-08-10T10:45:00Z", "count_points": 1, "latitude": 48.6026, "longitude": 29.314, "city": "Ladyzhyn", "images": []}, {"id": 462565, "min_date": "2020-08-10T10:45:00Z", "max_date": "2020-08-10T11:00:00Z", "count_points": 2, "latitude": 49.72721, "longitude": 28.31758, "city": "Ulaniv", "images": []}, {"id": 462566, "min_date": "2020-08-10T10:46:00Z", "max_date": "2020-08-10T11:00:00Z", "count_points": 4, "latitude": 49.60177, "longitude": 23.64721, "city": "Komarno", "images": []}, {"id": 462567, "min_date": "2020-08-10T18:32:00Z", "max_date": "2020-08-10T18:32:00Z", "count_points": 1, "latitude": 48.1122, "longitude": 38.4721, "city": "Stizhkivs\u2019ke", "images": []}, {"id": 462568, "min_date": "2020-08-10T20:10:00Z", "max_date": "2020-08-10T23:18:00Z", "count_points": 5, "latitude": 47.11199, "longitude": 34.59039, "city": "Velyka Bilozerka", "images": []}, {"id": 462569, "min_date": "2020-08-10T20:10:00Z", "max_date": "2020-08-10T20:10:00Z", "count_points": 1, "latitude": 48.8485, "longitude": 34.9324, "city": "Mahdalynivka", "images": []}, {"id": 462570, "min_date": "2020-08-10T20:11:00Z", "max_date": "2020-08-10T20:11:00Z", "count_points": 1, "latitude": 51.0807, "longitude": 24.8298, "city": "Ho\u0142oby", "images": []}, {"id": 462571, "min_date": "2020-08-11T08:05:00Z", "max_date": "2020-08-11T08:05:00Z", "count_points": 1, "latitude": 50.388, "longitude": 35.941, "city": "Zolochiv", "images": []}, {"id": 462572, "min_date": "2020-08-11T08:05:00Z", "max_date": "2020-08-12T10:24:00Z", "count_points": 11, "latitude": 49.71279, "longitude": 38.92046, "city": "Lozno-Oleksandrivka", "images": []}, {"id": 462573, "min_date": "2020-08-11T08:05:00Z", "max_date": "2020-08-10T23:18:00Z", "count_points": 7, "latitude": 48.95585, "longitude": 39.07718, "city": "Novoaydar", "images": []}, {"id": 462574, "min_date": "2020-08-11T08:05:00Z", "max_date": "2020-08-11T08:05:00Z", "count_points": 2, "latitude": 48.35105, "longitude": 37.01405, "city": "Dobropillya", "images": []}, {"id": 462575, "min_date": "2020-08-11T08:05:00Z", "max_date": "2020-08-11T08:05:00Z", "count_points": 1, "latitude": 47.8845, "longitude": 39.4492, "city": "Roven\u2019ky", "images": []}, {"id": 462576, "min_date": "2020-08-11T09:43:00Z", "max_date": "2020-08-11T09:43:00Z", "count_points": 1, "latitude": 50.7802, "longitude": 31.3247, "city": "Bobrovytsya", "images": []}, {"id": 462577, "min_date": "2020-08-11T09:43:00Z", "max_date": "2020-08-11T09:50:00Z", "count_points": 3, "latitude": 48.1112, "longitude": 34.50467, "city": "Novopokrovka", "images": []}, {"id": 462578, "min_date": "2020-08-11T09:43:00Z", "max_date": "2020-08-11T09:43:00Z", "count_points": 1, "latitude": 48.1002, "longitude": 34.5451, "city": "Novopokrovka", "images": []}, {"id": 462579, "min_date": "2020-08-11T09:43:00Z", "max_date": "2020-08-14T09:48:00Z", "count_points": 2, "latitude": 48.8305, "longitude": 27.20086, "city": "Nova Ushytsya", "images": []}, {"id": 462580, "min_date": "2020-08-11T09:43:00Z", "max_date": "2020-08-16T10:48:00Z", "count_points": 11, "latitude": 48.90802, "longitude": 26.6846, "city": "Makiv", "images": []}, {"id": 462581, "min_date": "2020-08-11T09:43:00Z", "max_date": "2020-08-11T09:43:00Z", "count_points": 1, "latitude": 48.729, "longitude": 25.7284, "city": "Kostryzhivka", "images": []}, {"id": 462582, "min_date": "2020-08-11T09:43:00Z", "max_date": "2020-08-11T09:43:00Z", "count_points": 1, "latitude": 47.857, "longitude": 29.7079, "city": "Balta", "images": []}, {"id": 462583, "min_date": "2020-08-11T09:43:00Z", "max_date": "2020-08-11T09:00:00Z", "count_points": 2, "latitude": 46.6111, "longitude": 33.98838, "city": "Askaniya-Nova", "images": []}, {"id": 462584, "min_date": "2020-08-11T09:50:00Z", "max_date": "2020-08-16T10:48:00Z", "count_points": 10, "latitude": 49.00666, "longitude": 37.11088, "city": "Barvinkove", "images": []}, {"id": 462585, "min_date": "2020-08-11T09:50:00Z", "max_date": "2020-08-11T09:50:00Z", "count_points": 1, "latitude": 47.4253, "longitude": 37.1241, "city": "Rozivka", "images": []}, {"id": 462586, "min_date": "2020-08-11T09:50:00Z", "max_date": "2020-08-11T09:50:00Z", "count_points": 1, "latitude": 47.0064, "longitude": 34.1464, "city": "Velyka Lepetykha", "images": []}, {"id": 462587, "min_date": "2020-08-11T09:50:00Z", "max_date": "2020-08-10T23:18:00Z", "count_points": 3, "latitude": 48.42619, "longitude": 39.76421, "city": "Uralo-Kavkaz", "images": []}, {"id": 462588, "min_date": "2020-08-11T09:50:00Z", "max_date": "2020-08-11T09:50:00Z", "count_points": 1, "latitude": 47.519, "longitude": 33.5396, "city": "Vysokopillya", "images": []}, {"id": 462589, "min_date": "2020-08-11T09:51:00Z", "max_date": "2020-08-11T09:51:00Z", "count_points": 1, "latitude": 51.1546, "longitude": 32.1362, "city": "Kruty", "images": []}, {"id": 462590, "min_date": "2020-08-11T11:28:00Z", "max_date": "2020-08-11T10:42:00Z", "count_points": 4, "latitude": 47.31522, "longitude": 34.27449, "city": "Verkhniy Rohachyk", "images": []}, {"id": 462591, "min_date": "2020-08-11T11:29:00Z", "max_date": "2020-08-11T11:29:00Z", "count_points": 1, "latitude": 50.4179, "longitude": 24.2981, "city": "Sokal\u2019", "images": []}, {"id": 462592, "min_date": "2020-08-11T19:14:00Z", "max_date": "2020-08-11T19:14:00Z", "count_points": 2, "latitude": 46.7465, "longitude": 31.67345, "city": "Ochakiv", "images": []}, {"id": 462593, "min_date": "2020-08-11T19:14:00Z", "max_date": "2020-08-13T00:18:00Z", "count_points": 25, "latitude": 48.07698, "longitude": 36.70651, "city": "Mezhova", "images": []}, {"id": 462594, "min_date": "2020-08-11T19:14:00Z", "max_date": "2020-08-11T23:00:00Z", "count_points": 3, "latitude": 46.76441, "longitude": 35.59836, "city": "Pryazovs\u2019ke", "images": []}, {"id": 462595, "min_date": "2020-08-11T19:14:00Z", "max_date": "2020-08-12T22:36:00Z", "count_points": 3, "latitude": 48.15311, "longitude": 37.34524, "city": "Selydove", "images": []}, {"id": 462596, "min_date": "2020-08-11T19:15:00Z", "max_date": "2020-08-11T19:15:00Z", "count_points": 1, "latitude": 51.01, "longitude": 34.0402, "city": "Terny", "images": []}, {"id": 462597, "min_date": "2020-08-11T19:15:00Z", "max_date": "2020-08-11T19:15:00Z", "count_points": 3, "latitude": 48.21947, "longitude": 36.9739, "city": "Krasnoarmiys\u2019k", "images": []}, {"id": 462598, "min_date": "2020-08-11T19:15:00Z", "max_date": "2020-08-11T19:15:00Z", "count_points": 1, "latitude": 48.7831, "longitude": 37.1918, "city": "Barvinkove", "images": []}, {"id": 462599, "min_date": "2020-08-11T19:15:00Z", "max_date": "2020-08-12T10:24:00Z", "count_points": 6, "latitude": 48.81016, "longitude": 37.10932, "city": "Barvinkove", "images": []}, {"id": 462600, "min_date": "2020-08-11T19:15:00Z", "max_date": "2020-08-11T19:15:00Z", "count_points": 1, "latitude": 49.5246, "longitude": 38.4099, "city": "Nyzhnya Duvanka", "images": []}, {"id": 462601, "min_date": "2020-08-11T19:15:00Z", "max_date": "2020-08-12T10:24:00Z", "count_points": 12, "latitude": 50.0634, "longitude": 37.51456, "city": "Velykyy Burluk", "images": []}, {"id": 462602, "min_date": "2020-08-11T19:15:00Z", "max_date": "2020-08-11T19:15:00Z", "count_points": 1, "latitude": 50.1893, "longitude": 37.5839, "city": "Velykyy Burluk", "images": []}, {"id": 462603, "min_date": "2020-08-11T23:23:00Z", "max_date": "2020-08-16T09:06:00Z", "count_points": 8, "latitude": 48.13793, "longitude": 39.22985, "city": "Millerovo", "images": []}, {"id": 462604, "min_date": "2020-08-12T08:48:00Z", "max_date": "2020-08-12T10:24:00Z", "count_points": 6, "latitude": 48.43488, "longitude": 35.80076, "city": "Pavlohrad", "images": []}, {"id": 462605, "min_date": "2020-08-12T08:48:00Z", "max_date": "2020-08-12T08:42:00Z", "count_points": 3, "latitude": 50.25104, "longitude": 35.86996, "city": "Zolochiv", "images": []}, {"id": 462606, "min_date": "2020-08-12T08:48:00Z", "max_date": "2020-08-12T08:48:00Z", "count_points": 1, "latitude": 49.7001, "longitude": 37.234, "city": "Shevchenkove", "images": []}, {"id": 462607, "min_date": "2020-08-12T08:48:00Z", "max_date": "2020-08-12T08:42:00Z", "count_points": 5, "latitude": 49.2785, "longitude": 39.23645, "city": "Novopskov", "images": []}, {"id": 462608, "min_date": "2020-08-12T08:48:00Z", "max_date": "2020-08-12T08:42:00Z", "count_points": 3, "latitude": 48.66376, "longitude": 37.8587, "city": "Chasiv Yar", "images": []}, {"id": 462609, "min_date": "2020-08-12T08:48:00Z", "max_date": "2020-08-12T08:48:00Z", "count_points": 1, "latitude": 49.6504, "longitude": 28.9843, "city": "Kozyatyn", "images": []}, {"id": 462610, "min_date": "2020-08-12T08:48:00Z", "max_date": "2020-08-12T10:24:00Z", "count_points": 2, "latitude": 48.73773, "longitude": 35.20421, "city": "Hubynykha", "images": []}, {"id": 462611, "min_date": "2020-08-12T08:48:00Z", "max_date": "2020-08-12T08:48:00Z", "count_points": 1, "latitude": 49.453, "longitude": 29.1536, "city": "Pohrebyshche", "images": []}, {"id": 462612, "min_date": "2020-08-12T08:48:00Z", "max_date": "2020-08-15T09:30:00Z", "count_points": 12, "latitude": 48.18177, "longitude": 38.34142, "city": "Yenakiyeve", "images": []}, {"id": 462613, "min_date": "2020-08-12T08:48:00Z", "max_date": "2020-08-12T08:48:00Z", "count_points": 1, "latitude": 48.3666, "longitude": 36.9297, "city": "Dobropillya", "images": []}, {"id": 462614, "min_date": "2020-08-12T08:48:00Z", "max_date": "2020-08-12T00:36:00Z", "count_points": 3, "latitude": 48.50626, "longitude": 35.80942, "city": "Pavlohrad", "images": []}, {"id": 462615, "min_date": "2020-08-12T08:48:00Z", "max_date": "2020-08-12T08:48:00Z", "count_points": 1, "latitude": 48.602, "longitude": 34.6609, "city": "Kamianske", "images": []}, {"id": 462616, "min_date": "2020-08-12T08:48:00Z", "max_date": "2020-08-13T00:18:00Z", "count_points": 2, "latitude": 47.88941, "longitude": 38.87297, "city": "Dmytrivka", "images": []}, {"id": 462617, "min_date": "2020-08-12T08:48:00Z", "max_date": "2020-08-16T09:06:00Z", "count_points": 15, "latitude": 48.11436, "longitude": 37.388, "city": "Selydove", "images": []}, {"id": 462618, "min_date": "2020-08-12T08:48:00Z", "max_date": "2020-08-12T08:48:00Z", "count_points": 2, "latitude": 47.68685, "longitude": 37.37555, "city": "Blahodatne", "images": []}, {"id": 462619, "min_date": "2020-08-12T08:48:00Z", "max_date": "2020-08-12T08:48:00Z", "count_points": 1, "latitude": 47.3954, "longitude": 34.3507, "city": "Kamenka-Na-Dnepre", "images": []}, {"id": 462620, "min_date": "2020-08-12T08:48:00Z", "max_date": "2020-08-12T12:06:00Z", "count_points": 9, "latitude": 47.99226, "longitude": 28.94239, "city": "Zagnitkiv", "images": []}, {"id": 462621, "min_date": "2020-08-12T08:48:00Z", "max_date": "2020-08-12T08:48:00Z", "count_points": 1, "latitude": 47.3536, "longitude": 32.0387, "city": "Nova Odesa", "images": []}, {"id": 462622, "min_date": "2020-08-12T08:49:00Z", "max_date": "2020-08-16T10:48:00Z", "count_points": 2, "latitude": 46.73681, "longitude": 34.1891, "city": "Nyzhni Sirohozy", "images": []}, {"id": 462623, "min_date": "2020-08-12T08:49:00Z", "max_date": "2020-08-12T08:49:00Z", "count_points": 1, "latitude": 46.0074, "longitude": 34.6883, "city": "Medvedevka", "images": []}, {"id": 462624, "min_date": "2020-08-12T10:32:00Z", "max_date": "2020-08-12T10:24:00Z", "count_points": 6, "latitude": 47.24387, "longitude": 37.77763, "city": "Sartana", "images": []}, {"id": 462625, "min_date": "2020-08-12T10:32:00Z", "max_date": "2020-08-16T09:06:00Z", "count_points": 5, "latitude": 47.7579, "longitude": 38.59965, "city": "Amvrosiyivka", "images": []}, {"id": 462626, "min_date": "2020-08-12T10:32:00Z", "max_date": "2020-08-16T10:48:00Z", "count_points": 8, "latitude": 47.58863, "longitude": 38.091, "city": "Starobesheve", "images": []}, {"id": 462627, "min_date": "2020-08-12T10:32:00Z", "max_date": "2020-08-12T10:32:00Z", "count_points": 1, "latitude": 47.4976, "longitude": 38.2592, "city": "Tel\u2019manove", "images": []}, {"id": 462628, "min_date": "2020-08-12T10:32:00Z", "max_date": "2020-08-12T10:32:00Z", "count_points": 1, "latitude": 46.8219, "longitude": 34.8127, "city": "Vesele", "images": []}, {"id": 462629, "min_date": "2020-08-12T10:33:00Z", "max_date": "2020-08-12T10:24:00Z", "count_points": 5, "latitude": 48.48877, "longitude": 37.77153, "city": "Kostyantynivka", "images": []}, {"id": 462630, "min_date": "2020-08-12T10:33:00Z", "max_date": "2020-08-12T10:24:00Z", "count_points": 6, "latitude": 48.68826, "longitude": 36.90186, "city": "Oleksandrivka", "images": []}, {"id": 462631, "min_date": "2020-08-12T10:33:00Z", "max_date": "2020-08-12T10:33:00Z", "count_points": 1, "latitude": 48.4751, "longitude": 35.4253, "city": "Melioratyvne", "images": []}, {"id": 462632, "min_date": "2020-08-12T10:33:00Z", "max_date": "2020-08-12T10:24:00Z", "count_points": 3, "latitude": 47.79914, "longitude": 30.79392, "city": "Vradiyivka", "images": []}, {"id": 462633, "min_date": "2020-08-12T10:33:00Z", "max_date": "2020-08-12T10:33:00Z", "count_points": 2, "latitude": 49.2822, "longitude": 39.30045, "city": "Bilovodsk", "images": []}, {"id": 462634, "min_date": "2020-08-12T10:33:00Z", "max_date": "2020-08-16T09:12:00Z", "count_points": 5, "latitude": 48.94365, "longitude": 36.51357, "city": "Blyznyuky", "images": []}, {"id": 462635, "min_date": "2020-08-12T10:33:00Z", "max_date": "2020-08-12T10:24:00Z", "count_points": 4, "latitude": 49.25137, "longitude": 36.35357, "city": "Krasnopavlivka", "images": []}, {"id": 462636, "min_date": "2020-08-12T10:33:00Z", "max_date": "2020-08-12T10:24:00Z", "count_points": 2, "latitude": 49.64943, "longitude": 37.22748, "city": "Shevchenkove", "images": []}, {"id": 462637, "min_date": "2020-08-12T10:33:00Z", "max_date": "2020-08-12T10:24:00Z", "count_points": 2, "latitude": 50.06674, "longitude": 37.10732, "city": "Prykolotne", "images": []}, {"id": 462638, "min_date": "2020-08-12T10:33:00Z", "max_date": "2020-08-13T11:48:00Z", "count_points": 23, "latitude": 49.09652, "longitude": 26.82949, "city": "Dunayivtsi", "images": []}, {"id": 462639, "min_date": "2020-08-12T10:33:00Z", "max_date": "2020-08-14T11:30:00Z", "count_points": 10, "latitude": 49.01887, "longitude": 25.67049, "city": "Yahil\u2019nytsya", "images": []}, {"id": 462640, "min_date": "2020-08-12T10:33:00Z", "max_date": "2020-08-12T10:24:00Z", "count_points": 2, "latitude": 49.79627, "longitude": 28.57822, "city": "Berdychiv", "images": []}, {"id": 462641, "min_date": "2020-08-12T10:33:00Z", "max_date": "2020-08-12T10:33:00Z", "count_points": 1, "latitude": 49.7063, "longitude": 27.9869, "city": "Ulaniv", "images": []}, {"id": 462642, "min_date": "2020-08-12T18:20:00Z", "max_date": "2020-08-12T18:20:00Z", "count_points": 3, "latitude": 48.7401, "longitude": 37.04413, "city": "Novodonets\u2019ke", "images": []}, {"id": 462643, "min_date": "2020-08-12T18:20:00Z", "max_date": "2020-08-15T11:06:00Z", "count_points": 26, "latitude": 48.58886, "longitude": 38.23993, "city": "Popasna", "images": []}, {"id": 462644, "min_date": "2020-08-12T18:20:00Z", "max_date": "2020-08-12T18:20:00Z", "count_points": 1, "latitude": 48.728, "longitude": 36.9891, "city": "Oleksandrivka", "images": []}, {"id": 462645, "min_date": "2020-08-12T19:58:00Z", "max_date": "2020-08-14T00:00:00Z", "count_points": 24, "latitude": 48.14593, "longitude": 32.56188, "city": "Molodizhne", "images": []}, {"id": 462646, "min_date": "2020-08-12T19:59:00Z", "max_date": "2020-08-13T00:18:00Z", "count_points": 2, "latitude": 51.10908, "longitude": 24.82409, "city": "Kovel", "images": []}, {"id": 462647, "min_date": "2020-08-13T07:53:00Z", "max_date": "2020-08-13T07:53:00Z", "count_points": 1, "latitude": 46.5017, "longitude": 34.8767, "city": "Partyzany", "images": []}, {"id": 462648, "min_date": "2020-08-13T07:53:00Z", "max_date": "2020-08-13T11:48:00Z", "count_points": 4, "latitude": 46.39036, "longitude": 34.66664, "city": "Partyzany", "images": []}, {"id": 462649, "min_date": "2020-08-13T07:53:00Z", "max_date": "2020-08-16T23:06:00Z", "count_points": 31, "latitude": 49.05161, "longitude": 37.08504, "city": "Barvinkove", "images": []}, {"id": 462650, "min_date": "2020-08-13T07:53:00Z", "max_date": "2020-08-15T07:41:00Z", "count_points": 2, "latitude": 47.7054, "longitude": 38.59265, "city": "Amvrosiyivka", "images": []}, {"id": 462651, "min_date": "2020-08-13T09:31:00Z", "max_date": "2020-08-13T09:31:00Z", "count_points": 1, "latitude": 49.7706, "longitude": 29.8132, "city": "Skvyra", "images": []}, {"id": 462652, "min_date": "2020-08-13T09:31:00Z", "max_date": "2020-08-13T11:48:00Z", "count_points": 6, "latitude": 49.75186, "longitude": 24.3229, "city": "Verkhnyaya Belka", "images": []}, {"id": 462653, "min_date": "2020-08-13T09:31:00Z", "max_date": "2020-08-13T09:31:00Z", "count_points": 1, "latitude": 49.3722, "longitude": 25.1588, "city": "Kozova", "images": []}, {"id": 462654, "min_date": "2020-08-13T09:31:00Z", "max_date": "2020-08-13T09:31:00Z", "count_points": 1, "latitude": 48.9406, "longitude": 25.7031, "city": "Yahil\u2019nytsya", "images": []}, {"id": 462655, "min_date": "2020-08-13T09:31:00Z", "max_date": "2020-08-13T09:31:00Z", "count_points": 1, "latitude": 50.748, "longitude": 25.9026, "city": "Klevan\u2019", "images": []}, {"id": 462656, "min_date": "2020-08-13T09:31:00Z", "max_date": "2020-08-13T09:31:00Z", "count_points": 2, "latitude": 48.05755, "longitude": 38.9979, "city": "Kripens\u2019kyy", "images": []}, {"id": 462657, "min_date": "2020-08-13T11:15:00Z", "max_date": "2020-08-13T11:15:00Z", "count_points": 1, "latitude": 47.6705, "longitude": 32.5403, "city": "Novyy Buh", "images": []}, {"id": 462658, "min_date": "2020-08-13T11:15:00Z", "max_date": "2020-08-13T11:15:00Z", "count_points": 1, "latitude": 46.2412, "longitude": 33.3297, "city": "Kalanchak", "images": []}, {"id": 462659, "min_date": "2020-08-13T11:15:00Z", "max_date": "2020-08-13T00:18:00Z", "count_points": 4, "latitude": 47.38324, "longitude": 37.2579, "city": "Rozivka", "images": []}, {"id": 462660, "min_date": "2020-08-13T11:15:00Z", "max_date": "2020-08-13T11:15:00Z", "count_points": 1, "latitude": 47.5292, "longitude": 33.7647, "city": "Apostolove", "images": []}, {"id": 462661, "min_date": "2020-08-13T11:15:00Z", "max_date": "2020-08-13T11:15:00Z", "count_points": 1, "latitude": 47.685, "longitude": 35.5425, "city": "Komyshuvakha", "images": []}, {"id": 462662, "min_date": "2020-08-13T11:16:00Z", "max_date": "2020-08-13T11:16:00Z", "count_points": 1, "latitude": 48.5954, "longitude": 25.2683, "city": "Zabolotiv", "images": []}, {"id": 462663, "min_date": "2020-08-13T11:16:00Z", "max_date": "2020-08-16T23:06:00Z", "count_points": 14, "latitude": 48.99494, "longitude": 25.74653, "city": "Chortkiv", "images": []}, {"id": 462664, "min_date": "2020-08-13T11:16:00Z", "max_date": "2020-08-13T11:48:00Z", "count_points": 5, "latitude": 51.0576, "longitude": 28.44088, "city": "Luhyny", "images": []}, {"id": 462665, "min_date": "2020-08-13T11:16:00Z", "max_date": "2020-08-14T23:42:00Z", "count_points": 4, "latitude": 48.99272, "longitude": 35.83265, "city": "Sakhnovshchyna", "images": []}, {"id": 462666, "min_date": "2020-08-13T19:02:00Z", "max_date": "2020-08-14T00:00:00Z", "count_points": 3, "latitude": 48.14832, "longitude": 35.68621, "city": "Synel\u2019nykove", "images": []}, {"id": 462667, "min_date": "2020-08-13T19:02:00Z", "max_date": "2020-08-15T11:06:00Z", "count_points": 17, "latitude": 48.71382, "longitude": 37.67489, "city": "Kramators\u2019k", "images": []}, {"id": 462668, "min_date": "2020-08-13T19:02:00Z", "max_date": "2020-08-13T19:02:00Z", "count_points": 1, "latitude": 48.5979, "longitude": 37.5688, "city": "Druzhkivka", "images": []}, {"id": 462669, "min_date": "2020-08-13T19:03:00Z", "max_date": "2020-08-13T19:03:00Z", "count_points": 2, "latitude": 49.91375, "longitude": 37.8288, "city": "Dvorichna", "images": []}, {"id": 462670, "min_date": "2020-08-14T08:35:00Z", "max_date": "2020-08-14T08:35:00Z", "count_points": 1, "latitude": 49.6719, "longitude": 36.8025, "city": "Malynivka", "images": []}, {"id": 462671, "min_date": "2020-08-14T08:36:00Z", "max_date": "2020-08-14T08:36:00Z", "count_points": 1, "latitude": 47.0928, "longitude": 31.6363, "city": "Olshanskoye", "images": []}, {"id": 462672, "min_date": "2020-08-14T08:36:00Z", "max_date": "2020-08-15T23:24:00Z", "count_points": 6, "latitude": 48.55662, "longitude": 39.61165, "city": "Stanytsya Luhans\u2019ka", "images": []}, {"id": 462673, "min_date": "2020-08-14T08:36:00Z", "max_date": "2020-08-14T00:00:00Z", "count_points": 7, "latitude": 48.14649, "longitude": 32.47449, "city": "Molodizhne", "images": []}, {"id": 462674, "min_date": "2020-08-14T10:14:00Z", "max_date": "2020-08-14T11:30:00Z", "count_points": 6, "latitude": 48.88092, "longitude": 25.65252, "city": "Nyrkiv", "images": []}, {"id": 462675, "min_date": "2020-08-14T10:21:00Z", "max_date": "2020-08-14T10:21:00Z", "count_points": 1, "latitude": 51.3235, "longitude": 29.163, "city": "Narodychi", "images": []}, {"id": 462676, "min_date": "2020-08-14T11:59:00Z", "max_date": "2020-08-14T11:59:00Z", "count_points": 2, "latitude": 49.336, "longitude": 24.32655, "city": "Khodoriv", "images": []}, {"id": 462677, "min_date": "2020-08-14T19:45:00Z", "max_date": "2020-08-14T23:42:00Z", "count_points": 5, "latitude": 48.72578, "longitude": 35.64247, "city": "Melioratyvne", "images": []}, {"id": 462678, "min_date": "2020-08-14T19:45:00Z", "max_date": "2020-08-15T23:24:00Z", "count_points": 16, "latitude": 48.9699, "longitude": 35.0066, "city": "Mahdalynivka", "images": []}, {"id": 462679, "min_date": "2020-08-14T19:45:00Z", "max_date": "2020-08-14T19:45:00Z", "count_points": 1, "latitude": 49.1099, "longitude": 35.7241, "city": "Sakhnovshchyna", "images": []}, {"id": 462680, "min_date": "2020-08-14T19:45:00Z", "max_date": "2020-08-14T19:45:00Z", "count_points": 1, "latitude": 48.7804, "longitude": 38.0694, "city": "Sivers\u2019k", "images": []}, {"id": 462681, "min_date": "2020-08-15T07:40:00Z", "max_date": "2020-08-11T00:54:00Z", "count_points": 4, "latitude": 48.29904, "longitude": 37.60323, "city": "Shcherbynivka", "images": []}, {"id": 462682, "min_date": "2020-08-15T07:40:00Z", "max_date": "2020-08-15T07:40:00Z", "count_points": 2, "latitude": 48.29855, "longitude": 37.65445, "city": "Shcherbynivka", "images": []}, {"id": 462683, "min_date": "2020-08-15T07:41:00Z", "max_date": "2020-08-16T08:24:00Z", "count_points": 3, "latitude": 47.05797, "longitude": 35.9446, "city": "Rozivka", "images": []}, {"id": 462684, "min_date": "2020-08-15T09:18:00Z", "max_date": "2020-08-15T11:12:00Z", "count_points": 3, "latitude": 51.62361, "longitude": 32.43598, "city": "Sosnytsya", "images": []}, {"id": 462686, "min_date": "2020-08-15T09:18:00Z", "max_date": "2020-08-15T09:18:00Z", "count_points": 3, "latitude": 50.69687, "longitude": 30.2131, "city": "Katyuzhanka", "images": []}, {"id": 462687, "min_date": "2020-08-15T09:18:00Z", "max_date": "2020-08-15T09:18:00Z", "count_points": 1, "latitude": 50.6067, "longitude": 27.8192, "city": "Novohrad-Volynskyi", "images": []}, {"id": 462688, "min_date": "2020-08-15T09:18:00Z", "max_date": "2020-08-15T09:18:00Z", "count_points": 1, "latitude": 47.9691, "longitude": 38.7465, "city": "Snizhne", "images": []}, {"id": 462689, "min_date": "2020-08-15T09:18:00Z", "max_date": "2020-08-15T09:18:00Z", "count_points": 1, "latitude": 49.0352, "longitude": 34.9878, "city": "Mahdalynivka", "images": []}, {"id": 462690, "min_date": "2020-08-15T09:18:00Z", "max_date": "2020-08-15T09:18:00Z", "count_points": 1, "latitude": 50.4936, "longitude": 27.8304, "city": "Dovbysh", "images": []}, {"id": 462691, "min_date": "2020-08-15T09:18:00Z", "max_date": "2020-08-15T09:18:00Z", "count_points": 1, "latitude": 50.4547, "longitude": 28.5808, "city": "Cherniakhiv", "images": []}, {"id": 462692, "min_date": "2020-08-15T09:18:00Z", "max_date": "2020-08-15T11:06:00Z", "count_points": 2, "latitude": 50.49789, "longitude": 30.99415, "city": "Trebukhiv", "images": []}, {"id": 462693, "min_date": "2020-08-15T09:19:00Z", "max_date": "2020-08-15T09:19:00Z", "count_points": 1, "latitude": 48.0128, "longitude": 32.8925, "city": "Dolynska", "images": []}, {"id": 462694, "min_date": "2020-08-15T09:19:00Z", "max_date": "2020-08-15T01:24:00Z", "count_points": 3, "latitude": 49.15525, "longitude": 28.79597, "city": "Voronovytsya", "images": []}, {"id": 462695, "min_date": "2020-08-15T09:19:00Z", "max_date": "2020-08-15T09:30:00Z", "count_points": 2, "latitude": 48.38759, "longitude": 35.0488, "city": "Aviatorske", "images": []}, {"id": 462696, "min_date": "2020-08-15T09:19:00Z", "max_date": "2020-08-15T09:19:00Z", "count_points": 1, "latitude": 49.9286, "longitude": 26.6595, "city": "Lyakhovtsy", "images": []}, {"id": 462697, "min_date": "2020-08-15T09:19:00Z", "max_date": "2020-08-15T09:19:00Z", "count_points": 1, "latitude": 50.0821, "longitude": 26.3519, "city": "Lyakhovtsy", "images": []}, {"id": 462698, "min_date": "2020-08-15T09:19:00Z", "max_date": "2020-08-15T11:06:00Z", "count_points": 13, "latitude": 50.01335, "longitude": 27.31142, "city": "Novoselytsya", "images": []}, {"id": 462699, "min_date": "2020-08-15T09:19:00Z", "max_date": "2020-08-15T09:30:00Z", "count_points": 3, "latitude": 49.71486, "longitude": 29.68953, "city": "Skvyra", "images": []}, {"id": 462700, "min_date": "2020-08-15T09:19:00Z", "max_date": "2020-08-15T09:30:00Z", "count_points": 6, "latitude": 48.44514, "longitude": 28.14118, "city": "Chernivtsi", "images": []}, {"id": 462701, "min_date": "2020-08-15T09:19:00Z", "max_date": "2020-08-15T09:19:00Z", "count_points": 1, "latitude": 47.1855, "longitude": 31.6578, "city": "Olshanskoye", "images": []}, {"id": 462702, "min_date": "2020-08-15T09:19:00Z", "max_date": "2020-08-15T09:19:00Z", "count_points": 1, "latitude": 46.7476, "longitude": 31.8164, "city": "Parutyne", "images": []}, {"id": 462703, "min_date": "2020-08-15T09:19:00Z", "max_date": "2020-08-15T09:19:00Z", "count_points": 1, "latitude": 48.9783, "longitude": 26.1711, "city": "Husiatyn", "images": []}, {"id": 462704, "min_date": "2020-08-15T11:03:00Z", "max_date": "2020-08-15T11:06:00Z", "count_points": 6, "latitude": 48.30897, "longitude": 37.19316, "city": "Krasnoarmiys\u2019k", "images": []}, {"id": 462705, "min_date": "2020-08-15T11:03:00Z", "max_date": "2020-08-15T11:06:00Z", "count_points": 17, "latitude": 47.98462, "longitude": 39.71755, "city": "Biryukove", "images": []}, {"id": 462706, "min_date": "2020-08-15T11:03:00Z", "max_date": "2020-08-15T11:06:00Z", "count_points": 4, "latitude": 48.00995, "longitude": 37.17706, "city": "Kurakhovo", "images": []}, {"id": 462707, "min_date": "2020-08-15T11:03:00Z", "max_date": "2020-08-15T23:24:00Z", "count_points": 6, "latitude": 48.3199, "longitude": 39.48344, "city": "Simeykyne", "images": []}, {"id": 462708, "min_date": "2020-08-15T11:03:00Z", "max_date": "2020-08-15T11:06:00Z", "count_points": 7, "latitude": 48.41846, "longitude": 39.42838, "city": "Simeykyne", "images": []}, {"id": 462709, "min_date": "2020-08-15T11:03:00Z", "max_date": "2020-08-15T23:24:00Z", "count_points": 16, "latitude": 48.45823, "longitude": 37.82953, "city": "Dzerzhyns\u2019k", "images": []}, {"id": 462710, "min_date": "2020-08-15T11:03:00Z", "max_date": "2020-08-15T23:24:00Z", "count_points": 5, "latitude": 48.68854, "longitude": 39.26296, "city": "Shchastya", "images": []}, {"id": 462711, "min_date": "2020-08-15T11:04:00Z", "max_date": "2020-08-15T11:06:00Z", "count_points": 2, "latitude": 48.70008, "longitude": 28.2731, "city": "Sharhorod", "images": []}, {"id": 462712, "min_date": "2020-08-15T11:04:00Z", "max_date": "2020-08-16T08:23:00Z", "count_points": 3, "latitude": 49.42843, "longitude": 31.9939, "city": "Cherkasy", "images": []}, {"id": 462713, "min_date": "2020-08-15T11:04:00Z", "max_date": "2020-08-15T11:06:00Z", "count_points": 7, "latitude": 48.64344, "longitude": 25.12382, "city": "Obertyn", "images": []}, {"id": 462714, "min_date": "2020-08-15T11:04:00Z", "max_date": "2020-08-15T11:04:00Z", "count_points": 1, "latitude": 48.4291, "longitude": 22.3684, "city": "Batiovo", "images": []}, {"id": 462715, "min_date": "2020-08-15T11:04:00Z", "max_date": "2020-08-15T11:04:00Z", "count_points": 1, "latitude": 48.9977, "longitude": 24.23, "city": "Broshniv-Osada", "images": []}, {"id": 462716, "min_date": "2020-08-15T11:04:00Z", "max_date": "2020-08-15T11:06:00Z", "count_points": 4, "latitude": 49.17512, "longitude": 24.61942, "city": "Burshtyn", "images": []}, {"id": 462717, "min_date": "2020-08-15T11:04:00Z", "max_date": "2020-08-15T11:04:00Z", "count_points": 1, "latitude": 49.3638, "longitude": 25.2949, "city": "Kozova", "images": []}, {"id": 462718, "min_date": "2020-08-15T11:04:00Z", "max_date": "2020-08-15T09:30:00Z", "count_points": 3, "latitude": 49.54519, "longitude": 24.83664, "city": "Pomoriany", "images": []}, {"id": 462719, "min_date": "2020-08-15T11:04:00Z", "max_date": "2020-08-15T11:06:00Z", "count_points": 14, "latitude": 50.68382, "longitude": 28.07464, "city": "Pulyny", "images": []}, {"id": 462720, "min_date": "2020-08-15T11:04:00Z", "max_date": "2020-08-15T11:06:00Z", "count_points": 2, "latitude": 48.40293, "longitude": 28.01118, "city": "Chernivtsi", "images": []}, {"id": 462721, "min_date": "2020-08-15T18:50:00Z", "max_date": "2020-08-15T18:50:00Z", "count_points": 2, "latitude": 47.2651, "longitude": 36.76435, "city": "Komysh-Zorya", "images": []}, {"id": 462722, "min_date": "2020-08-15T22:59:00Z", "max_date": "2020-08-16T01:00:00Z", "count_points": 8, "latitude": 48.28234, "longitude": 36.87589, "city": "Mezhova", "images": []}, {"id": 462723, "min_date": "2020-08-16T08:23:00Z", "max_date": "2020-08-16T10:48:00Z", "count_points": 8, "latitude": 48.32373, "longitude": 38.48657, "city": "Chornukhyne", "images": []}, {"id": 462724, "min_date": "2020-08-16T08:23:00Z", "max_date": "2020-08-16T08:23:00Z", "count_points": 1, "latitude": 49.7648, "longitude": 34.853, "city": "Oposhnya", "images": []}, {"id": 462725, "min_date": "2020-08-16T08:23:00Z", "max_date": "2020-08-16T08:23:00Z", "count_points": 1, "latitude": 48.6261, "longitude": 35.8428, "city": "Pavlohrad", "images": []}, {"id": 462726, "min_date": "2020-08-16T08:24:00Z", "max_date": "2020-08-16T10:48:00Z", "count_points": 19, "latitude": 48.1982, "longitude": 38.73863, "city": "Krasnyy Kut", "images": []}, {"id": 462727, "min_date": "2020-08-16T08:24:00Z", "max_date": "2020-08-16T09:06:00Z", "count_points": 5, "latitude": 48.23042, "longitude": 37.31536, "city": "Selydove", "images": []}, {"id": 462728, "min_date": "2020-08-16T08:24:00Z", "max_date": "2020-08-16T09:06:00Z", "count_points": 2, "latitude": 48.20075, "longitude": 37.58694, "city": "Avdiyivka", "images": []}, {"id": 462729, "min_date": "2020-08-16T08:24:00Z", "max_date": "2020-08-16T23:06:00Z", "count_points": 8, "latitude": 48.16758, "longitude": 36.00644, "city": "Vasyl\u2019kivka", "images": []}, {"id": 462730, "min_date": "2020-08-16T08:24:00Z", "max_date": "2020-08-16T23:06:00Z", "count_points": 10, "latitude": 48.33571, "longitude": 33.77108, "city": "Piatykhatky", "images": []}, {"id": 462731, "min_date": "2020-08-16T08:24:00Z", "max_date": "2020-08-16T23:06:00Z", "count_points": 4, "latitude": 48.02149, "longitude": 36.64714, "city": "Mezhova", "images": []}, {"id": 462732, "min_date": "2020-08-16T08:24:00Z", "max_date": "2020-08-16T10:48:00Z", "count_points": 8, "latitude": 47.76695, "longitude": 38.26692, "city": "Kuteynykove", "images": []}, {"id": 462733, "min_date": "2020-08-16T08:24:00Z", "max_date": "2020-08-16T10:48:00Z", "count_points": 5, "latitude": 47.74645, "longitude": 37.59089, "city": "Dokuchayevs\u2019k", "images": []}, {"id": 462734, "min_date": "2020-08-16T08:24:00Z", "max_date": "2020-08-16T23:06:00Z", "count_points": 4, "latitude": 48.06386, "longitude": 34.28661, "city": "Novopokrovka", "images": []}, {"id": 462735, "min_date": "2020-08-16T08:24:00Z", "max_date": "2020-08-14T09:48:00Z", "count_points": 3, "latitude": 47.50286, "longitude": 35.80254, "city": "Preobrazhenka", "images": []}, {"id": 462736, "min_date": "2020-08-16T08:24:00Z", "max_date": "2020-08-16T10:48:00Z", "count_points": 18, "latitude": 47.21028, "longitude": 38.06147, "city": "Novoazovsk", "images": []}, {"id": 462737, "min_date": "2020-08-16T08:24:00Z", "max_date": "2020-08-16T10:48:00Z", "count_points": 16, "latitude": 47.59354, "longitude": 33.8257, "city": "Apostolove", "images": []}, {"id": 462738, "min_date": "2020-08-16T08:24:00Z", "max_date": "2020-08-16T08:24:00Z", "count_points": 2, "latitude": 47.4259, "longitude": 33.84505, "city": "Novovorontsovka", "images": []}, {"id": 462739, "min_date": "2020-08-16T08:24:00Z", "max_date": "2020-08-16T08:24:00Z", "count_points": 2, "latitude": 46.82725, "longitude": 36.06565, "city": "Prymors\u2019k", "images": []}, {"id": 462740, "min_date": "2020-08-16T08:24:00Z", "max_date": "2020-08-16T08:24:00Z", "count_points": 1, "latitude": 46.7124, "longitude": 34.432, "city": "Ivanivka", "images": []}, {"id": 462741, "min_date": "2020-08-16T10:01:00Z", "max_date": "2020-08-16T10:48:00Z", "count_points": 3, "latitude": 49.4426, "longitude": 27.08656, "city": "Khmelnytskyi", "images": []}, {"id": 462742, "min_date": "2020-08-16T10:01:00Z", "max_date": "2020-08-16T10:01:00Z", "count_points": 1, "latitude": 49.9852, "longitude": 23.9766, "city": "Zhovkva", "images": []}, {"id": 462743, "min_date": "2020-08-16T10:01:00Z", "max_date": "2020-08-16T10:48:00Z", "count_points": 2, "latitude": 49.82574, "longitude": 26.30593, "city": "Teofipol", "images": []}, {"id": 462744, "min_date": "2020-08-16T10:01:00Z", "max_date": "2020-08-16T10:01:00Z", "count_points": 1, "latitude": 49.9194, "longitude": 25.8924, "city": "Lanivtsi", "images": []}, {"id": 462745, "min_date": "2020-08-16T10:01:00Z", "max_date": "2020-08-16T10:01:00Z", "count_points": 1, "latitude": 49.6253, "longitude": 28.7244, "city": "Kozyatyn", "images": []}, {"id": 462746, "min_date": "2020-08-16T10:02:00Z", "max_date": "2020-08-10T11:00:00Z", "count_points": 5, "latitude": 49.50341, "longitude": 23.5946, "city": "Komarno", "images": []}, {"id": 462747, "min_date": "2020-08-16T19:33:00Z", "max_date": "2020-08-16T23:06:00Z", "count_points": 4, "latitude": 48.30538, "longitude": 36.6115, "city": "Mezhova", "images": []}, {"id": 462748, "min_date": "2020-08-16T19:33:00Z", "max_date": "2020-08-16T23:06:00Z", "count_points": 6, "latitude": 48.4814, "longitude": 35.34599, "city": "Melioratyvne", "images": []}, {"id": 462749, "min_date": "2020-08-16T19:33:00Z", "max_date": "2020-08-16T23:06:00Z", "count_points": 4, "latitude": 48.9212, "longitude": 36.65911, "city": "Blyznyuky", "images": []}, {"id": 462750, "min_date": "2020-08-16T19:33:00Z", "max_date": "2020-08-16T19:33:00Z", "count_points": 1, "latitude": 49.4589, "longitude": 39.1033, "city": "Novopskov", "images": []}, {"id": 462751, "min_date": "2020-08-16T19:33:00Z", "max_date": "2020-08-16T19:33:00Z", "count_points": 4, "latitude": 49.08265, "longitude": 34.9525, "city": "Mahdalynivka", "images": []}, {"id": 462752, "min_date": "2020-08-16T19:33:00Z", "max_date": "2020-08-16T23:06:00Z", "count_points": 6, "latitude": 48.45477, "longitude": 25.84926, "city": "Zastavna", "images": [{"image_url": "462752.jpg", "timestamp": "2020-08-16T23:06:00Z"}]}, {"id": 462753, "min_date": "2020-08-16T19:33:00Z", "max_date": "2020-08-16T19:33:00Z", "count_points": 2, "latitude": 49.90615, "longitude": 33.50855, "city": "Myrhorod", "images": []}, {"id": 462754, "min_date": "2020-08-16T23:41:00Z", "max_date": "2020-08-16T23:06:00Z", "count_points": 6, "latitude": 48.94309, "longitude": 35.55921, "city": "Hubynykha", "images": []}, {"id": 462755, "min_date": "2020-08-16T23:41:00Z", "max_date": "2020-08-16T23:41:00Z", "count_points": 1, "latitude": 48.8054, "longitude": 37.7988, "city": "Krasnyy Lyman", "images": []}, {"id": 462756, "min_date": "2020-08-10T01:12:00Z", "max_date": "2020-08-10T01:12:00Z", "count_points": 1, "latitude": 47.62632, "longitude": 32.49715, "city": "Novyy Buh", "images": []}, {"id": 462757, "min_date": "2020-08-10T01:12:00Z", "max_date": "2020-08-10T01:12:00Z", "count_points": 4, "latitude": 48.78384, "longitude": 29.01315, "city": "Bratslav", "images": []}, {"id": 462758, "min_date": "2020-08-10T09:24:00Z", "max_date": "2020-08-10T09:24:00Z", "count_points": 1, "latitude": 47.57492, "longitude": 37.21256, "city": "Rozivka", "images": []}, {"id": 462759, "min_date": "2020-08-10T09:24:00Z", "max_date": "2020-08-10T09:24:00Z", "count_points": 1, "latitude": 48.61753, "longitude": 37.59894, "city": "Druzhkivka", "images": []}, {"id": 462760, "min_date": "2020-08-10T09:24:00Z", "max_date": "2020-08-10T09:24:00Z", "count_points": 1, "latitude": 47.85881, "longitude": 36.18657, "city": "Ternuvate", "images": []}, {"id": 462761, "min_date": "2020-08-10T09:24:00Z", "max_date": "2020-08-10T09:24:00Z", "count_points": 3, "latitude": 48.15995, "longitude": 38.53784, "city": "Rozsypne", "images": []}, {"id": 462762, "min_date": "2020-08-10T09:24:00Z", "max_date": "2020-08-10T09:24:00Z", "count_points": 1, "latitude": 48.13857, "longitude": 35.75029, "city": "Novomykolayivka", "images": []}, {"id": 462763, "min_date": "2020-08-10T09:24:00Z", "max_date": "2020-08-10T11:00:00Z", "count_points": 4, "latitude": 48.10382, "longitude": 37.73221, "city": "Avdiyivka", "images": []}, {"id": 462764, "min_date": "2020-08-10T09:24:00Z", "max_date": "2020-08-10T09:24:00Z", "count_points": 1, "latitude": 49.36432, "longitude": 39.67758, "city": "Bilovodsk", "images": []}, {"id": 462765, "min_date": "2020-08-10T09:24:00Z", "max_date": "2020-08-16T23:06:00Z", "count_points": 6, "latitude": 48.26508, "longitude": 37.69977, "city": "Shcherbynivka", "images": []}, {"id": 462766, "min_date": "2020-08-10T09:24:00Z", "max_date": "2020-08-10T09:24:00Z", "count_points": 3, "latitude": 47.9607, "longitude": 39.61905, "city": "Biryukove", "images": []}, {"id": 462767, "min_date": "2020-08-10T09:24:00Z", "max_date": "2020-08-10T23:18:00Z", "count_points": 3, "latitude": 48.90075, "longitude": 36.42472, "city": "Lozova", "images": []}, {"id": 462768, "min_date": "2020-08-10T09:24:00Z", "max_date": "2020-08-11T22:54:00Z", "count_points": 4, "latitude": 48.32519, "longitude": 36.00506, "city": "Vasyl\u2019kivka", "images": []}, {"id": 462769, "min_date": "2020-08-10T09:24:00Z", "max_date": "2020-08-10T09:24:00Z", "count_points": 1, "latitude": 51.61988, "longitude": 33.82042, "city": "Hlukhiv", "images": []}, {"id": 462770, "min_date": "2020-08-10T09:24:00Z", "max_date": "2020-08-10T09:24:00Z", "count_points": 1, "latitude": 47.75248, "longitude": 35.48616, "city": "Komyshuvakha", "images": []}, {"id": 462771, "min_date": "2020-08-10T09:24:00Z", "max_date": "2020-08-11T00:54:00Z", "count_points": 3, "latitude": 48.16214, "longitude": 38.65676, "city": "Rozsypne", "images": []}, {"id": 462772, "min_date": "2020-08-10T09:24:00Z", "max_date": "2020-08-10T09:24:00Z", "count_points": 1, "latitude": 49.36512, "longitude": 39.56613, "city": "Markivka", "images": []}, {"id": 462773, "min_date": "2020-08-10T09:24:00Z", "max_date": "2020-08-10T11:00:00Z", "count_points": 3, "latitude": 47.2109, "longitude": 35.03527, "city": "Tymoshivka", "images": []}, {"id": 462774, "min_date": "2020-08-10T09:24:00Z", "max_date": "2020-08-10T09:24:00Z", "count_points": 2, "latitude": 46.69232, "longitude": 34.90414, "city": "Yakymivka", "images": []}, {"id": 462775, "min_date": "2020-08-10T09:24:00Z", "max_date": "2020-08-10T09:24:00Z", "count_points": 1, "latitude": 48.93276, "longitude": 37.60821, "city": "Sloviansk", "images": []}, {"id": 462776, "min_date": "2020-08-10T09:24:00Z", "max_date": "2020-08-10T09:24:00Z", "count_points": 1, "latitude": 48.96001, "longitude": 37.60878, "city": "Svyatogorsk", "images": []}, {"id": 462777, "min_date": "2020-08-10T09:24:00Z", "max_date": "2020-08-10T09:24:00Z", "count_points": 1, "latitude": 48.94114, "longitude": 39.13541, "city": "Novoaydar", "images": []}, {"id": 462778, "min_date": "2020-08-10T09:24:00Z", "max_date": "2020-08-10T23:18:00Z", "count_points": 6, "latitude": 47.38009, "longitude": 37.21174, "city": "Rozivka", "images": []}, {"id": 462779, "min_date": "2020-08-10T11:00:00Z", "max_date": "2020-08-10T11:00:00Z", "count_points": 2, "latitude": 49.83886, "longitude": 27.48658, "city": "Novoselytsya", "images": []}, {"id": 462780, "min_date": "2020-08-10T11:00:00Z", "max_date": "2020-08-10T11:00:00Z", "count_points": 1, "latitude": 51.30957, "longitude": 24.40866, "city": "Stara Vyzhivka", "images": []}, {"id": 462781, "min_date": "2020-08-10T11:00:00Z", "max_date": "2020-08-14T00:00:00Z", "count_points": 3, "latitude": 47.22509, "longitude": 37.44136, "city": "Staryy Krym", "images": []}, {"id": 462782, "min_date": "2020-08-10T11:00:00Z", "max_date": "2020-08-10T11:00:00Z", "count_points": 1, "latitude": 47.6626, "longitude": 35.61173, "city": "Kirove", "images": []}, {"id": 462783, "min_date": "2020-08-10T11:00:00Z", "max_date": "2020-08-10T11:00:00Z", "count_points": 1, "latitude": 49.47322, "longitude": 24.40064, "city": "Khodoriv", "images": []}, {"id": 462784, "min_date": "2020-08-10T11:00:00Z", "max_date": "2020-08-11T10:42:00Z", "count_points": 5, "latitude": 50.55803, "longitude": 27.01024, "city": "Korets", "images": [{"image_url": "462784.jpg", "timestamp": "2020-08-11T10:42:00Z"}]}, {"id": 462785, "min_date": "2020-08-10T11:00:00Z", "max_date": "2020-08-10T11:00:00Z", "count_points": 2, "latitude": 50.50492, "longitude": 28.46895, "city": "Khoroshiv", "images": []}, {"id": 462786, "min_date": "2020-08-10T11:00:00Z", "max_date": "2020-08-10T11:00:00Z", "count_points": 1, "latitude": 48.95773, "longitude": 34.76652, "city": "Mahdalynivka", "images": []}, {"id": 462787, "min_date": "2020-08-10T11:00:00Z", "max_date": "2020-08-10T11:00:00Z", "count_points": 1, "latitude": 46.51615, "longitude": 34.46915, "city": "Novotroyits\u2019ke", "images": []}, {"id": 462788, "min_date": "2020-08-10T11:00:00Z", "max_date": "2020-08-10T11:00:00Z", "count_points": 1, "latitude": 50.86412, "longitude": 27.99476, "city": "Yemil\u2019chyne", "images": []}, {"id": 462789, "min_date": "2020-08-10T11:00:00Z", "max_date": "2020-08-10T23:18:00Z", "count_points": 2, "latitude": 47.16416, "longitude": 38.14167, "city": "Novoazovsk", "images": []}, {"id": 462790, "min_date": "2020-08-10T11:00:00Z", "max_date": "2020-08-10T11:00:00Z", "count_points": 1, "latitude": 49.91509, "longitude": 28.5993, "city": "Berdychiv", "images": []}, {"id": 462791, "min_date": "2020-08-10T11:00:00Z", "max_date": "2020-08-10T11:00:00Z", "count_points": 1, "latitude": 49.75179, "longitude": 27.46858, "city": "Stara Syniava", "images": []}, {"id": 462792, "min_date": "2020-08-10T11:00:00Z", "max_date": "2020-08-10T11:00:00Z", "count_points": 1, "latitude": 49.85381, "longitude": 28.68741, "city": "Berdychiv", "images": []}, {"id": 462793, "min_date": "2020-08-10T11:00:00Z", "max_date": "2020-08-10T11:00:00Z", "count_points": 1, "latitude": 49.74388, "longitude": 28.0729, "city": "Ulaniv", "images": []}, {"id": 462794, "min_date": "2020-08-10T11:00:00Z", "max_date": "2020-08-10T11:00:00Z", "count_points": 1, "latitude": 49.27931, "longitude": 23.97649, "city": "Stryi", "images": []}, {"id": 462795, "min_date": "2020-08-10T11:00:00Z", "max_date": "2020-08-10T11:00:00Z", "count_points": 1, "latitude": 47.2874, "longitude": 33.90901, "city": "Velyka Lepetykha", "images": []}, {"id": 462796, "min_date": "2020-08-10T11:00:00Z", "max_date": "2020-08-10T11:00:00Z", "count_points": 1, "latitude": 49.30131, "longitude": 30.44002, "city": "Kalynove", "images": []}, {"id": 462797, "min_date": "2020-08-10T11:00:00Z", "max_date": "2020-08-10T11:00:00Z", "count_points": 2, "latitude": 47.25231, "longitude": 38.28028, "city": "Syedove", "images": []}, {"id": 462798, "min_date": "2020-08-10T11:00:00Z", "max_date": "2020-08-10T11:00:00Z", "count_points": 2, "latitude": 49.28054, "longitude": 39.5875, "city": "Bilovodsk", "images": []}, {"id": 462799, "min_date": "2020-08-10T11:00:00Z", "max_date": "2020-08-10T11:00:00Z", "count_points": 1, "latitude": 48.68308, "longitude": 24.74448, "city": "Krasna", "images": []}, {"id": 462800, "min_date": "2020-08-10T11:00:00Z", "max_date": "2020-08-10T11:00:00Z", "count_points": 1, "latitude": 49.3329, "longitude": 23.76004, "city": "Medenychi", "images": []}, {"id": 462801, "min_date": "2020-08-10T11:00:00Z", "max_date": "2020-08-10T11:00:00Z", "count_points": 1, "latitude": 49.10522, "longitude": 27.67141, "city": "Bar", "images": []}, {"id": 462802, "min_date": "2020-08-10T11:00:00Z", "max_date": "2020-08-10T11:00:00Z", "count_points": 1, "latitude": 49.2462, "longitude": 39.21726, "city": "Starobil\u2019s\u2019k", "images": []}, {"id": 462803, "min_date": "2020-08-10T11:00:00Z", "max_date": "2020-08-10T11:00:00Z", "count_points": 1, "latitude": 49.62821, "longitude": 28.94363, "city": "Kozyatyn", "images": []}, {"id": 462804, "min_date": "2020-08-10T11:00:00Z", "max_date": "2020-08-10T11:00:00Z", "count_points": 1, "latitude": 47.90951, "longitude": 38.79961, "city": "Snizhne", "images": []}, {"id": 462805, "min_date": "2020-08-10T11:00:00Z", "max_date": "2020-08-10T11:00:00Z", "count_points": 1, "latitude": 48.53842, "longitude": 28.04585, "city": "Chernivtsi", "images": []}, {"id": 462806, "min_date": "2020-08-10T11:00:00Z", "max_date": "2020-08-10T11:00:00Z", "count_points": 3, "latitude": 46.22729, "longitude": 34.15673, "city": "Novotroyits\u2019ke", "images": []}, {"id": 462807, "min_date": "2020-08-10T11:00:00Z", "max_date": "2020-08-10T11:00:00Z", "count_points": 1, "latitude": 46.66528, "longitude": 34.56996, "city": "Ivanivka", "images": []}, {"id": 462808, "min_date": "2020-08-10T11:00:00Z", "max_date": "2020-08-10T11:00:00Z", "count_points": 2, "latitude": 47.92266, "longitude": 37.70079, "city": "Donetsk", "images": []}, {"id": 462809, "min_date": "2020-08-10T11:00:00Z", "max_date": "2020-08-10T11:00:00Z", "count_points": 2, "latitude": 48.17947, "longitude": 38.57152, "city": "Rozsypne", "images": []}, {"id": 462810, "min_date": "2020-08-10T23:12:00Z", "max_date": "2020-08-11T00:54:00Z", "count_points": 3, "latitude": 51.62457, "longitude": 31.66876, "city": "Sedniv", "images": []}, {"id": 462811, "min_date": "2020-08-10T23:18:00Z", "max_date": "2020-08-11T10:42:00Z", "count_points": 9, "latitude": 50.40935, "longitude": 35.90266, "city": "Zolochiv", "images": []}, {"id": 462812, "min_date": "2020-08-10T23:18:00Z", "max_date": "2020-08-10T23:18:00Z", "count_points": 1, "latitude": 48.31066, "longitude": 37.38813, "city": "Myrnohrad", "images": []}, {"id": 462813, "min_date": "2020-08-10T23:18:00Z", "max_date": "2020-08-10T23:18:00Z", "count_points": 1, "latitude": 48.05661, "longitude": 35.64266, "city": "Vil\u2019nyans\u2019k", "images": []}, {"id": 462814, "min_date": "2020-08-10T23:18:00Z", "max_date": "2020-08-10T23:18:00Z", "count_points": 4, "latitude": 47.95718, "longitude": 35.67762, "city": "Novomykolayivka", "images": []}, {"id": 462815, "min_date": "2020-08-10T23:18:00Z", "max_date": "2020-08-10T23:18:00Z", "count_points": 1, "latitude": 48.00745, "longitude": 36.74225, "city": "Velyka Novosilka", "images": []}, {"id": 462816, "min_date": "2020-08-10T23:18:00Z", "max_date": "2020-08-14T00:00:00Z", "count_points": 3, "latitude": 49.21021, "longitude": 35.88825, "city": "Sakhnovshchyna", "images": []}, {"id": 462817, "min_date": "2020-08-10T23:18:00Z", "max_date": "2020-08-15T23:24:00Z", "count_points": 3, "latitude": 47.77817, "longitude": 36.74309, "city": "Velyka Novosilka", "images": []}, {"id": 462818, "min_date": "2020-08-10T23:18:00Z", "max_date": "2020-08-10T23:18:00Z", "count_points": 1, "latitude": 48.17001, "longitude": 36.15212, "city": "Vasyl\u2019kivka", "images": []}, {"id": 462819, "min_date": "2020-08-10T23:18:00Z", "max_date": "2020-08-10T23:18:00Z", "count_points": 1, "latitude": 48.18101, "longitude": 35.8025, "city": "Vasyl\u2019kivka", "images": []}, {"id": 462820, "min_date": "2020-08-10T23:18:00Z", "max_date": "2020-08-10T23:18:00Z", "count_points": 3, "latitude": 47.29109, "longitude": 36.94837, "city": "Rozivka", "images": []}, {"id": 462821, "min_date": "2020-08-10T23:18:00Z", "max_date": "2020-08-10T23:18:00Z", "count_points": 3, "latitude": 48.17598, "longitude": 37.41116, "city": "Selydove", "images": []}, {"id": 462822, "min_date": "2020-08-10T23:18:00Z", "max_date": "2020-08-10T23:18:00Z", "count_points": 3, "latitude": 49.25547, "longitude": 35.94526, "city": "Sakhnovshchyna", "images": []}, {"id": 462823, "min_date": "2020-08-10T23:18:00Z", "max_date": "2020-08-10T23:18:00Z", "count_points": 1, "latitude": 48.99505, "longitude": 36.66307, "city": "Blyznyuky", "images": []}, {"id": 462824, "min_date": "2020-08-10T23:18:00Z", "max_date": "2020-08-10T23:18:00Z", "count_points": 1, "latitude": 46.71079, "longitude": 36.18713, "city": "Prymors\u2019k", "images": []}, {"id": 462825, "min_date": "2020-08-10T23:18:00Z", "max_date": "2020-08-10T23:18:00Z", "count_points": 3, "latitude": 50.22697, "longitude": 37.19016, "city": "Prykolotne", "images": []}, {"id": 462826, "min_date": "2020-08-10T23:18:00Z", "max_date": "2020-08-16T10:48:00Z", "count_points": 3, "latitude": 48.86803, "longitude": 37.01399, "city": "Barvinkove", "images": []}, {"id": 462827, "min_date": "2020-08-10T23:18:00Z", "max_date": "2020-08-10T23:18:00Z", "count_points": 1, "latitude": 48.81927, "longitude": 36.93941, "city": "Oleksandrivka", "images": []}, {"id": 462828, "min_date": "2020-08-10T23:18:00Z", "max_date": "2020-08-11T22:54:00Z", "count_points": 4, "latitude": 48.6486, "longitude": 36.6874, "city": "Oleksandrivka", "images": []}, {"id": 462829, "min_date": "2020-08-10T23:18:00Z", "max_date": "2020-08-10T23:18:00Z", "count_points": 1, "latitude": 48.20228, "longitude": 35.88978, "city": "Vasyl\u2019kivka", "images": []}, {"id": 462830, "min_date": "2020-08-10T23:18:00Z", "max_date": "2020-08-14T00:00:00Z", "count_points": 3, "latitude": 49.5987, "longitude": 37.38912, "city": "Shevchenkove", "images": []}, {"id": 462831, "min_date": "2020-08-10T23:18:00Z", "max_date": "2020-08-11T09:00:00Z", "count_points": 14, "latitude": 49.54196, "longitude": 36.9705, "city": "Balakliya", "images": [{"image_url": "462831.jpg", "timestamp": "2020-08-11T09:00:00Z"}]}, {"id": 462832, "min_date": "2020-08-10T23:18:00Z", "max_date": "2020-08-10T23:18:00Z", "count_points": 2, "latitude": 48.09403, "longitude": 36.96726, "city": "Krasnoarmiys\u2019k", "images": []}, {"id": 462833, "min_date": "2020-08-10T23:18:00Z", "max_date": "2020-08-12T10:24:00Z", "count_points": 4, "latitude": 49.16051, "longitude": 35.9731, "city": "Sakhnovshchyna", "images": []}, {"id": 462834, "min_date": "2020-08-10T23:18:00Z", "max_date": "2020-08-11T00:54:00Z", "count_points": 3, "latitude": 48.41071, "longitude": 38.4578, "city": "Debal\u2019tseve", "images": []}, {"id": 462835, "min_date": "2020-08-10T23:18:00Z", "max_date": "2020-08-10T23:18:00Z", "count_points": 3, "latitude": 48.68952, "longitude": 37.92232, "city": "Artemivs\u2019k", "images": []}, {"id": 462836, "min_date": "2020-08-10T23:18:00Z", "max_date": "2020-08-10T23:18:00Z", "count_points": 2, "latitude": 47.10536, "longitude": 34.53829, "city": "Velyka Bilozerka", "images": []}, {"id": 462837, "min_date": "2020-08-10T23:18:00Z", "max_date": "2020-08-10T23:18:00Z", "count_points": 1, "latitude": 49.96949, "longitude": 30.74733, "city": "Mirovka", "images": []}, {"id": 462838, "min_date": "2020-08-10T23:18:00Z", "max_date": "2020-08-10T23:18:00Z", "count_points": 1, "latitude": 49.24306, "longitude": 35.17544, "city": "Zachepylivka", "images": []}, {"id": 462839, "min_date": "2020-08-10T23:18:00Z", "max_date": "2020-08-10T23:18:00Z", "count_points": 2, "latitude": 48.81678, "longitude": 38.10283, "city": "Sivers\u2019k", "images": []}, {"id": 462840, "min_date": "2020-08-10T23:18:00Z", "max_date": "2020-08-12T22:36:00Z", "count_points": 3, "latitude": 47.98498, "longitude": 36.12289, "city": "Pokrovs\u2019ke", "images": []}, {"id": 462841, "min_date": "2020-08-10T23:18:00Z", "max_date": "2020-08-10T23:18:00Z", "count_points": 2, "latitude": 48.23185, "longitude": 35.84563, "city": "Vasyl\u2019kivka", "images": []}, {"id": 462842, "min_date": "2020-08-10T23:18:00Z", "max_date": "2020-08-10T23:18:00Z", "count_points": 1, "latitude": 46.84403, "longitude": 35.76758, "city": "Novovasylivka", "images": []}, {"id": 462843, "min_date": "2020-08-10T23:18:00Z", "max_date": "2020-08-12T10:24:00Z", "count_points": 3, "latitude": 47.06956, "longitude": 35.69056, "city": "Rozivka", "images": []}, {"id": 462844, "min_date": "2020-08-10T23:18:00Z", "max_date": "2020-08-10T23:18:00Z", "count_points": 1, "latitude": 47.21165, "longitude": 35.77822, "city": "Tokmak", "images": []}, {"id": 462845, "min_date": "2020-08-10T23:18:00Z", "max_date": "2020-08-10T23:18:00Z", "count_points": 1, "latitude": 47.27092, "longitude": 36.90696, "city": "Rozivka", "images": []}, {"id": 462846, "min_date": "2020-08-10T23:18:00Z", "max_date": "2020-08-10T23:18:00Z", "count_points": 2, "latitude": 47.72785, "longitude": 38.24955, "city": "Kuteynykove", "images": []}, {"id": 462847, "min_date": "2020-08-10T23:18:00Z", "max_date": "2020-08-10T23:18:00Z", "count_points": 1, "latitude": 47.7893, "longitude": 38.05061, "city": "Novyy Svit", "images": []}, {"id": 462848, "min_date": "2020-08-10T23:18:00Z", "max_date": "2020-08-10T23:18:00Z", "count_points": 1, "latitude": 47.87537, "longitude": 39.69952, "city": "Biryukove", "images": []}, {"id": 462849, "min_date": "2020-08-10T23:18:00Z", "max_date": "2020-08-10T23:18:00Z", "count_points": 2, "latitude": 47.59294, "longitude": 37.71642, "city": "Dokuchayevs\u2019k", "images": []}, {"id": 462850, "min_date": "2020-08-10T23:18:00Z", "max_date": "2020-08-16T09:06:00Z", "count_points": 5, "latitude": 47.48942, "longitude": 38.1292, "city": "Tel\u2019manove", "images": []}, {"id": 462851, "min_date": "2020-08-10T23:18:00Z", "max_date": "2020-08-10T23:18:00Z", "count_points": 2, "latitude": 47.59536, "longitude": 38.30174, "city": "Kuteynykove", "images": []}, {"id": 462852, "min_date": "2020-08-10T23:18:00Z", "max_date": "2020-08-10T23:18:00Z", "count_points": 1, "latitude": 49.22991, "longitude": 39.91466, "city": "Milove", "images": []}, {"id": 462853, "min_date": "2020-08-10T23:18:00Z", "max_date": "2020-08-10T23:18:00Z", "count_points": 1, "latitude": 47.99428, "longitude": 34.58879, "city": "Novopokrovka", "images": []}, {"id": 462854, "min_date": "2020-08-10T23:18:00Z", "max_date": "2020-08-10T23:18:00Z", "count_points": 1, "latitude": 47.27564, "longitude": 36.46384, "city": "Kuybysheve", "images": []}, {"id": 462855, "min_date": "2020-08-10T23:18:00Z", "max_date": "2020-08-10T23:18:00Z", "count_points": 2, "latitude": 47.43281, "longitude": 34.54799, "city": "Dniprovka", "images": []}, {"id": 462856, "min_date": "2020-08-10T23:18:00Z", "max_date": "2020-08-10T23:18:00Z", "count_points": 2, "latitude": 47.63975, "longitude": 38.30035, "city": "Kuteynykove", "images": []}, {"id": 462857, "min_date": "2020-08-10T23:18:00Z", "max_date": "2020-08-10T23:18:00Z", "count_points": 1, "latitude": 47.86132, "longitude": 36.75487, "city": "Velyka Novosilka", "images": []}, {"id": 462858, "min_date": "2020-08-10T23:18:00Z", "max_date": "2020-08-10T23:18:00Z", "count_points": 1, "latitude": 48.13264, "longitude": 37.10307, "city": "Krasnoarmiys\u2019k", "images": []}, {"id": 462859, "min_date": "2020-08-10T23:18:00Z", "max_date": "2020-08-10T23:18:00Z", "count_points": 2, "latitude": 46.37534, "longitude": 33.67883, "city": "Chaplynka", "images": []}, {"id": 462860, "min_date": "2020-08-10T23:18:00Z", "max_date": "2020-08-14T00:00:00Z", "count_points": 6, "latitude": 47.70026, "longitude": 37.02335, "city": "Velyka Novosilka", "images": []}, {"id": 462861, "min_date": "2020-08-10T23:18:00Z", "max_date": "2020-08-10T23:18:00Z", "count_points": 1, "latitude": 48.76301, "longitude": 37.98745, "city": "Soledar", "images": []}, {"id": 462862, "min_date": "2020-08-11T00:54:00Z", "max_date": "2020-08-11T22:54:00Z", "count_points": 4, "latitude": 49.41091, "longitude": 39.69366, "city": "Markivka", "images": []}, {"id": 462863, "min_date": "2020-08-11T00:54:00Z", "max_date": "2020-08-11T00:54:00Z", "count_points": 1, "latitude": 48.74624, "longitude": 30.16691, "city": "Uman\u2019", "images": []}, {"id": 462864, "min_date": "2020-08-11T00:54:00Z", "max_date": "2020-08-11T00:54:00Z", "count_points": 5, "latitude": 47.01567, "longitude": 36.79094, "city": "Osypenko", "images": []}, {"id": 462865, "min_date": "2020-08-11T00:54:00Z", "max_date": "2020-08-11T00:54:00Z", "count_points": 1, "latitude": 48.20791, "longitude": 36.55562, "city": "Mezhova", "images": []}, {"id": 462866, "min_date": "2020-08-11T00:54:00Z", "max_date": "2020-08-11T00:54:00Z", "count_points": 1, "latitude": 48.06413, "longitude": 23.7296, "city": "Neresnytsya", "images": []}, {"id": 462867, "min_date": "2020-08-11T00:54:00Z", "max_date": "2020-08-11T00:54:00Z", "count_points": 2, "latitude": 48.51007, "longitude": 37.63871, "city": "Kostyantynivka", "images": []}, {"id": 462868, "min_date": "2020-08-11T09:00:00Z", "max_date": "2020-08-11T09:00:00Z", "count_points": 1, "latitude": 48.20548, "longitude": 37.26566, "city": "Selydove", "images": []}, {"id": 462869, "min_date": "2020-08-11T09:00:00Z", "max_date": "2020-08-11T09:00:00Z", "count_points": 1, "latitude": 47.88092, "longitude": 36.64553, "city": "Velyka Novosilka", "images": []}, {"id": 462870, "min_date": "2020-08-11T09:00:00Z", "max_date": "2020-08-11T09:00:00Z", "count_points": 1, "latitude": 47.93832, "longitude": 36.81164, "city": "Velyka Novosilka", "images": []}, {"id": 462871, "min_date": "2020-08-11T09:06:00Z", "max_date": "2020-08-11T09:06:00Z", "count_points": 1, "latitude": 50.25284, "longitude": 37.29006, "city": "Prykolotne", "images": []}, {"id": 462872, "min_date": "2020-08-11T10:42:00Z", "max_date": "2020-08-11T10:42:00Z", "count_points": 1, "latitude": 49.82309, "longitude": 35.46041, "city": "Valky", "images": []}, {"id": 462873, "min_date": "2020-08-11T10:42:00Z", "max_date": "2020-08-11T10:42:00Z", "count_points": 1, "latitude": 51.74886, "longitude": 31.50419, "city": "Sedniv", "images": []}, {"id": 462874, "min_date": "2020-08-11T10:42:00Z", "max_date": "2020-08-11T10:42:00Z", "count_points": 1, "latitude": 48.23101, "longitude": 35.88898, "city": "Vasyl\u2019kivka", "images": []}, {"id": 462875, "min_date": "2020-08-11T10:42:00Z", "max_date": "2020-08-11T10:42:00Z", "count_points": 1, "latitude": 48.25772, "longitude": 34.27986, "city": "Krynychky", "images": []}, {"id": 462876, "min_date": "2020-08-11T10:42:00Z", "max_date": "2020-08-11T10:42:00Z", "count_points": 1, "latitude": 49.56982, "longitude": 26.42012, "city": "Bazaliya", "images": []}, {"id": 462877, "min_date": "2020-08-11T10:42:00Z", "max_date": "2020-08-15T23:24:00Z", "count_points": 3, "latitude": 48.12789, "longitude": 34.54802, "city": "Novopokrovka", "images": []}, {"id": 462878, "min_date": "2020-08-11T10:42:00Z", "max_date": "2020-08-11T10:42:00Z", "count_points": 1, "latitude": 48.63604, "longitude": 36.61192, "city": "Blyznyuky", "images": []}, {"id": 462879, "min_date": "2020-08-11T10:42:00Z", "max_date": "2020-08-11T10:42:00Z", "count_points": 1, "latitude": 47.83985, "longitude": 33.72609, "city": "Apostolove", "images": []}, {"id": 462880, "min_date": "2020-08-11T10:42:00Z", "max_date": "2020-08-16T10:48:00Z", "count_points": 2, "latitude": 48.38209, "longitude": 37.17718, "city": "Bilyts\u2019ke", "images": []}, {"id": 462881, "min_date": "2020-08-11T10:42:00Z", "max_date": "2020-08-11T10:42:00Z", "count_points": 2, "latitude": 50.84865, "longitude": 31.59069, "city": "Nosivka", "images": []}, {"id": 462882, "min_date": "2020-08-11T10:42:00Z", "max_date": "2020-08-15T09:30:00Z", "count_points": 4, "latitude": 48.65806, "longitude": 38.14629, "city": "Soledar", "images": []}, {"id": 462883, "min_date": "2020-08-11T10:42:00Z", "max_date": "2020-08-16T23:06:00Z", "count_points": 18, "latitude": 47.0049, "longitude": 32.30717, "city": "Shevchenkove", "images": [{"image_url": "462883.jpg", "timestamp": "2020-08-16T23:06:00Z"}]}, {"id": 462884, "min_date": "2020-08-11T10:42:00Z", "max_date": "2020-08-11T10:42:00Z", "count_points": 1, "latitude": 49.61666, "longitude": 25.32265, "city": "Ozerna", "images": []}, {"id": 462885, "min_date": "2020-08-11T10:42:00Z", "max_date": "2020-08-11T10:42:00Z", "count_points": 1, "latitude": 50.77714, "longitude": 34.31512, "city": "Lebedyn", "images": []}, {"id": 462886, "min_date": "2020-08-11T10:42:00Z", "max_date": "2020-08-11T10:42:00Z", "count_points": 3, "latitude": 48.67763, "longitude": 36.52961, "city": "Blyznyuky", "images": []}, {"id": 462887, "min_date": "2020-08-11T10:42:00Z", "max_date": "2020-08-11T10:42:00Z", "count_points": 1, "latitude": 49.26202, "longitude": 31.49554, "city": "Horodyshche", "images": []}, {"id": 462888, "min_date": "2020-08-11T10:42:00Z", "max_date": "2020-08-14T09:48:00Z", "count_points": 3, "latitude": 49.47571, "longitude": 25.40368, "city": "Ozerna", "images": []}, {"id": 462889, "min_date": "2020-08-11T10:42:00Z", "max_date": "2020-08-11T10:42:00Z", "count_points": 1, "latitude": 47.42687, "longitude": 29.502, "city": "Okny", "images": []}, {"id": 462890, "min_date": "2020-08-11T10:42:00Z", "max_date": "2020-08-11T10:42:00Z", "count_points": 1, "latitude": 50.8971, "longitude": 34.14983, "city": "Terny", "images": []}, {"id": 462891, "min_date": "2020-08-11T10:42:00Z", "max_date": "2020-08-11T10:42:00Z", "count_points": 2, "latitude": 48.0148, "longitude": 34.53327, "city": "Novopokrovka", "images": []}, {"id": 462892, "min_date": "2020-08-11T10:42:00Z", "max_date": "2020-08-11T10:42:00Z", "count_points": 2, "latitude": 50.89196, "longitude": 28.20828, "city": "Luhyny", "images": []}, {"id": 462893, "min_date": "2020-08-11T10:42:00Z", "max_date": "2020-08-11T10:42:00Z", "count_points": 1, "latitude": 49.95079, "longitude": 32.6067, "city": "Orzhytsya", "images": []}, {"id": 462894, "min_date": "2020-08-11T10:42:00Z", "max_date": "2020-08-14T11:30:00Z", "count_points": 4, "latitude": 49.35802, "longitude": 23.9623, "city": "Rozvadiv", "images": []}, {"id": 462895, "min_date": "2020-08-11T10:42:00Z", "max_date": "2020-08-11T10:42:00Z", "count_points": 1, "latitude": 47.54341, "longitude": 33.54257, "city": "Vysokopillya", "images": []}, {"id": 462896, "min_date": "2020-08-11T10:42:00Z", "max_date": "2020-08-11T10:42:00Z", "count_points": 4, "latitude": 47.18309, "longitude": 34.43339, "city": "Verkhniy Rohachyk", "images": []}, {"id": 462897, "min_date": "2020-08-11T10:42:00Z", "max_date": "2020-08-11T10:42:00Z", "count_points": 1, "latitude": 50.84422, "longitude": 32.4104, "city": "Ichnya", "images": []}, {"id": 462898, "min_date": "2020-08-11T10:42:00Z", "max_date": "2020-08-11T10:42:00Z", "count_points": 1, "latitude": 45.69796, "longitude": 28.91417, "city": "Kalcheva", "images": []}, {"id": 462899, "min_date": "2020-08-11T10:42:00Z", "max_date": "2020-08-14T11:30:00Z", "count_points": 2, "latitude": 49.16346, "longitude": 25.33674, "city": "Buchach", "images": []}, {"id": 462900, "min_date": "2020-08-11T10:42:00Z", "max_date": "2020-08-11T10:42:00Z", "count_points": 1, "latitude": 48.27072, "longitude": 30.4986, "city": "Holovanivs\u2019k", "images": []}, {"id": 462901, "min_date": "2020-08-11T10:42:00Z", "max_date": "2020-08-11T10:42:00Z", "count_points": 1, "latitude": 48.91792, "longitude": 35.31857, "city": "Hubynykha", "images": []}, {"id": 462902, "min_date": "2020-08-11T10:42:00Z", "max_date": "2020-08-11T10:42:00Z", "count_points": 2, "latitude": 48.05209, "longitude": 39.83614, "city": "Chervonopartyzans\u2019k", "images": []}, {"id": 462903, "min_date": "2020-08-11T10:42:00Z", "max_date": "2020-08-11T10:42:00Z", "count_points": 2, "latitude": 48.84152, "longitude": 26.50385, "city": "Kamianets-Podilskyi", "images": []}, {"id": 462904, "min_date": "2020-08-11T10:42:00Z", "max_date": "2020-08-16T10:48:00Z", "count_points": 3, "latitude": 49.20404, "longitude": 26.08107, "city": "Husiatyn", "images": []}, {"id": 462905, "min_date": "2020-08-11T10:42:00Z", "max_date": "2020-08-11T10:42:00Z", "count_points": 1, "latitude": 48.12779, "longitude": 34.6298, "city": "Novopokrovka", "images": []}, {"id": 462906, "min_date": "2020-08-11T10:42:00Z", "max_date": "2020-08-11T10:42:00Z", "count_points": 1, "latitude": 48.64149, "longitude": 25.70095, "city": "Kostryzhivka", "images": []}, {"id": 462907, "min_date": "2020-08-11T10:42:00Z", "max_date": "2020-08-11T10:42:00Z", "count_points": 1, "latitude": 49.82276, "longitude": 32.73184, "city": "Orzhytsya", "images": []}, {"id": 462908, "min_date": "2020-08-11T10:42:00Z", "max_date": "2020-08-11T10:42:00Z", "count_points": 1, "latitude": 48.61268, "longitude": 28.03632, "city": "Chernivtsi", "images": []}, {"id": 462909, "min_date": "2020-08-11T10:42:00Z", "max_date": "2020-08-11T10:42:00Z", "count_points": 1, "latitude": 47.65942, "longitude": 35.43094, "city": "Komyshuvakha", "images": []}, {"id": 462910, "min_date": "2020-08-11T10:42:00Z", "max_date": "2020-08-11T10:42:00Z", "count_points": 1, "latitude": 47.35381, "longitude": 33.1509, "city": "Velyka Oleksandrivka", "images": []}, {"id": 462911, "min_date": "2020-08-11T10:42:00Z", "max_date": "2020-08-11T10:42:00Z", "count_points": 1, "latitude": 50.31308, "longitude": 28.85061, "city": "Holovyne", "images": []}, {"id": 462912, "min_date": "2020-08-11T10:42:00Z", "max_date": "2020-08-11T10:42:00Z", "count_points": 1, "latitude": 49.0204, "longitude": 31.11848, "city": "Yurkivka", "images": []}, {"id": 462913, "min_date": "2020-08-11T10:42:00Z", "max_date": "2020-08-11T10:42:00Z", "count_points": 2, "latitude": 51.23181, "longitude": 31.4316, "city": "Olyshivka", "images": []}, {"id": 462915, "min_date": "2020-08-11T10:42:00Z", "max_date": "2020-08-11T10:42:00Z", "count_points": 2, "latitude": 48.06879, "longitude": 34.6682, "city": "Novopokrovka", "images": []}, {"id": 462916, "min_date": "2020-08-11T22:54:00Z", "max_date": "2020-08-12T00:36:00Z", "count_points": 3, "latitude": 48.33597, "longitude": 36.22745, "city": "Vasyl\u2019kivka", "images": []}, {"id": 462917, "min_date": "2020-08-11T22:54:00Z", "max_date": "2020-08-13T10:06:00Z", "count_points": 10, "latitude": 48.9789, "longitude": 37.05532, "city": "Barvinkove", "images": []}, {"id": 462918, "min_date": "2020-08-11T22:54:00Z", "max_date": "2020-08-16T01:00:00Z", "count_points": 7, "latitude": 48.28863, "longitude": 36.55244, "city": "Mezhova", "images": []}, {"id": 462919, "min_date": "2020-08-11T22:54:00Z", "max_date": "2020-08-11T22:54:00Z", "count_points": 1, "latitude": 49.03916, "longitude": 36.91923, "city": "Petrivs\u2019ke", "images": []}, {"id": 462920, "min_date": "2020-08-11T22:54:00Z", "max_date": "2020-08-12T10:24:00Z", "count_points": 2, "latitude": 48.20028, "longitude": 37.38946, "city": "Selydove", "images": []}, {"id": 462921, "min_date": "2020-08-11T22:54:00Z", "max_date": "2020-08-11T22:54:00Z", "count_points": 1, "latitude": 49.34487, "longitude": 36.14293, "city": "Pervomays\u2019kyy", "images": []}, {"id": 462922, "min_date": "2020-08-11T22:54:00Z", "max_date": "2020-08-11T22:54:00Z", "count_points": 1, "latitude": 49.21072, "longitude": 36.49512, "city": "Krasnopavlivka", "images": []}, {"id": 462923, "min_date": "2020-08-11T22:54:00Z", "max_date": "2020-08-12T00:36:00Z", "count_points": 4, "latitude": 49.51218, "longitude": 35.77681, "city": "Berezivka", "images": []}, {"id": 462924, "min_date": "2020-08-11T22:54:00Z", "max_date": "2020-08-11T22:54:00Z", "count_points": 1, "latitude": 48.10326, "longitude": 39.05078, "city": "Kripens\u2019kyy", "images": []}, {"id": 462925, "min_date": "2020-08-11T22:54:00Z", "max_date": "2020-08-11T22:54:00Z", "count_points": 1, "latitude": 49.38305, "longitude": 36.73056, "city": "Balakliya", "images": []}, {"id": 462926, "min_date": "2020-08-11T22:54:00Z", "max_date": "2020-08-11T22:54:00Z", "count_points": 1, "latitude": 49.15557, "longitude": 35.88018, "city": "Sakhnovshchyna", "images": []}, {"id": 462927, "min_date": "2020-08-11T22:54:00Z", "max_date": "2020-08-11T22:54:00Z", "count_points": 1, "latitude": 49.05673, "longitude": 35.69879, "city": "Sakhnovshchyna", "images": []}, {"id": 462928, "min_date": "2020-08-11T22:54:00Z", "max_date": "2020-08-13T00:18:00Z", "count_points": 2, "latitude": 49.1501, "longitude": 28.87896, "city": "Nemyriv", "images": []}, {"id": 462929, "min_date": "2020-08-11T22:54:00Z", "max_date": "2020-08-12T00:36:00Z", "count_points": 4, "latitude": 49.55233, "longitude": 35.63666, "city": "Berezivka", "images": []}, {"id": 462930, "min_date": "2020-08-11T22:54:00Z", "max_date": "2020-08-11T22:54:00Z", "count_points": 1, "latitude": 49.07719, "longitude": 35.82238, "city": "Sakhnovshchyna", "images": []}, {"id": 462931, "min_date": "2020-08-11T22:54:00Z", "max_date": "2020-08-11T22:54:00Z", "count_points": 2, "latitude": 50.26629, "longitude": 33.13181, "city": "Lokhvytsya", "images": []}, {"id": 462932, "min_date": "2020-08-11T22:54:00Z", "max_date": "2020-08-11T22:54:00Z", "count_points": 3, "latitude": 49.83762, "longitude": 37.01628, "city": "Pechenihy", "images": []}, {"id": 462933, "min_date": "2020-08-11T22:54:00Z", "max_date": "2020-08-11T22:54:00Z", "count_points": 1, "latitude": 49.19586, "longitude": 35.78622, "city": "Kehychivka", "images": []}, {"id": 462934, "min_date": "2020-08-11T22:54:00Z", "max_date": "2020-08-12T10:24:00Z", "count_points": 5, "latitude": 48.13361, "longitude": 39.38571, "city": "Roven\u2019ky", "images": []}, {"id": 462935, "min_date": "2020-08-11T22:54:00Z", "max_date": "2020-08-14T23:42:00Z", "count_points": 4, "latitude": 49.74931, "longitude": 34.37683, "city": "Dykan\u2019ka", "images": []}, {"id": 462936, "min_date": "2020-08-11T22:54:00Z", "max_date": "2020-08-12T10:24:00Z", "count_points": 4, "latitude": 48.15302, "longitude": 37.51116, "city": "Selydove", "images": []}, {"id": 462937, "min_date": "2020-08-11T22:54:00Z", "max_date": "2020-08-11T22:54:00Z", "count_points": 1, "latitude": 48.36726, "longitude": 35.83911, "city": "Pavlohrad", "images": []}, {"id": 462938, "min_date": "2020-08-11T22:54:00Z", "max_date": "2020-08-15T11:06:00Z", "count_points": 3, "latitude": 49.11431, "longitude": 35.90997, "city": "Sakhnovshchyna", "images": []}, {"id": 462939, "min_date": "2020-08-11T22:54:00Z", "max_date": "2020-08-14T00:00:00Z", "count_points": 14, "latitude": 48.21095, "longitude": 38.94487, "city": "Krasnyy Luch", "images": []}, {"id": 462940, "min_date": "2020-08-11T23:00:00Z", "max_date": "2020-08-11T23:00:00Z", "count_points": 1, "latitude": 44.77283, "longitude": 33.75726, "city": "Dolinnoye", "images": []}, {"id": 462941, "min_date": "2020-08-12T00:36:00Z", "max_date": "2020-08-12T00:36:00Z", "count_points": 1, "latitude": 49.91213, "longitude": 27.30142, "city": "Starokostiantyniv", "images": []}, {"id": 462942, "min_date": "2020-08-12T00:36:00Z", "max_date": "2020-08-12T00:36:00Z", "count_points": 3, "latitude": 50.56741, "longitude": 24.63864, "city": "Horokhiv", "images": []}, {"id": 462943, "min_date": "2020-08-12T00:36:00Z", "max_date": "2020-08-12T00:36:00Z", "count_points": 1, "latitude": 48.7469, "longitude": 37.08534, "city": "Novodonets\u2019ke", "images": []}, {"id": 462944, "min_date": "2020-08-12T00:36:00Z", "max_date": "2020-08-12T00:36:00Z", "count_points": 1, "latitude": 48.22523, "longitude": 37.08134, "city": "Krasnoarmiys\u2019k", "images": []}, {"id": 462945, "min_date": "2020-08-12T00:36:00Z", "max_date": "2020-08-16T01:00:00Z", "count_points": 3, "latitude": 50.63557, "longitude": 24.55228, "city": "Lokachi", "images": []}, {"id": 462946, "min_date": "2020-08-12T00:36:00Z", "max_date": "2020-08-12T00:36:00Z", "count_points": 1, "latitude": 50.86611, "longitude": 26.06449, "city": "Orzhiv", "images": []}, {"id": 462947, "min_date": "2020-08-12T00:36:00Z", "max_date": "2020-08-12T00:36:00Z", "count_points": 1, "latitude": 48.77499, "longitude": 36.91689, "city": "Oleksandrivka", "images": []}, {"id": 462948, "min_date": "2020-08-12T08:42:00Z", "max_date": "2020-08-13T10:06:00Z", "count_points": 2, "latitude": 48.0326, "longitude": 39.67877, "city": "Sverdlovs\u2019k", "images": []}, {"id": 462949, "min_date": "2020-08-12T08:42:00Z", "max_date": "2020-08-12T08:42:00Z", "count_points": 1, "latitude": 47.84146, "longitude": 39.50476, "city": "Biryukove", "images": []}, {"id": 462950, "min_date": "2020-08-12T08:42:00Z", "max_date": "2020-08-14T00:00:00Z", "count_points": 6, "latitude": 48.18724, "longitude": 39.28045, "city": "Millerovo", "images": [{"image_url": "462950.jpg", "timestamp": "2020-08-14T00:00:00Z"}]}, {"id": 462951, "min_date": "2020-08-12T10:24:00Z", "max_date": "2020-08-15T11:06:00Z", "count_points": 3, "latitude": 48.63854, "longitude": 27.94725, "city": "Vendychany", "images": []}, {"id": 462952, "min_date": "2020-08-12T10:24:00Z", "max_date": "2020-08-12T10:24:00Z", "count_points": 1, "latitude": 45.23025, "longitude": 35.76969, "city": "Krasnogorka", "images": []}, {"id": 462953, "min_date": "2020-08-12T10:24:00Z", "max_date": "2020-08-12T10:24:00Z", "count_points": 1, "latitude": 47.14286, "longitude": 35.63, "city": "Tokmak", "images": []}, {"id": 462954, "min_date": "2020-08-12T10:24:00Z", "max_date": "2020-08-12T10:24:00Z", "count_points": 1, "latitude": 51.12709, "longitude": 24.90607, "city": "Ho\u0142oby", "images": []}, {"id": 462955, "min_date": "2020-08-12T10:24:00Z", "max_date": "2020-08-14T11:30:00Z", "count_points": 4, "latitude": 49.52069, "longitude": 24.57105, "city": "Rohatyn", "images": []}, {"id": 462956, "min_date": "2020-08-12T10:24:00Z", "max_date": "2020-08-12T10:24:00Z", "count_points": 1, "latitude": 50.35356, "longitude": 35.29812, "city": "Kyrykivka", "images": []}, {"id": 462957, "min_date": "2020-08-12T10:24:00Z", "max_date": "2020-08-14T00:00:00Z", "count_points": 6, "latitude": 47.8514, "longitude": 36.96852, "city": "Velyka Novosilka", "images": []}, {"id": 462958, "min_date": "2020-08-12T10:24:00Z", "max_date": "2020-08-12T10:24:00Z", "count_points": 1, "latitude": 48.37781, "longitude": 36.26701, "city": "Petropavlivka", "images": []}, {"id": 462959, "min_date": "2020-08-12T10:24:00Z", "max_date": "2020-08-15T11:06:00Z", "count_points": 3, "latitude": 48.57834, "longitude": 38.17236, "city": "Soledar", "images": []}, {"id": 462960, "min_date": "2020-08-12T10:24:00Z", "max_date": "2020-08-13T22:18:00Z", "count_points": 12, "latitude": 48.18978, "longitude": 38.50744, "city": "Rozsypne", "images": []}, {"id": 462961, "min_date": "2020-08-12T10:24:00Z", "max_date": "2020-08-12T10:24:00Z", "count_points": 1, "latitude": 48.52557, "longitude": 36.44223, "city": "Petropavlivka", "images": []}, {"id": 462962, "min_date": "2020-08-12T10:24:00Z", "max_date": "2020-08-12T10:24:00Z", "count_points": 1, "latitude": 49.06618, "longitude": 36.8771, "city": "Petrivs\u2019ke", "images": []}, {"id": 462963, "min_date": "2020-08-12T10:24:00Z", "max_date": "2020-08-12T12:06:00Z", "count_points": 3, "latitude": 49.41967, "longitude": 27.44607, "city": "Medzhybizh", "images": []}, {"id": 462964, "min_date": "2020-08-12T10:24:00Z", "max_date": "2020-08-12T10:24:00Z", "count_points": 1, "latitude": 47.92501, "longitude": 36.65758, "city": "Velyka Novosilka", "images": []}, {"id": 462965, "min_date": "2020-08-12T10:24:00Z", "max_date": "2020-08-12T10:24:00Z", "count_points": 1, "latitude": 47.89611, "longitude": 36.57338, "city": "Velyka Novosilka", "images": []}, {"id": 462966, "min_date": "2020-08-12T10:24:00Z", "max_date": "2020-08-12T10:24:00Z", "count_points": 1, "latitude": 45.92706, "longitude": 28.82487, "city": "Novi Troyany", "images": []}, {"id": 462967, "min_date": "2020-08-12T10:24:00Z", "max_date": "2020-08-12T22:36:00Z", "count_points": 2, "latitude": 49.04557, "longitude": 37.17976, "city": "Izyum", "images": []}, {"id": 462968, "min_date": "2020-08-12T10:24:00Z", "max_date": "2020-08-15T11:06:00Z", "count_points": 3, "latitude": 48.48495, "longitude": 36.97833, "city": "Dobropillya", "images": []}, {"id": 462969, "min_date": "2020-08-12T10:24:00Z", "max_date": "2020-08-15T09:30:00Z", "count_points": 5, "latitude": 47.33293, "longitude": 38.0071, "city": "Tel\u2019manove", "images": []}, {"id": 462970, "min_date": "2020-08-12T10:24:00Z", "max_date": "2020-08-12T10:24:00Z", "count_points": 3, "latitude": 49.43546, "longitude": 27.27668, "city": "Medzhybizh", "images": []}, {"id": 462971, "min_date": "2020-08-12T10:24:00Z", "max_date": "2020-08-12T10:24:00Z", "count_points": 1, "latitude": 50.58065, "longitude": 27.05401, "city": "Korets", "images": []}, {"id": 462972, "min_date": "2020-08-12T10:24:00Z", "max_date": "2020-08-14T11:24:00Z", "count_points": 2, "latitude": 47.81519, "longitude": 31.40305, "city": "Arbuzynka", "images": []}, {"id": 462973, "min_date": "2020-08-12T10:24:00Z", "max_date": "2020-08-12T10:24:00Z", "count_points": 1, "latitude": 49.89097, "longitude": 37.90569, "city": "Dvorichna", "images": []}, {"id": 462974, "min_date": "2020-08-12T10:24:00Z", "max_date": "2020-08-12T10:24:00Z", "count_points": 1, "latitude": 49.63286, "longitude": 37.43738, "city": "Kupjansk", "images": []}, {"id": 462975, "min_date": "2020-08-12T10:24:00Z", "max_date": "2020-08-12T10:24:00Z", "count_points": 1, "latitude": 49.59151, "longitude": 36.6703, "city": "Komsomol\u2019s\u2019ke", "images": []}, {"id": 462976, "min_date": "2020-08-12T10:24:00Z", "max_date": "2020-08-12T10:24:00Z", "count_points": 1, "latitude": 50.57785, "longitude": 34.93036, "city": "Boromlya", "images": []}, {"id": 462977, "min_date": "2020-08-12T10:24:00Z", "max_date": "2020-08-12T10:24:00Z", "count_points": 1, "latitude": 48.04983, "longitude": 35.52334, "city": "Vil\u2019nyans\u2019k", "images": []}, {"id": 462978, "min_date": "2020-08-12T10:24:00Z", "max_date": "2020-08-12T10:24:00Z", "count_points": 1, "latitude": 50.68771, "longitude": 24.87216, "city": "Horokhiv", "images": []}, {"id": 462979, "min_date": "2020-08-12T10:24:00Z", "max_date": "2020-08-12T10:24:00Z", "count_points": 1, "latitude": 49.70311, "longitude": 37.34457, "city": "Shevchenkove", "images": []}, {"id": 462980, "min_date": "2020-08-12T10:24:00Z", "max_date": "2020-08-12T10:24:00Z", "count_points": 1, "latitude": 48.37881, "longitude": 37.09258, "city": "Dobropillya", "images": []}, {"id": 462981, "min_date": "2020-08-12T10:24:00Z", "max_date": "2020-08-15T11:06:00Z", "count_points": 2, "latitude": 49.15378, "longitude": 25.37865, "city": "Buchach", "images": []}, {"id": 462982, "min_date": "2020-08-12T10:24:00Z", "max_date": "2020-08-12T10:24:00Z", "count_points": 1, "latitude": 46.46006, "longitude": 34.48418, "city": "Novotroyits\u2019ke", "images": []}, {"id": 462983, "min_date": "2020-08-12T10:24:00Z", "max_date": "2020-08-12T10:24:00Z", "count_points": 1, "latitude": 48.61701, "longitude": 25.94398, "city": "Zastavna", "images": []}, {"id": 462984, "min_date": "2020-08-12T10:24:00Z", "max_date": "2020-08-12T10:24:00Z", "count_points": 1, "latitude": 48.17712, "longitude": 34.60815, "city": "Novopokrovka", "images": []}, {"id": 462985, "min_date": "2020-08-12T10:24:00Z", "max_date": "2020-08-12T10:24:00Z", "count_points": 1, "latitude": 47.07314, "longitude": 35.52383, "city": "Terpinnya", "images": []}, {"id": 462986, "min_date": "2020-08-12T10:24:00Z", "max_date": "2020-08-12T10:24:00Z", "count_points": 2, "latitude": 47.57497, "longitude": 35.89414, "city": "Mala Tokmachka", "images": []}, {"id": 462987, "min_date": "2020-08-12T10:24:00Z", "max_date": "2020-08-12T10:24:00Z", "count_points": 1, "latitude": 47.61908, "longitude": 32.32302, "city": "Novyy Buh", "images": []}, {"id": 462988, "min_date": "2020-08-12T10:24:00Z", "max_date": "2020-08-12T10:24:00Z", "count_points": 1, "latitude": 49.56358, "longitude": 34.79496, "city": "Mashivka", "images": []}, {"id": 462989, "min_date": "2020-08-12T10:24:00Z", "max_date": "2020-08-12T10:24:00Z", "count_points": 1, "latitude": 48.22973, "longitude": 34.6815, "city": "Surs\u2019ko-Mykhaylivka", "images": []}, {"id": 462990, "min_date": "2020-08-12T10:24:00Z", "max_date": "2020-08-12T10:24:00Z", "count_points": 1, "latitude": 49.22522, "longitude": 36.41777, "city": "Krasnopavlivka", "images": []}, {"id": 462991, "min_date": "2020-08-12T10:24:00Z", "max_date": "2020-08-12T12:06:00Z", "count_points": 3, "latitude": 50.40524, "longitude": 24.56979, "city": "Radekhiv", "images": []}, {"id": 462992, "min_date": "2020-08-12T10:24:00Z", "max_date": "2020-08-12T10:24:00Z", "count_points": 1, "latitude": 50.52782, "longitude": 25.29016, "city": "Demydivka", "images": []}, {"id": 462993, "min_date": "2020-08-12T10:24:00Z", "max_date": "2020-08-12T10:24:00Z", "count_points": 1, "latitude": 51.70455, "longitude": 25.36846, "city": "Lyubeshiv", "images": []}, {"id": 462994, "min_date": "2020-08-12T10:24:00Z", "max_date": "2020-08-12T10:24:00Z", "count_points": 1, "latitude": 47.04823, "longitude": 32.66938, "city": "Snihurivka", "images": []}, {"id": 462995, "min_date": "2020-08-12T10:24:00Z", "max_date": "2020-08-12T10:24:00Z", "count_points": 1, "latitude": 48.14965, "longitude": 31.34978, "city": "Pomichna", "images": []}, {"id": 462996, "min_date": "2020-08-12T10:24:00Z", "max_date": "2020-08-12T10:24:00Z", "count_points": 1, "latitude": 49.91026, "longitude": 30.53831, "city": "Mirovka", "images": []}, {"id": 462997, "min_date": "2020-08-12T10:24:00Z", "max_date": "2020-08-12T10:24:00Z", "count_points": 1, "latitude": 49.70818, "longitude": 30.62487, "city": "Rokytne", "images": []}, {"id": 462998, "min_date": "2020-08-12T10:24:00Z", "max_date": "2020-08-12T10:24:00Z", "count_points": 1, "latitude": 47.28966, "longitude": 34.41705, "city": "Verkhniy Rohachyk", "images": []}, {"id": 462999, "min_date": "2020-08-12T10:24:00Z", "max_date": "2020-08-12T10:24:00Z", "count_points": 1, "latitude": 49.40488, "longitude": 38.23626, "city": "Svatove", "images": []}, {"id": 463000, "min_date": "2020-08-12T10:24:00Z", "max_date": "2020-08-12T10:24:00Z", "count_points": 1, "latitude": 48.86098, "longitude": 28.59267, "city": "Tyvriv", "images": []}, {"id": 463001, "min_date": "2020-08-12T10:24:00Z", "max_date": "2020-08-13T11:48:00Z", "count_points": 5, "latitude": 49.23739, "longitude": 25.19115, "city": "Pidhaytsi", "images": [{"image_url": "463001.jpg", "timestamp": "2020-08-13T11:48:00Z"}]}, {"id": 463002, "min_date": "2020-08-12T10:24:00Z", "max_date": "2020-08-12T10:24:00Z", "count_points": 1, "latitude": 48.60292, "longitude": 36.27389, "city": "Petropavlivka", "images": []}, {"id": 463003, "min_date": "2020-08-12T10:24:00Z", "max_date": "2020-08-12T10:24:00Z", "count_points": 1, "latitude": 47.62413, "longitude": 37.07017, "city": "Rozivka", "images": []}, {"id": 463004, "min_date": "2020-08-12T10:24:00Z", "max_date": "2020-08-12T10:24:00Z", "count_points": 2, "latitude": 47.1414, "longitude": 37.41494, "city": "Staryy Krym", "images": []}, {"id": 463005, "min_date": "2020-08-12T10:24:00Z", "max_date": "2020-08-12T10:24:00Z", "count_points": 1, "latitude": 50.3223, "longitude": 37.08235, "city": "Vovchans\u2019k", "images": []}, {"id": 463006, "min_date": "2020-08-12T10:24:00Z", "max_date": "2020-08-12T10:24:00Z", "count_points": 1, "latitude": 46.94353, "longitude": 34.5644, "city": "Nyzhni Sirohozy", "images": []}, {"id": 463007, "min_date": "2020-08-12T12:06:00Z", "max_date": "2020-08-12T12:06:00Z", "count_points": 1, "latitude": 49.98182, "longitude": 27.43758, "city": "Novoselytsya", "images": []}, {"id": 463008, "min_date": "2020-08-12T12:06:00Z", "max_date": "2020-08-12T12:06:00Z", "count_points": 2, "latitude": 48.81673, "longitude": 28.7305, "city": "Tulchyn", "images": []}, {"id": 463009, "min_date": "2020-08-12T12:06:00Z", "max_date": "2020-08-12T12:06:00Z", "count_points": 2, "latitude": 49.94145, "longitude": 24.59186, "city": "Krasne", "images": []}, {"id": 463010, "min_date": "2020-08-12T12:06:00Z", "max_date": "2020-08-12T12:06:00Z", "count_points": 3, "latitude": 49.30222, "longitude": 26.68975, "city": "Horodok", "images": []}, {"id": 463011, "min_date": "2020-08-12T12:06:00Z", "max_date": "2020-08-12T12:06:00Z", "count_points": 1, "latitude": 48.85451, "longitude": 24.60976, "city": "Radcha", "images": []}, {"id": 463012, "min_date": "2020-08-12T12:06:00Z", "max_date": "2020-08-13T11:48:00Z", "count_points": 6, "latitude": 49.46377, "longitude": 23.83325, "city": "Medenychi", "images": []}, {"id": 463013, "min_date": "2020-08-12T12:06:00Z", "max_date": "2020-08-12T12:06:00Z", "count_points": 1, "latitude": 48.40995, "longitude": 22.41992, "city": "Batiovo", "images": []}, {"id": 463014, "min_date": "2020-08-12T12:06:00Z", "max_date": "2020-08-12T12:06:00Z", "count_points": 1, "latitude": 48.51023, "longitude": 22.17328, "city": "Chop", "images": []}, {"id": 463015, "min_date": "2020-08-12T12:06:00Z", "max_date": "2020-08-12T12:06:00Z", "count_points": 1, "latitude": 49.96261, "longitude": 25.03171, "city": "Pidhirtsi", "images": []}, {"id": 463016, "min_date": "2020-08-12T12:06:00Z", "max_date": "2020-08-12T12:06:00Z", "count_points": 1, "latitude": 50.80748, "longitude": 24.48292, "city": "Volodymyr-Volynskyi", "images": []}, {"id": 463017, "min_date": "2020-08-12T12:06:00Z", "max_date": "2020-08-16T10:48:00Z", "count_points": 2, "latitude": 49.28778, "longitude": 24.21725, "city": "Zhydachiv", "images": []}, {"id": 463018, "min_date": "2020-08-12T12:06:00Z", "max_date": "2020-08-12T12:06:00Z", "count_points": 3, "latitude": 50.40944, "longitude": 26.67226, "city": "Netishyn", "images": []}, {"id": 463019, "min_date": "2020-08-12T12:06:00Z", "max_date": "2020-08-12T12:06:00Z", "count_points": 2, "latitude": 48.39743, "longitude": 25.86724, "city": "Luzhany", "images": []}, {"id": 463020, "min_date": "2020-08-12T22:36:00Z", "max_date": "2020-08-12T22:36:00Z", "count_points": 1, "latitude": 47.65591, "longitude": 34.01935, "city": "Sholokhove", "images": []}, {"id": 463021, "min_date": "2020-08-12T22:36:00Z", "max_date": "2020-08-16T10:48:00Z", "count_points": 2, "latitude": 48.07976, "longitude": 33.55066, "city": "Kryvyi Rih", "images": []}, {"id": 463022, "min_date": "2020-08-12T22:36:00Z", "max_date": "2020-08-16T10:48:00Z", "count_points": 12, "latitude": 48.82023, "longitude": 36.72052, "city": "Blyznyuky", "images": [{"image_url": "463022.jpg", "timestamp": "2020-08-16T10:48:00Z"}]}, {"id": 463023, "min_date": "2020-08-12T22:36:00Z", "max_date": "2020-08-12T22:36:00Z", "count_points": 2, "latitude": 48.82102, "longitude": 36.60733, "city": "Blyznyuky", "images": []}, {"id": 463024, "min_date": "2020-08-12T22:36:00Z", "max_date": "2020-08-16T10:48:00Z", "count_points": 10, "latitude": 48.5239, "longitude": 37.78773, "city": "Kostyantynivka", "images": []}, {"id": 463025, "min_date": "2020-08-12T22:36:00Z", "max_date": "2020-08-13T00:18:00Z", "count_points": 2, "latitude": 48.06882, "longitude": 36.286, "city": "Pokrovs\u2019ke", "images": []}, {"id": 463026, "min_date": "2020-08-12T22:36:00Z", "max_date": "2020-08-13T00:18:00Z", "count_points": 2, "latitude": 48.10761, "longitude": 39.62287, "city": "Sverdlovs\u2019k", "images": []}, {"id": 463027, "min_date": "2020-08-12T22:36:00Z", "max_date": "2020-08-12T22:36:00Z", "count_points": 2, "latitude": 48.89231, "longitude": 37.14052, "city": "Barvinkove", "images": []}, {"id": 463028, "min_date": "2020-08-12T22:36:00Z", "max_date": "2020-08-12T22:36:00Z", "count_points": 1, "latitude": 48.87681, "longitude": 37.11373, "city": "Barvinkove", "images": []}, {"id": 463029, "min_date": "2020-08-12T22:36:00Z", "max_date": "2020-08-12T22:36:00Z", "count_points": 1, "latitude": 49.28477, "longitude": 36.8984, "city": "Petrivs\u2019ke", "images": []}, {"id": 463030, "min_date": "2020-08-12T22:36:00Z", "max_date": "2020-08-13T00:18:00Z", "count_points": 4, "latitude": 47.59815, "longitude": 34.04234, "city": "Ordzhonikidze", "images": []}, {"id": 463031, "min_date": "2020-08-12T22:36:00Z", "max_date": "2020-08-12T22:36:00Z", "count_points": 1, "latitude": 49.09606, "longitude": 36.97165, "city": "Petrivs\u2019ke", "images": []}, {"id": 463032, "min_date": "2020-08-12T22:36:00Z", "max_date": "2020-08-12T22:36:00Z", "count_points": 2, "latitude": 48.46624, "longitude": 39.56563, "city": "Simeykyne", "images": []}, {"id": 463033, "min_date": "2020-08-12T22:36:00Z", "max_date": "2020-08-13T00:18:00Z", "count_points": 3, "latitude": 51.71444, "longitude": 31.8619, "city": "Shchors", "images": []}, {"id": 463034, "min_date": "2020-08-12T22:36:00Z", "max_date": "2020-08-13T11:48:00Z", "count_points": 10, "latitude": 47.69412, "longitude": 33.36163, "city": "Shyroke", "images": []}, {"id": 463035, "min_date": "2020-08-12T22:36:00Z", "max_date": "2020-08-12T22:36:00Z", "count_points": 1, "latitude": 48.04929, "longitude": 38.83839, "city": "Zalesnoye", "images": []}, {"id": 463036, "min_date": "2020-08-12T22:36:00Z", "max_date": "2020-08-12T22:36:00Z", "count_points": 2, "latitude": 47.39141, "longitude": 35.47398, "city": "Pryshyb", "images": []}, {"id": 463037, "min_date": "2020-08-12T22:36:00Z", "max_date": "2020-08-13T00:18:00Z", "count_points": 3, "latitude": 48.01842, "longitude": 38.81602, "city": "Zalesnoye", "images": []}, {"id": 463038, "min_date": "2020-08-12T22:36:00Z", "max_date": "2020-08-12T22:36:00Z", "count_points": 1, "latitude": 49.50173, "longitude": 36.11603, "city": "Pervomays\u2019kyy", "images": []}, {"id": 463039, "min_date": "2020-08-12T22:36:00Z", "max_date": "2020-08-13T00:18:00Z", "count_points": 2, "latitude": 48.16027, "longitude": 35.38285, "city": "Synel\u2019nykove", "images": []}, {"id": 463040, "min_date": "2020-08-12T22:36:00Z", "max_date": "2020-08-12T22:36:00Z", "count_points": 1, "latitude": 48.27893, "longitude": 37.55344, "city": "Avdiyivka", "images": []}, {"id": 463041, "min_date": "2020-08-12T22:36:00Z", "max_date": "2020-08-13T10:06:00Z", "count_points": 4, "latitude": 47.56423, "longitude": 37.34929, "city": "Volnovakha", "images": []}, {"id": 463042, "min_date": "2020-08-12T22:36:00Z", "max_date": "2020-08-15T09:30:00Z", "count_points": 6, "latitude": 48.42218, "longitude": 38.53974, "city": "Bayrachky", "images": []}, {"id": 463043, "min_date": "2020-08-12T22:36:00Z", "max_date": "2020-08-12T22:36:00Z", "count_points": 1, "latitude": 47.80951, "longitude": 37.27757, "city": "Kurakhovo", "images": []}, {"id": 463044, "min_date": "2020-08-12T22:36:00Z", "max_date": "2020-08-15T11:06:00Z", "count_points": 7, "latitude": 47.68132, "longitude": 37.59009, "city": "Volnovakha", "images": []}, {"id": 463045, "min_date": "2020-08-12T22:36:00Z", "max_date": "2020-08-13T00:18:00Z", "count_points": 5, "latitude": 47.69921, "longitude": 36.92787, "city": "Velyka Novosilka", "images": []}, {"id": 463046, "min_date": "2020-08-13T00:18:00Z", "max_date": "2020-08-14T00:00:00Z", "count_points": 3, "latitude": 48.82245, "longitude": 35.74323, "city": "Yur\u201dyivka", "images": []}, {"id": 463047, "min_date": "2020-08-13T00:18:00Z", "max_date": "2020-08-13T00:18:00Z", "count_points": 1, "latitude": 48.1213, "longitude": 39.50155, "city": "Klenovyy", "images": []}, {"id": 463048, "min_date": "2020-08-13T00:18:00Z", "max_date": "2020-08-13T00:18:00Z", "count_points": 1, "latitude": 49.44033, "longitude": 36.14845, "city": "Pervomays\u2019kyy", "images": []}, {"id": 463049, "min_date": "2020-08-13T00:18:00Z", "max_date": "2020-08-13T00:18:00Z", "count_points": 6, "latitude": 49.68558, "longitude": 36.89425, "city": "Pechenihy", "images": []}, {"id": 463050, "min_date": "2020-08-13T00:18:00Z", "max_date": "2020-08-13T00:18:00Z", "count_points": 2, "latitude": 48.81461, "longitude": 37.0555, "city": "Barvinkove", "images": []}, {"id": 463051, "min_date": "2020-08-13T00:18:00Z", "max_date": "2020-08-13T00:18:00Z", "count_points": 3, "latitude": 47.99921, "longitude": 35.71368, "city": "Novomykolayivka", "images": []}, {"id": 463052, "min_date": "2020-08-13T00:18:00Z", "max_date": "2020-08-16T10:48:00Z", "count_points": 2, "latitude": 50.50482, "longitude": 34.84082, "city": "Trostyanets\u2019", "images": []}, {"id": 463053, "min_date": "2020-08-13T00:18:00Z", "max_date": "2020-08-13T00:18:00Z", "count_points": 3, "latitude": 47.92272, "longitude": 33.31956, "city": "Kryvyi Rih", "images": []}, {"id": 463054, "min_date": "2020-08-13T00:18:00Z", "max_date": "2020-08-13T00:18:00Z", "count_points": 1, "latitude": 49.05863, "longitude": 25.11159, "city": "Monastyrys\u2019ka", "images": []}, {"id": 463055, "min_date": "2020-08-13T00:18:00Z", "max_date": "2020-08-13T00:18:00Z", "count_points": 1, "latitude": 49.03665, "longitude": 28.86545, "city": "Nemyriv", "images": []}, {"id": 463056, "min_date": "2020-08-13T00:18:00Z", "max_date": "2020-08-13T00:18:00Z", "count_points": 1, "latitude": 50.28135, "longitude": 30.27114, "city": "Boyarka", "images": []}, {"id": 463057, "min_date": "2020-08-13T00:18:00Z", "max_date": "2020-08-13T00:18:00Z", "count_points": 1, "latitude": 48.23134, "longitude": 34.75121, "city": "Surs\u2019ko-Mykhaylivka", "images": []}, {"id": 463058, "min_date": "2020-08-13T00:18:00Z", "max_date": "2020-08-14T00:00:00Z", "count_points": 3, "latitude": 47.79284, "longitude": 38.42826, "city": "Amvrosiyivka", "images": []}, {"id": 463059, "min_date": "2020-08-13T00:18:00Z", "max_date": "2020-08-13T10:06:00Z", "count_points": 3, "latitude": 47.74673, "longitude": 37.9178, "city": "Starobesheve", "images": []}, {"id": 463060, "min_date": "2020-08-13T00:18:00Z", "max_date": "2020-08-13T00:18:00Z", "count_points": 1, "latitude": 48.75778, "longitude": 26.40299, "city": "Smotrych", "images": []}, {"id": 463061, "min_date": "2020-08-13T00:18:00Z", "max_date": "2020-08-13T00:18:00Z", "count_points": 1, "latitude": 48.1029, "longitude": 31.6269, "city": "Rivne", "images": []}, {"id": 463062, "min_date": "2020-08-13T00:18:00Z", "max_date": "2020-08-13T00:18:00Z", "count_points": 2, "latitude": 47.65409, "longitude": 31.52454, "city": "Voznesensk", "images": []}, {"id": 463063, "min_date": "2020-08-13T00:18:00Z", "max_date": "2020-08-13T00:18:00Z", "count_points": 1, "latitude": 48.09159, "longitude": 37.99996, "city": "Krinichnaya", "images": []}, {"id": 463064, "min_date": "2020-08-13T00:18:00Z", "max_date": "2020-08-13T10:06:00Z", "count_points": 2, "latitude": 45.4803, "longitude": 33.60291, "city": "Kormovoye", "images": []},