[{"id": 458423, "min_date": "2020-07-06T08:30:00Z", "max_date": "2020-07-06T10:18:00Z", "count_points": 5, "latitude": 48.61461, "longitude": 37.59011, "city": "Druzhkivka", "images": []}, {"id": 458424, "min_date": "2020-07-06T08:30:00Z", "max_date": "2020-07-06T10:18:00Z", "count_points": 3, "latitude": 48.42723, "longitude": 38.96098, "city": "Pereval\u2019s\u2019k", "images": []}, {"id": 458425, "min_date": "2020-07-06T08:30:00Z", "max_date": "2020-07-06T10:18:00Z", "count_points": 3, "latitude": 48.43718, "longitude": 38.28897, "city": "Luhans\u2019ke", "images": []}, {"id": 458426, "min_date": "2020-07-06T08:30:00Z", "max_date": "2020-07-06T08:30:00Z", "count_points": 1, "latitude": 48.5319, "longitude": 36.0535, "city": "Pavlohrad", "images": []}, {"id": 458427, "min_date": "2020-07-06T08:30:00Z", "max_date": "2020-07-06T08:30:00Z", "count_points": 1, "latitude": 48.1279, "longitude": 38.3214, "city": "Zuhres", "images": []}, {"id": 458428, "min_date": "2020-07-06T08:30:00Z", "max_date": "2020-07-06T10:18:00Z", "count_points": 3, "latitude": 48.17343, "longitude": 33.45931, "city": "Zhovti Vody", "images": []}, {"id": 458429, "min_date": "2020-07-06T10:08:00Z", "max_date": "2020-07-06T10:18:00Z", "count_points": 2, "latitude": 46.22697, "longitude": 29.53832, "city": "Plakhtiyivka", "images": []}, {"id": 458430, "min_date": "2020-07-06T10:14:00Z", "max_date": "2020-07-10T22:54:00Z", "count_points": 223, "latitude": 48.8888, "longitude": 38.6942, "city": "Toshkivka", "images": []}, {"id": 458431, "min_date": "2020-07-06T10:14:00Z", "max_date": "2020-07-06T10:14:00Z", "count_points": 1, "latitude": 47.0125, "longitude": 35.9194, "city": "Rozivka", "images": []}, {"id": 458432, "min_date": "2020-07-06T10:14:00Z", "max_date": "2020-07-06T10:18:00Z", "count_points": 4, "latitude": 48.14253, "longitude": 33.41553, "city": "Lozuvatka", "images": []}, {"id": 458433, "min_date": "2020-07-06T10:14:00Z", "max_date": "2020-07-06T10:18:00Z", "count_points": 3, "latitude": 49.68911, "longitude": 38.7741, "city": "Pavlivka", "images": []}, {"id": 458434, "min_date": "2020-07-06T19:39:00Z", "max_date": "2020-07-12T10:06:00Z", "count_points": 14, "latitude": 48.5197, "longitude": 38.2629, "city": "Luhans\u2019ke", "images": []}, {"id": 458435, "min_date": "2020-07-06T19:39:00Z", "max_date": "2020-07-06T19:39:00Z", "count_points": 1, "latitude": 48.1395, "longitude": 37.2624, "city": "Selydove", "images": []}, {"id": 458436, "min_date": "2020-07-06T19:39:00Z", "max_date": "2020-07-06T22:30:00Z", "count_points": 7, "latitude": 48.68981, "longitude": 38.08901, "city": "Soledar", "images": []}, {"id": 458437, "min_date": "2020-07-06T19:39:00Z", "max_date": "2020-07-06T19:39:00Z", "count_points": 1, "latitude": 46.5801, "longitude": 33.6303, "city": "Chaplynka", "images": []}, {"id": 458438, "min_date": "2020-07-07T07:34:00Z", "max_date": "2020-07-07T10:00:00Z", "count_points": 8, "latitude": 48.21573, "longitude": 39.39461, "city": "Klenovyy", "images": []}, {"id": 458439, "min_date": "2020-07-07T09:12:00Z", "max_date": "2020-07-07T09:12:00Z", "count_points": 1, "latitude": 48.6819, "longitude": 35.2856, "city": "Novomoskovs\u2019k", "images": []}, {"id": 458440, "min_date": "2020-07-07T09:12:00Z", "max_date": "2020-07-07T09:12:00Z", "count_points": 1, "latitude": 48.8379, "longitude": 38.8408, "city": "Tr\u2019okhizbenka", "images": []}, {"id": 458441, "min_date": "2020-07-07T09:12:00Z", "max_date": "2020-07-07T10:00:00Z", "count_points": 17, "latitude": 48.59883, "longitude": 39.25258, "city": "Luhansk", "images": []}, {"id": 458442, "min_date": "2020-07-07T09:12:00Z", "max_date": "2020-07-07T10:00:00Z", "count_points": 8, "latitude": 48.70529, "longitude": 38.59051, "city": "Toshkivka", "images": []}, {"id": 458443, "min_date": "2020-07-07T09:13:00Z", "max_date": "2020-07-10T10:42:00Z", "count_points": 14, "latitude": 47.17688, "longitude": 32.59182, "city": "Snihurivka", "images": []}, {"id": 458444, "min_date": "2020-07-07T09:13:00Z", "max_date": "2020-07-07T09:13:00Z", "count_points": 1, "latitude": 45.7812, "longitude": 34.9594, "city": "Pshenichnoye", "images": []}, {"id": 458445, "min_date": "2020-07-07T09:13:00Z", "max_date": "2020-07-07T09:13:00Z", "count_points": 3, "latitude": 46.1642, "longitude": 29.82643, "city": "Kamyshevka Vtoraya", "images": []}, {"id": 458446, "min_date": "2020-07-07T09:19:00Z", "max_date": "2020-07-07T10:00:00Z", "count_points": 12, "latitude": 48.38031, "longitude": 39.03375, "city": "Bile", "images": []}, {"id": 458447, "min_date": "2020-07-07T10:57:00Z", "max_date": "2020-07-07T10:57:00Z", "count_points": 1, "latitude": 48.5846, "longitude": 31.8373, "city": "Mala Vyska", "images": []}, {"id": 458448, "min_date": "2020-07-07T20:22:00Z", "max_date": "2020-07-08T23:36:00Z", "count_points": 3, "latitude": 46.60105, "longitude": 34.43984, "city": "Ivanivka", "images": []}, {"id": 458449, "min_date": "2020-07-07T20:22:00Z", "max_date": "2020-07-07T20:22:00Z", "count_points": 2, "latitude": 46.59225, "longitude": 34.4056, "city": "Ivanivka", "images": []}, {"id": 458450, "min_date": "2020-07-08T08:18:00Z", "max_date": "2020-07-08T08:18:00Z", "count_points": 1, "latitude": 47.4278, "longitude": 34.3716, "city": "Kamenka-Na-Dnepre", "images": []}, {"id": 458451, "min_date": "2020-07-08T19:27:00Z", "max_date": "2020-07-10T22:54:00Z", "count_points": 7, "latitude": 48.29674, "longitude": 36.44054, "city": "Petropavlivka", "images": []}, {"id": 458452, "min_date": "2020-07-09T09:00:00Z", "max_date": "2020-07-09T09:24:00Z", "count_points": 2, "latitude": 49.4347, "longitude": 36.55604, "city": "Komsomol\u2019s\u2019ke", "images": []}, {"id": 458453, "min_date": "2020-07-09T09:00:00Z", "max_date": "2020-07-09T11:00:00Z", "count_points": 11, "latitude": 48.91878, "longitude": 33.27814, "city": "Pavlysh", "images": []}, {"id": 458454, "min_date": "2020-07-09T09:00:00Z", "max_date": "2020-07-09T09:00:00Z", "count_points": 1, "latitude": 48.3081, "longitude": 31.4236, "city": "Pomichna", "images": []}, {"id": 458455, "min_date": "2020-07-09T09:01:00Z", "max_date": "2020-07-09T09:01:00Z", "count_points": 1, "latitude": 46.1736, "longitude": 34.0725, "city": "Krasnoarmeyskoye", "images": []}, {"id": 458456, "min_date": "2020-07-09T09:01:00Z", "max_date": "2020-07-09T23:18:00Z", "count_points": 26, "latitude": 47.09884, "longitude": 32.62546, "city": "Snihurivka", "images": []}, {"id": 458457, "min_date": "2020-07-09T09:01:00Z", "max_date": "2020-07-11T00:36:00Z", "count_points": 5, "latitude": 46.55406, "longitude": 33.37444, "city": "Chornyanka", "images": []}, {"id": 458458, "min_date": "2020-07-09T09:01:00Z", "max_date": "2020-07-09T09:01:00Z", "count_points": 1, "latitude": 44.9732, "longitude": 34.1437, "city": "Simferopol", "images": []}, {"id": 458459, "min_date": "2020-07-09T10:44:00Z", "max_date": "2020-07-09T11:00:00Z", "count_points": 9, "latitude": 47.05447, "longitude": 36.39903, "city": "Chernihivka", "images": []}, {"id": 458460, "min_date": "2020-07-09T10:44:00Z", "max_date": "2020-07-09T11:00:00Z", "count_points": 2, "latitude": 46.179, "longitude": 30.22619, "city": "Bilhorod-Dnistrovskyi", "images": []}, {"id": 458461, "min_date": "2020-07-09T10:44:00Z", "max_date": "2020-07-10T10:42:00Z", "count_points": 6, "latitude": 47.19269, "longitude": 38.14564, "city": "Novoazovsk", "images": []}, {"id": 458462, "min_date": "2020-07-09T10:45:00Z", "max_date": "2020-07-09T11:00:00Z", "count_points": 15, "latitude": 47.00126, "longitude": 32.34701, "city": "Shevchenkove", "images": []}, {"id": 458463, "min_date": "2020-07-09T10:45:00Z", "max_date": "2020-07-10T10:42:00Z", "count_points": 10, "latitude": 48.40471, "longitude": 38.33567, "city": "Luhans\u2019ke", "images": []}, {"id": 458464, "min_date": "2020-07-09T10:45:00Z", "max_date": "2020-07-09T11:00:00Z", "count_points": 11, "latitude": 48.39513, "longitude": 36.41863, "city": "Petropavlivka", "images": []}, {"id": 458465, "min_date": "2020-07-09T10:45:00Z", "max_date": "2020-07-09T10:45:00Z", "count_points": 1, "latitude": 47.952, "longitude": 31.2358, "city": "Arbuzynka", "images": []}, {"id": 458466, "min_date": "2020-07-09T10:45:00Z", "max_date": "2020-07-09T10:45:00Z", "count_points": 1, "latitude": 49.2831, "longitude": 32.3508, "city": "Chervona Sloboda", "images": []}, {"id": 458467, "min_date": "2020-07-09T20:09:00Z", "max_date": "2020-07-09T23:18:00Z", "count_points": 7, "latitude": 46.72788, "longitude": 33.8883, "city": "Askaniya-Nova", "images": []}, {"id": 458468, "min_date": "2020-07-10T08:06:00Z", "max_date": "2020-07-10T08:06:00Z", "count_points": 1, "latitude": 46.6227, "longitude": 33.4537, "city": "Chornyanka", "images": []}, {"id": 458469, "min_date": "2020-07-10T08:06:00Z", "max_date": "2020-07-10T08:06:00Z", "count_points": 1, "latitude": 46.2956, "longitude": 32.3897, "city": "Chulakivka", "images": []}, {"id": 458470, "min_date": "2020-07-10T08:06:00Z", "max_date": "2020-07-10T08:06:00Z", "count_points": 1, "latitude": 46.294, "longitude": 32.4325, "city": "Chulakivka", "images": []}, {"id": 458471, "min_date": "2020-07-10T09:43:00Z", "max_date": "2020-07-10T09:43:00Z", "count_points": 2, "latitude": 48.2619, "longitude": 34.7639, "city": "Surs\u2019ko-Mykhaylivka", "images": []}, {"id": 458472, "min_date": "2020-07-10T09:44:00Z", "max_date": "2020-07-10T09:44:00Z", "count_points": 1, "latitude": 45.6501, "longitude": 28.5005, "city": "Vynohradivka", "images": []}, {"id": 458473, "min_date": "2020-07-10T11:27:00Z", "max_date": "2020-07-12T10:06:00Z", "count_points": 3, "latitude": 46.99013, "longitude": 32.58408, "city": "Oleksandrivka", "images": []}, {"id": 458474, "min_date": "2020-07-10T11:28:00Z", "max_date": "2020-07-12T11:48:00Z", "count_points": 5, "latitude": 47.6142, "longitude": 33.0473, "city": "Shyroke", "images": []}, {"id": 458475, "min_date": "2020-07-10T19:15:00Z", "max_date": "2020-07-10T19:15:00Z", "count_points": 2, "latitude": 49.19835, "longitude": 37.98825, "city": "Svatove", "images": []}, {"id": 458476, "min_date": "2020-07-10T23:24:00Z", "max_date": "2020-07-11T00:36:00Z", "count_points": 19, "latitude": 46.607, "longitude": 34.1198, "city": "Askaniya-Nova", "images": []}, {"id": 458477, "min_date": "2020-07-11T08:47:00Z", "max_date": "2020-07-11T10:24:00Z", "count_points": 2, "latitude": 52.11447, "longitude": 33.43479, "city": "Novhorod-Sivers\u2019kyy", "images": []}, {"id": 458478, "min_date": "2020-07-11T08:48:00Z", "max_date": "2020-07-11T08:42:00Z", "count_points": 2, "latitude": 48.55432, "longitude": 38.47378, "city": "Pervomays\u2019k", "images": []}, {"id": 458479, "min_date": "2020-07-11T08:48:00Z", "max_date": "2020-07-11T10:24:00Z", "count_points": 2, "latitude": 47.88678, "longitude": 34.79091, "city": "Tomakivka", "images": []}, {"id": 458480, "min_date": "2020-07-11T08:49:00Z", "max_date": "2020-07-11T08:49:00Z", "count_points": 2, "latitude": 46.7688, "longitude": 34.25215, "city": "Nyzhni Sirohozy", "images": []}, {"id": 458481, "min_date": "2020-07-11T10:32:00Z", "max_date": "2020-07-11T10:24:00Z", "count_points": 9, "latitude": 46.09224, "longitude": 34.69478, "city": "Heniches\u2019k", "images": []}, {"id": 458482, "min_date": "2020-07-11T10:32:00Z", "max_date": "2020-07-11T10:32:00Z", "count_points": 1, "latitude": 46.3159, "longitude": 34.675, "city": "Partyzany", "images": []}, {"id": 458483, "min_date": "2020-07-11T10:32:00Z", "max_date": "2020-07-11T10:32:00Z", "count_points": 1, "latitude": 46.5328, "longitude": 34.4192, "city": "Novotroyits\u2019ke", "images": []}, {"id": 458484, "min_date": "2020-07-11T10:32:00Z", "max_date": "2020-07-11T10:24:00Z", "count_points": 2, "latitude": 47.20281, "longitude": 37.81982, "city": "Sartana", "images": []}, {"id": 458485, "min_date": "2020-07-11T10:32:00Z", "max_date": "2020-07-12T11:48:00Z", "count_points": 8, "latitude": 46.98212, "longitude": 32.51264, "city": "Chornobayivka", "images": []}, {"id": 458486, "min_date": "2020-07-11T10:32:00Z", "max_date": "2020-07-11T10:32:00Z", "count_points": 1, "latitude": 47.3756, "longitude": 33.3987, "city": "Velyka Oleksandrivka", "images": []}, {"id": 458487, "min_date": "2020-07-11T10:32:00Z", "max_date": "2020-07-11T10:24:00Z", "count_points": 3, "latitude": 47.32511, "longitude": 32.43259, "city": "Bashtanka", "images": []}, {"id": 458488, "min_date": "2020-07-11T10:33:00Z", "max_date": "2020-07-11T10:24:00Z", "count_points": 4, "latitude": 49.63696, "longitude": 28.72179, "city": "Kozyatyn", "images": []}, {"id": 458489, "min_date": "2020-07-11T10:33:00Z", "max_date": "2020-07-12T00:18:00Z", "count_points": 6, "latitude": 48.70717, "longitude": 33.22843, "city": "Oleksandriya", "images": []}, {"id": 458490, "min_date": "2020-07-11T19:57:00Z", "max_date": "2020-07-11T22:36:00Z", "count_points": 5, "latitude": 47.43019, "longitude": 33.01747, "city": "Bereznehuvate", "images": []}, {"id": 458491, "min_date": "2020-07-11T19:57:00Z", "max_date": "2020-07-11T19:57:00Z", "count_points": 3, "latitude": 47.97717, "longitude": 33.65153, "city": "Sofiyivka", "images": []}, {"id": 458492, "min_date": "2020-07-11T19:57:00Z", "max_date": "2020-07-12T00:18:00Z", "count_points": 6, "latitude": 47.63289, "longitude": 33.40126, "city": "Shyroke", "images": []}, {"id": 458493, "min_date": "2020-07-12T00:06:00Z", "max_date": "2020-07-12T00:18:00Z", "count_points": 9, "latitude": 47.66188, "longitude": 32.6281, "city": "Novyy Buh", "images": []}, {"id": 458494, "min_date": "2020-07-12T00:06:00Z", "max_date": "2020-07-12T00:18:00Z", "count_points": 7, "latitude": 46.70731, "longitude": 34.47057, "city": "Ivanivka", "images": []}, {"id": 458495, "min_date": "2020-07-12T07:53:00Z", "max_date": "2020-07-12T07:53:00Z", "count_points": 2, "latitude": 47.94995, "longitude": 36.9547, "city": "Velyka Novosilka", "images": []}, {"id": 458496, "min_date": "2020-07-12T07:53:00Z", "max_date": "2020-07-12T10:06:00Z", "count_points": 16, "latitude": 48.18486, "longitude": 39.78847, "city": "Chervonopartyzans\u2019k", "images": []}, {"id": 458497, "min_date": "2020-07-12T07:53:00Z", "max_date": "2020-07-12T10:06:00Z", "count_points": 29, "latitude": 48.50272, "longitude": 38.42996, "city": "Popasna", "images": []}, {"id": 458498, "min_date": "2020-07-12T09:31:00Z", "max_date": "2020-07-12T11:48:00Z", "count_points": 6, "latitude": 48.74694, "longitude": 33.21778, "city": "Oleksandriya", "images": []}, {"id": 458499, "min_date": "2020-07-12T09:31:00Z", "max_date": "2020-07-12T11:48:00Z", "count_points": 18, "latitude": 48.60103, "longitude": 33.68719, "city": "Piatykhatky", "images": []}, {"id": 458500, "min_date": "2020-07-12T09:31:00Z", "max_date": "2020-07-12T09:31:00Z", "count_points": 2, "latitude": 48.04845, "longitude": 34.4949, "city": "Novopokrovka", "images": []}, {"id": 458501, "min_date": "2020-07-12T09:31:00Z", "max_date": "2020-07-12T09:31:00Z", "count_points": 1, "latitude": 48.0756, "longitude": 32.9326, "city": "Dolynska", "images": []}, {"id": 458502, "min_date": "2020-07-12T09:32:00Z", "max_date": "2020-07-12T10:06:00Z", "count_points": 7, "latitude": 45.17156, "longitude": 35.15377, "city": "Partizany", "images": []}, {"id": 458503, "min_date": "2020-07-12T09:37:00Z", "max_date": "2020-07-12T09:37:00Z", "count_points": 1, "latitude": 48.3534, "longitude": 39.7477, "city": "Krasnodon", "images": []}, {"id": 458504, "min_date": "2020-07-12T09:38:00Z", "max_date": "2020-07-12T09:38:00Z", "count_points": 2, "latitude": 48.7445, "longitude": 33.17455, "city": "Oleksandriya", "images": []}, {"id": 458505, "min_date": "2020-07-12T11:15:00Z", "max_date": "2020-07-12T11:15:00Z", "count_points": 2, "latitude": 47.7288, "longitude": 36.35205, "city": "Hulyaypole", "images": []}, {"id": 458506, "min_date": "2020-07-12T11:15:00Z", "max_date": "2020-07-12T11:15:00Z", "count_points": 2, "latitude": 46.6409, "longitude": 32.38275, "city": "Bilozerka", "images": []}, {"id": 458507, "min_date": "2020-07-12T11:15:00Z", "max_date": "2020-07-12T10:06:00Z", "count_points": 4, "latitude": 47.65576, "longitude": 33.4452, "city": "Vysokopillya", "images": []}, {"id": 458511, "min_date": "2020-07-12T19:02:00Z", "max_date": "2020-07-12T19:02:00Z", "count_points": 5, "latitude": 46.31172, "longitude": 34.12408, "city": "Novotroyits\u2019ke", "images": []}, {"id": 458512, "min_date": "2020-07-12T19:02:00Z", "max_date": "2020-07-12T19:02:00Z", "count_points": 4, "latitude": 47.72065, "longitude": 33.89793, "city": "Sholokhove", "images": []}, {"id": 458513, "min_date": "2020-07-12T19:02:00Z", "max_date": "2020-07-12T19:02:00Z", "count_points": 1, "latitude": 46.3418, "longitude": 34.4092, "city": "Novotroyits\u2019ke", "images": []}, {"id": 458515, "min_date": "2020-07-12T19:02:00Z", "max_date": "2020-07-12T19:02:00Z", "count_points": 2, "latitude": 47.64475, "longitude": 31.64065, "city": "Yelanets\u2019", "images": []}, {"id": 458518, "min_date": "2020-07-12T20:40:00Z", "max_date": "2020-07-12T20:40:00Z", "count_points": 1, "latitude": 46.4096, "longitude": 34.0269, "city": "Askaniya-Nova", "images": []}, {"id": 458519, "min_date": "2020-07-06T00:30:00Z", "max_date": "2020-07-06T00:30:00Z", "count_points": 1, "latitude": 48.07221, "longitude": 36.77057, "city": "Mezhova", "images": []}, {"id": 458520, "min_date": "2020-07-06T00:30:00Z", "max_date": "2020-07-07T00:12:00Z", "count_points": 5, "latitude": 48.46516, "longitude": 38.30274, "city": "Luhans\u2019ke", "images": []}, {"id": 458521, "min_date": "2020-07-06T00:30:00Z", "max_date": "2020-07-06T00:30:00Z", "count_points": 1, "latitude": 48.34611, "longitude": 38.00634, "city": "Horlivka", "images": []}, {"id": 458522, "min_date": "2020-07-06T00:30:00Z", "max_date": "2020-07-06T00:30:00Z", "count_points": 1, "latitude": 45.11142, "longitude": 35.07738, "city": "Privetnoye", "images": []}, {"id": 458523, "min_date": "2020-07-06T10:18:00Z", "max_date": "2020-07-06T10:18:00Z", "count_points": 1, "latitude": 47.65017, "longitude": 33.97016, "city": "Sholokhove", "images": []}, {"id": 458524, "min_date": "2020-07-06T10:18:00Z", "max_date": "2020-07-06T10:18:00Z", "count_points": 1, "latitude": 48.45218, "longitude": 36.52346, "city": "Petropavlivka", "images": []}, {"id": 458525, "min_date": "2020-07-06T10:18:00Z", "max_date": "2020-07-06T10:18:00Z", "count_points": 1, "latitude": 47.61893, "longitude": 32.63263, "city": "Novyy Buh", "images": []}, {"id": 458526, "min_date": "2020-07-06T10:18:00Z", "max_date": "2020-07-06T10:18:00Z", "count_points": 1, "latitude": 49.02019, "longitude": 37.30705, "city": "Studenok", "images": []}, {"id": 458527, "min_date": "2020-07-06T10:18:00Z", "max_date": "2020-07-06T10:18:00Z", "count_points": 1, "latitude": 49.50071, "longitude": 31.29349, "city": "Korsun-Shevchenkivskyi", "images": []}, {"id": 458528, "min_date": "2020-07-06T10:18:00Z", "max_date": "2020-07-06T10:18:00Z", "count_points": 1, "latitude": 48.49506, "longitude": 31.30923, "city": "Dobrovelychkivka", "images": []}, {"id": 458529, "min_date": "2020-07-06T10:18:00Z", "max_date": "2020-07-06T10:18:00Z", "count_points": 1, "latitude": 46.87475, "longitude": 35.47641, "city": "Voznesenka", "images": []}, {"id": 458530, "min_date": "2020-07-06T10:18:00Z", "max_date": "2020-07-06T10:18:00Z", "count_points": 1, "latitude": 51.14738, "longitude": 32.65422, "city": "Bakhmach", "images": []}, {"id": 458531, "min_date": "2020-07-06T10:18:00Z", "max_date": "2020-07-06T10:18:00Z", "count_points": 1, "latitude": 47.18829, "longitude": 36.25048, "city": "Chernihivka", "images": []}, {"id": 458532, "min_date": "2020-07-06T10:18:00Z", "max_date": "2020-07-06T10:18:00Z", "count_points": 1, "latitude": 45.63794, "longitude": 29.3522, "city": "Shevchenkove", "images": []}, {"id": 458533, "min_date": "2020-07-06T10:18:00Z", "max_date": "2020-07-06T10:18:00Z", "count_points": 1, "latitude": 51.03327, "longitude": 32.87539, "city": "Bakhmach", "images": []}, {"id": 458534, "min_date": "2020-07-06T10:18:00Z", "max_date": "2020-07-06T10:18:00Z", "count_points": 1, "latitude": 50.93639, "longitude": 34.6869, "city": "Sumy", "images": []}, {"id": 458535, "min_date": "2020-07-06T10:18:00Z", "max_date": "2020-07-06T10:18:00Z", "count_points": 1, "latitude": 46.28426, "longitude": 34.20171, "city": "Novotroyits\u2019ke", "images": []}, {"id": 458536, "min_date": "2020-07-06T10:18:00Z", "max_date": "2020-07-06T10:18:00Z", "count_points": 1, "latitude": 48.09917, "longitude": 31.82675, "city": "Rivne", "images": []}, {"id": 458537, "min_date": "2020-07-06T10:18:00Z", "max_date": "2020-07-06T10:18:00Z", "count_points": 1, "latitude": 49.89209, "longitude": 30.44177, "city": "Uzyn", "images": []}, {"id": 458538, "min_date": "2020-07-06T10:18:00Z", "max_date": "2020-07-06T10:18:00Z", "count_points": 1, "latitude": 49.53283, "longitude": 37.08662, "city": "Savyntsi", "images": []}, {"id": 458539, "min_date": "2020-07-06T10:18:00Z", "max_date": "2020-07-06T10:18:00Z", "count_points": 1, "latitude": 48.76574, "longitude": 33.8878, "city": "Lykhivka", "images": []}, {"id": 458540, "min_date": "2020-07-06T12:00:00Z", "max_date": "2020-07-06T12:00:00Z", "count_points": 2, "latitude": 49.29468, "longitude": 24.22267, "city": "Zhydachiv", "images": []}, {"id": 458541, "min_date": "2020-07-06T12:00:00Z", "max_date": "2020-07-06T12:00:00Z", "count_points": 1, "latitude": 49.80292, "longitude": 30.13689, "city": "Bila Tserkva", "images": []}, {"id": 458542, "min_date": "2020-07-06T22:30:00Z", "max_date": "2020-07-11T22:36:00Z", "count_points": 2, "latitude": 49.37872, "longitude": 37.77905, "city": "Borova", "images": []}, {"id": 458543, "min_date": "2020-07-06T22:30:00Z", "max_date": "2020-07-07T00:12:00Z", "count_points": 3, "latitude": 49.63327, "longitude": 34.52876, "city": "Poltava", "images": []}, {"id": 458544, "min_date": "2020-07-07T00:12:00Z", "max_date": "2020-07-07T00:12:00Z", "count_points": 2, "latitude": 47.53356, "longitude": 33.8886, "city": "Novovorontsovka", "images": []}, {"id": 458545, "min_date": "2020-07-07T00:12:00Z", "max_date": "2020-07-07T00:12:00Z", "count_points": 1, "latitude": 48.66571, "longitude": 38.1647, "city": "Soledar", "images": []}, {"id": 458546, "min_date": "2020-07-07T00:12:00Z", "max_date": "2020-07-07T00:12:00Z", "count_points": 1, "latitude": 46.2841, "longitude": 30.49997, "city": "Ovidiopol", "images": []}, {"id": 458547, "min_date": "2020-07-07T00:12:00Z", "max_date": "2020-07-07T00:12:00Z", "count_points": 1, "latitude": 49.35425, "longitude": 32.16276, "city": "Chervona Sloboda", "images": []}, {"id": 458548, "min_date": "2020-07-07T10:00:00Z", "max_date": "2020-07-07T10:00:00Z", "count_points": 1, "latitude": 48.2572, "longitude": 38.2221, "city": "Yenakiyeve", "images": []}, {"id": 458549, "min_date": "2020-07-07T10:00:00Z", "max_date": "2020-07-07T10:00:00Z", "count_points": 2, "latitude": 46.16741, "longitude": 33.09426, "city": "Skadovs\u2019k", "images": []}, {"id": 458550, "min_date": "2020-07-07T10:00:00Z", "max_date": "2020-07-07T10:00:00Z", "count_points": 1, "latitude": 46.73722, "longitude": 35.86095, "city": "Novovasylivka", "images": []}, {"id": 458551, "min_date": "2020-07-07T10:00:00Z", "max_date": "2020-07-07T10:00:00Z", "count_points": 1, "latitude": 47.57061, "longitude": 38.01298, "city": "Tel\u2019manove", "images": []}, {"id": 458552, "min_date": "2020-07-07T10:00:00Z", "max_date": "2020-07-07T10:00:00Z", "count_points": 1, "latitude": 49.46711, "longitude": 39.73988, "city": "Markivka", "images": []}, {"id": 458553, "min_date": "2020-07-07T10:00:00Z", "max_date": "2020-07-07T10:00:00Z", "count_points": 1, "latitude": 48.47069, "longitude": 38.98992, "city": "Bile", "images": []}, {"id": 458554, "min_date": "2020-07-07T10:00:00Z", "max_date": "2020-07-07T10:00:00Z", "count_points": 2, "latitude": 48.16437, "longitude": 31.23587, "city": "Lysa Hora", "images": []}, {"id": 458555, "min_date": "2020-07-07T10:00:00Z", "max_date": "2020-07-07T10:00:00Z", "count_points": 1, "latitude": 46.93441, "longitude": 32.24, "city": "Shevchenkove", "images": []}, {"id": 458556, "min_date": "2020-07-07T10:00:00Z", "max_date": "2020-07-07T10:00:00Z", "count_points": 1, "latitude": 47.999, "longitude": 38.09594, "city": "Khartsyz\u2019k", "images": []}, {"id": 458557, "min_date": "2020-07-07T10:00:00Z", "max_date": "2020-07-07T10:00:00Z", "count_points": 1, "latitude": 46.80812, "longitude": 30.11838, "city": "Rozdil\u2019na", "images": []}, {"id": 458558, "min_date": "2020-07-07T10:00:00Z", "max_date": "2020-07-07T10:00:00Z", "count_points": 1, "latitude": 46.85816, "longitude": 36.96877, "city": "Urzuf", "images": []}, {"id": 458559, "min_date": "2020-07-07T10:00:00Z", "max_date": "2020-07-07T10:00:00Z", "count_points": 3, "latitude": 48.98065, "longitude": 33.08542, "city": "Svitlovods\u2019k", "images": []}, {"id": 458560, "min_date": "2020-07-07T10:00:00Z", "max_date": "2020-07-07T10:00:00Z", "count_points": 1, "latitude": 47.67331, "longitude": 35.69325, "city": "Kirove", "images": []}, {"id": 458561, "min_date": "2020-07-07T10:00:00Z", "max_date": "2020-07-07T10:00:00Z", "count_points": 1, "latitude": 49.42585, "longitude": 37.06566, "city": "Savyntsi", "images": []}, {"id": 458562, "min_date": "2020-07-07T11:36:00Z", "max_date": "2020-07-07T11:36:00Z", "count_points": 4, "latitude": 46.41988, "longitude": 35.03768, "city": "Partyzany", "images": []}, {"id": 458563, "min_date": "2020-07-07T23:54:00Z", "max_date": "2020-07-07T23:54:00Z", "count_points": 1, "latitude": 47.99217, "longitude": 33.47454, "city": "Kryvyi Rih", "images": []}, {"id": 458564, "min_date": "2020-07-07T23:54:00Z", "max_date": "2020-07-07T23:54:00Z", "count_points": 1, "latitude": 48.24884, "longitude": 39.72391, "city": "Krasnodon", "images": []}, {"id": 458565, "min_date": "2020-07-07T23:54:00Z", "max_date": "2020-07-07T23:54:00Z", "count_points": 2, "latitude": 47.41768, "longitude": 33.50681, "city": "Vysokopillya", "images": []}, {"id": 458566, "min_date": "2020-07-07T23:54:00Z", "max_date": "2020-07-07T23:54:00Z", "count_points": 1, "latitude": 49.44259, "longitude": 36.64722, "city": "Komsomol\u2019s\u2019ke", "images": []}, {"id": 458567, "min_date": "2020-07-07T23:54:00Z", "max_date": "2020-07-07T23:54:00Z", "count_points": 1, "latitude": 49.94553, "longitude": 35.52098, "city": "Valky", "images": []}, {"id": 458568, "min_date": "2020-07-08T09:36:00Z", "max_date": "2020-07-08T09:36:00Z", "count_points": 4, "latitude": 45.30781, "longitude": 36.23303, "city": "Gornostayevka", "images": []}, {"id": 458569, "min_date": "2020-07-08T09:42:00Z", "max_date": "2020-07-08T11:18:00Z", "count_points": 5, "latitude": 46.0997, "longitude": 34.75493, "city": "Heniches\u2019k", "images": []}, {"id": 458570, "min_date": "2020-07-08T23:36:00Z", "max_date": "2020-07-09T23:12:00Z", "count_points": 2, "latitude": 50.43349, "longitude": 33.23961, "city": "Lokhvytsya", "images": []}, {"id": 458571, "min_date": "2020-07-08T23:36:00Z", "max_date": "2020-07-08T23:36:00Z", "count_points": 1, "latitude": 45.3175, "longitude": 33.41234, "city": "Kol\u2019tsovo", "images": []}, {"id": 458572, "min_date": "2020-07-08T23:36:00Z", "max_date": "2020-07-08T23:36:00Z", "count_points": 2, "latitude": 46.98689, "longitude": 32.0835, "city": "Mykolayiv", "images": []}, {"id": 458573, "min_date": "2020-07-08T23:36:00Z", "max_date": "2020-07-08T23:36:00Z", "count_points": 2, "latitude": 46.22607, "longitude": 34.34881, "city": "Novotroyits\u2019ke", "images": []}, {"id": 458574, "min_date": "2020-07-09T09:18:00Z", "max_date": "2020-07-09T09:18:00Z", "count_points": 1, "latitude": 46.37886, "longitude": 34.41888, "city": "Novotroyits\u2019ke", "images": []}, {"id": 458575, "min_date": "2020-07-09T09:18:00Z", "max_date": "2020-07-09T09:18:00Z", "count_points": 1, "latitude": 46.78478, "longitude": 33.3126, "city": "Nova Kakhovka", "images": []}, {"id": 458576, "min_date": "2020-07-09T09:24:00Z", "max_date": "2020-07-09T09:24:00Z", "count_points": 2, "latitude": 47.06337, "longitude": 31.49414, "city": "Berezanka", "images": []}, {"id": 458577, "min_date": "2020-07-09T09:24:00Z", "max_date": "2020-07-09T09:24:00Z", "count_points": 2, "latitude": 47.82887, "longitude": 32.54206, "city": "Ustynivka", "images": []}, {"id": 458578, "min_date": "2020-07-09T11:00:00Z", "max_date": "2020-07-09T11:00:00Z", "count_points": 1, "latitude": 47.47119, "longitude": 35.59546, "city": "Kirove", "images": []}, {"id": 458579, "min_date": "2020-07-09T11:00:00Z", "max_date": "2020-07-09T11:00:00Z", "count_points": 1, "latitude": 46.36234, "longitude": 33.11948, "city": "Brylivka", "images": []}, {"id": 458580, "min_date": "2020-07-09T11:00:00Z", "max_date": "2020-07-09T11:00:00Z", "count_points": 1, "latitude": 46.19305, "longitude": 29.16536, "city": "Tarutyne", "images": []}, {"id": 458581, "min_date": "2020-07-09T11:00:00Z", "max_date": "2020-07-09T11:00:00Z", "count_points": 1, "latitude": 48.92963, "longitude": 31.88348, "city": "Kapitanivka", "images": []}, {"id": 458582, "min_date": "2020-07-09T11:00:00Z", "max_date": "2020-07-09T11:00:00Z", "count_points": 1, "latitude": 46.1581, "longitude": 32.38429, "city": "Novofedorivka", "images": []}, {"id": 458583, "min_date": "2020-07-09T11:00:00Z", "max_date": "2020-07-09T11:00:00Z", "count_points": 1, "latitude": 47.82529, "longitude": 34.52857, "city": "Chervonohryhorivka", "images": []}, {"id": 458584, "min_date": "2020-07-09T11:00:00Z", "max_date": "2020-07-09T11:00:00Z", "count_points": 1, "latitude": 47.06945, "longitude": 31.53355, "city": "Berezanka", "images": []}, {"id": 458585, "min_date": "2020-07-09T11:00:00Z", "max_date": "2020-07-09T11:00:00Z", "count_points": 1, "latitude": 51.03283, "longitude": 35.05075, "city": "Verkhnya Syrovatka", "images": []}, {"id": 458586, "min_date": "2020-07-09T11:00:00Z", "max_date": "2020-07-09T11:00:00Z", "count_points": 1, "latitude": 47.74844, "longitude": 33.43627, "city": "Kryvyi Rih", "images": []}, {"id": 458587, "min_date": "2020-07-09T11:00:00Z", "max_date": "2020-07-09T11:00:00Z", "count_points": 2, "latitude": 48.22687, "longitude": 31.39635, "city": "Pomichna", "images": []}, {"id": 458588, "min_date": "2020-07-09T11:00:00Z", "max_date": "2020-07-09T11:00:00Z", "count_points": 1, "latitude": 46.27019, "longitude": 32.65066, "city": "Krasne", "images": []}, {"id": 458589, "min_date": "2020-07-09T11:00:00Z", "max_date": "2020-07-09T11:00:00Z", "count_points": 1, "latitude": 48.5605, "longitude": 38.0102, "city": "Artemivs\u2019k", "images": []}, {"id": 458590, "min_date": "2020-07-09T23:18:00Z", "max_date": "2020-07-09T23:18:00Z", "count_points": 1, "latitude": 47.54072, "longitude": 33.69192, "city": "Apostolove", "images": []}, {"id": 458591, "min_date": "2020-07-09T23:18:00Z", "max_date": "2020-07-09T23:18:00Z", "count_points": 1, "latitude": 46.42184, "longitude": 33.5129, "city": "Chaplynka", "images": []}, {"id": 458592, "min_date": "2020-07-09T23:18:00Z", "max_date": "2020-07-09T23:18:00Z", "count_points": 2, "latitude": 48.1381, "longitude": 38.3768, "city": "Shakhtars\u2019k", "images": []}, {"id": 458593, "min_date": "2020-07-09T23:18:00Z", "max_date": "2020-07-10T23:00:00Z", "count_points": 7, "latitude": 46.45463, "longitude": 34.76361, "city": "Partyzany", "images": []}, {"id": 458594, "min_date": "2020-07-09T23:18:00Z", "max_date": "2020-07-09T23:18:00Z", "count_points": 1, "latitude": 50.37445, "longitude": 29.96193, "city": "Makariv", "images": []}, {"id": 458595, "min_date": "2020-07-09T23:18:00Z", "max_date": "2020-07-10T00:54:00Z", "count_points": 7, "latitude": 47.6654, "longitude": 33.86163, "city": "Apostolove", "images": []}, {"id": 458596, "min_date": "2020-07-09T23:18:00Z", "max_date": "2020-07-09T23:18:00Z", "count_points": 1, "latitude": 49.22903, "longitude": 35.70813, "city": "Kehychivka", "images": []}, {"id": 458597, "min_date": "2020-07-09T23:18:00Z", "max_date": "2020-07-10T00:54:00Z", "count_points": 3, "latitude": 46.3745, "longitude": 34.29031, "city": "Novotroyits\u2019ke", "images": []}, {"id": 458598, "min_date": "2020-07-10T09:00:00Z", "max_date": "2020-07-10T09:00:00Z", "count_points": 1, "latitude": 48.1456, "longitude": 39.26437, "city": "Millerovo", "images": []}, {"id": 458599, "min_date": "2020-07-10T09:00:00Z", "max_date": "2020-07-10T10:42:00Z", "count_points": 2, "latitude": 48.0147, "longitude": 33.58149, "city": "Kryvyi Rih", "images": []}, {"id": 458600, "min_date": "2020-07-10T09:00:00Z", "max_date": "2020-07-10T09:00:00Z", "count_points": 1, "latitude": 48.74879, "longitude": 38.90638, "city": "Tr\u2019okhizbenka", "images": []}, {"id": 458601, "min_date": "2020-07-10T10:42:00Z", "max_date": "2020-07-10T10:42:00Z", "count_points": 1, "latitude": 49.0466, "longitude": 27.60068, "city": "Bar", "images": []}, {"id": 458602, "min_date": "2020-07-10T10:42:00Z", "max_date": "2020-07-10T10:42:00Z", "count_points": 1, "latitude": 46.31455, "longitude": 33.75188, "city": "Askaniya-Nova", "images": []}, {"id": 458603, "min_date": "2020-07-10T10:42:00Z", "max_date": "2020-07-10T10:42:00Z", "count_points": 1, "latitude": 48.07339, "longitude": 37.86532, "city": "Yasynuvata", "images": []}, {"id": 458604, "min_date": "2020-07-10T10:42:00Z", "max_date": "2020-07-10T10:42:00Z", "count_points": 1, "latitude": 47.93948, "longitude": 37.78405, "city": "Donetsk", "images": []}, {"id": 458605, "min_date": "2020-07-10T10:42:00Z", "max_date": "2020-07-10T10:42:00Z", "count_points": 1, "latitude": 45.36768, "longitude": 36.52369, "city": "Kerch", "images": []}, {"id": 458606, "min_date": "2020-07-10T10:42:00Z", "max_date": "2020-07-10T10:42:00Z", "count_points": 1, "latitude": 48.55747, "longitude": 30.88285, "city": "Tyshkivka", "images": []}, {"id": 458607, "min_date": "2020-07-10T10:42:00Z", "max_date": "2020-07-10T10:42:00Z", "count_points": 1, "latitude": 46.24133, "longitude": 29.04068, "city": "Serpneve", "images": []}, {"id": 458608, "min_date": "2020-07-10T10:42:00Z", "max_date": "2020-07-10T10:42:00Z", "count_points": 1, "latitude": 47.17327, "longitude": 37.82111, "city": "Sartana", "images": []}, {"id": 458609, "min_date": "2020-07-10T10:42:00Z", "max_date": "2020-07-10T10:42:00Z", "count_points": 1, "latitude": 50.51482, "longitude": 24.90323, "city": "Horokhiv", "images": []}, {"id": 458610, "min_date": "2020-07-10T10:42:00Z", "max_date": "2020-07-10T10:42:00Z", "count_points": 1, "latitude": 47.61539, "longitude": 32.10245, "city": "Yelanets\u2019", "images": []}, {"id": 458611, "min_date": "2020-07-10T10:42:00Z", "max_date": "2020-07-10T10:42:00Z", "count_points": 1, "latitude": 50.58153, "longitude": 25.07878, "city": "Berestechko", "images": []}, {"id": 458612, "min_date": "2020-07-10T10:42:00Z", "max_date": "2020-07-10T10:42:00Z", "count_points": 1, "latitude": 50.11794, "longitude": 28.92312, "city": "Andrushivka", "images": []}, {"id": 458613, "min_date": "2020-07-10T10:42:00Z", "max_date": "2020-07-10T10:42:00Z", "count_points": 1, "latitude": 45.36534, "longitude": 36.39417, "city": "Oktyabrskoye", "images": []}, {"id": 458614, "min_date": "2020-07-10T10:42:00Z", "max_date": "2020-07-10T10:42:00Z", "count_points": 1, "latitude": 48.81131, "longitude": 33.62106, "city": "Kamennyye Potoki", "images": []}, {"id": 458615, "min_date": "2020-07-10T22:54:00Z", "max_date": "2020-07-11T00:36:00Z", "count_points": 3, "latitude": 48.30255, "longitude": 32.97666, "city": "Nova Praha", "images": []}, {"id": 458617, "min_date": "2020-07-10T22:54:00Z", "max_date": "2020-07-11T00:36:00Z", "count_points": 4, "latitude": 47.29398, "longitude": 34.58823, "city": "Velyka Bilozerka", "images": []}, {"id": 458618, "min_date": "2020-07-10T22:54:00Z", "max_date": "2020-07-10T22:54:00Z", "count_points": 1, "latitude": 50.35297, "longitude": 30.52932, "city": "Khotiv", "images": []}, {"id": 458619, "min_date": "2020-07-10T23:00:00Z", "max_date": "2020-07-10T23:00:00Z", "count_points": 1, "latitude": 47.1112, "longitude": 32.23051, "city": "Shevchenkove", "images": []}, {"id": 458620, "min_date": "2020-07-10T23:00:00Z", "max_date": "2020-07-11T00:36:00Z", "count_points": 5, "latitude": 46.87361, "longitude": 34.43731, "city": "Nyzhni Sirohozy", "images": []}, {"id": 458621, "min_date": "2020-07-10T23:00:00Z", "max_date": "2020-07-11T00:36:00Z", "count_points": 5, "latitude": 46.55209, "longitude": 34.56097, "city": "Ivanivka", "images": []}, {"id": 458622, "min_date": "2020-07-11T00:36:00Z", "max_date": "2020-07-11T00:36:00Z", "count_points": 3, "latitude": 49.5594, "longitude": 24.49093, "city": "Peremyshlyany", "images": []}, {"id": 458623, "min_date": "2020-07-11T00:36:00Z", "max_date": "2020-07-11T00:36:00Z", "count_points": 3, "latitude": 46.59158, "longitude": 34.5691, "city": "Ivanivka", "images": []}, {"id": 458624, "min_date": "2020-07-11T10:24:00Z", "max_date": "2020-07-11T10:24:00Z", "count_points": 1, "latitude": 50.15764, "longitude": 31.76008, "city": "Yahotyn", "images": []}, {"id": 458625, "min_date": "2020-07-11T10:24:00Z", "max_date": "2020-07-11T10:24:00Z", "count_points": 2, "latitude": 48.57356, "longitude": 35.54259, "city": "Melioratyvne", "images": []}, {"id": 458626, "min_date": "2020-07-11T10:24:00Z", "max_date": "2020-07-11T10:24:00Z", "count_points": 1, "latitude": 46.81693, "longitude": 32.29245, "city": "Shevchenkove", "images": []}, {"id": 458627, "min_date": "2020-07-11T10:24:00Z", "max_date": "2020-07-11T10:24:00Z", "count_points": 1, "latitude": 49.20038, "longitude": 30.17362, "city": "Zhashkiv", "images": []}, {"id": 458628, "min_date": "2020-07-11T10:24:00Z", "max_date": "2020-07-11T10:24:00Z", "count_points": 1, "latitude": 47.6408, "longitude": 33.90357, "city": "Sholokhove", "images": []}, {"id": 458629, "min_date": "2020-07-11T10:24:00Z", "max_date": "2020-07-11T10:24:00Z", "count_points": 1, "latitude": 47.82041, "longitude": 32.80513, "city": "Kazanka", "images": []}, {"id": 458630, "min_date": "2020-07-11T10:24:00Z", "max_date": "2020-07-11T10:24:00Z", "count_points": 1, "latitude": 49.76598, "longitude": 36.09224, "city": "Utkivka", "images": []}, {"id": 458631, "min_date": "2020-07-11T10:24:00Z", "max_date": "2020-07-11T10:24:00Z", "count_points": 3, "latitude": 47.69594, "longitude": 33.385, "city": "Shyroke", "images": []}, {"id": 458632, "min_date": "2020-07-11T10:24:00Z", "max_date": "2020-07-11T12:06:00Z", "count_points": 4, "latitude": 48.54225, "longitude": 28.30331, "city": "Chernivtsi", "images": []}, {"id": 458633, "min_date": "2020-07-11T10:24:00Z", "max_date": "2020-07-11T10:24:00Z", "count_points": 1, "latitude": 47.65069, "longitude": 32.1455, "city": "Yelanets\u2019", "images": []}, {"id": 458634, "min_date": "2020-07-11T10:24:00Z", "max_date": "2020-07-11T10:24:00Z", "count_points": 1, "latitude": 46.84432, "longitude": 34.05064, "city": "Nyzhni Sirohozy", "images": []}, {"id": 458635, "min_date": "2020-07-11T10:24:00Z", "max_date": "2020-07-11T10:24:00Z", "count_points": 1, "latitude": 51.50272, "longitude": 32.08097, "city": "Mena", "images": []}, {"id": 458636, "min_date": "2020-07-11T10:24:00Z", "max_date": "2020-07-11T10:24:00Z", "count_points": 1, "latitude": 48.97259, "longitude": 30.04713, "city": "Verkhnyachka", "images": []}, {"id": 458637, "min_date": "2020-07-11T10:24:00Z", "max_date": "2020-07-11T10:24:00Z", "count_points": 1, "latitude": 48.92405, "longitude": 29.9329, "city": "Khrystynivka", "images": []}, {"id": 458638, "min_date": "2020-07-11T10:24:00Z", "max_date": "2020-07-11T10:24:00Z", "count_points": 1, "latitude": 47.49121, "longitude": 33.07513, "city": "Shyroke", "images": []}, {"id": 458639, "min_date": "2020-07-11T10:24:00Z", "max_date": "2020-07-11T10:24:00Z", "count_points": 2, "latitude": 48.60624, "longitude": 38.51202, "city": "Pervomays\u2019k", "images": []}, {"id": 458640, "min_date": "2020-07-11T10:24:00Z", "max_date": "2020-07-11T10:24:00Z", "count_points": 1, "latitude": 49.24956, "longitude": 29.81401, "city": "Tsibulev", "images": []}, {"id": 458641, "min_date": "2020-07-11T10:24:00Z", "max_date": "2020-07-11T10:24:00Z", "count_points": 1, "latitude": 47.70247, "longitude": 33.71655, "city": "Apostolove", "images": []}, {"id": 458642, "min_date": "2020-07-11T10:24:00Z", "max_date": "2020-07-11T10:24:00Z", "count_points": 1, "latitude": 50.68302, "longitude": 31.56759, "city": "Kobyzhcha", "images": []}, {"id": 458643, "min_date": "2020-07-11T10:24:00Z", "max_date": "2020-07-11T10:24:00Z", "count_points": 1, "latitude": 46.38967, "longitude": 34.56116, "city": "Novooleksiyivka", "images": []}, {"id": 458644, "min_date": "2020-07-11T10:24:00Z", "max_date": "2020-07-11T10:24:00Z", "count_points": 1, "latitude": 50.4914, "longitude": 30.74945, "city": "Knyazhichi", "images": []}, {"id": 458645, "min_date": "2020-07-11T10:24:00Z", "max_date": "2020-07-11T10:24:00Z", "count_points": 1, "latitude": 50.41576, "longitude": 30.60694, "city": "Kyiv", "images": []}, {"id": 458646, "min_date": "2020-07-11T10:24:00Z", "max_date": "2020-07-11T10:24:00Z", "count_points": 1, "latitude": 45.30743, "longitude": 36.43, "city": "Kerch", "images": []}, {"id": 458647, "min_date": "2020-07-11T10:24:00Z", "max_date": "2020-07-11T10:24:00Z", "count_points": 1, "latitude": 49.06638, "longitude": 33.44947, "city": "Kremenchuk", "images": []}, {"id": 458648, "min_date": "2020-07-11T10:24:00Z", "max_date": "2020-07-11T10:24:00Z", "count_points": 1, "latitude": 49.62704, "longitude": 33.6288, "city": "Velyka Bahachka", "images": []}, {"id": 458649, "min_date": "2020-07-11T10:24:00Z", "max_date": "2020-07-11T10:24:00Z", "count_points": 1, "latitude": 49.14641, "longitude": 34.20541, "city": "Kobelyaky", "images": []}, {"id": 458650, "min_date": "2020-07-11T10:24:00Z", "max_date": "2020-07-11T10:24:00Z", "count_points": 1, "latitude": 46.82325, "longitude": 36.88615, "city": "Berdyansk", "images": []}, {"id": 458651, "min_date": "2020-07-11T22:36:00Z", "max_date": "2020-07-12T00:18:00Z", "count_points": 4, "latitude": 46.57282, "longitude": 34.72037, "city": "Ivanivka", "images": []}, {"id": 458652, "min_date": "2020-07-11T22:36:00Z", "max_date": "2020-07-12T00:18:00Z", "count_points": 2, "latitude": 47.9985, "longitude": 34.81751, "city": "Tomakivka", "images": []}, {"id": 458653, "min_date": "2020-07-11T22:36:00Z", "max_date": "2020-07-12T00:18:00Z", "count_points": 5, "latitude": 46.67224, "longitude": 34.99853, "city": "Yakymivka", "images": []}, {"id": 458654, "min_date": "2020-07-11T22:36:00Z", "max_date": "2020-07-11T22:36:00Z", "count_points": 1, "latitude": 47.08548, "longitude": 32.95297, "city": "Snihurivka", "images": []}, {"id": 458655, "min_date": "2020-07-11T22:36:00Z", "max_date": "2020-07-11T22:36:00Z", "count_points": 1, "latitude": 49.17906, "longitude": 33.45363, "city": "Kremenchuk", "images": []}, {"id": 458656, "min_date": "2020-07-12T00:18:00Z", "max_date": "2020-07-12T00:18:00Z", "count_points": 1, "latitude": 47.94877, "longitude": 36.74415, "city": "Velyka Novosilka", "images": []}, {"id": 458657, "min_date": "2020-07-12T00:18:00Z", "max_date": "2020-07-12T10:06:00Z", "count_points": 3, "latitude": 47.08042, "longitude": 32.36552, "city": "Shevchenkove", "images": []}, {"id": 458658, "min_date": "2020-07-12T00:18:00Z", "max_date": "2020-07-12T00:18:00Z", "count_points": 1, "latitude": 46.05534, "longitude": 29.13452, "city": "Tarutyne", "images": []}, {"id": 458659, "min_date": "2020-07-12T00:18:00Z", "max_date": "2020-07-12T10:06:00Z", "count_points": 3, "latitude": 46.67127, "longitude": 33.92001, "city": "Askaniya-Nova", "images": []}, {"id": 458660, "min_date": "2020-07-12T00:18:00Z", "max_date": "2020-07-12T00:18:00Z", "count_points": 2, "latitude": 46.53935, "longitude": 34.14416, "city": "Novotroyits\u2019ke", "images": []}, {"id": 458661, "min_date": "2020-07-12T10:06:00Z", "max_date": "2020-07-12T10:06:00Z", "count_points": 1, "latitude": 48.00722, "longitude": 34.33316, "city": "Novopokrovka", "images": []}, {"id": 458662, "min_date": "2020-07-12T10:06:00Z", "max_date": "2020-07-12T10:06:00Z", "count_points": 1, "latitude": 48.47329, "longitude": 38.64469, "city": "Bryanka", "images": []}, {"id": 458663, "min_date": "2020-07-12T10:06:00Z", "max_date": "2020-07-12T10:06:00Z", "count_points": 1, "latitude": 48.369, "longitude": 36.59251, "city": "Petropavlivka", "images": []}, {"id": 458664, "min_date": "2020-07-12T10:06:00Z", "max_date": "2020-07-12T10:06:00Z", "count_points": 1, "latitude": 47.45615, "longitude": 31.72954, "city": "Nova Odesa", "images": []}, {"id": 458665, "min_date": "2020-07-12T10:06:00Z", "max_date": "2020-07-12T10:06:00Z", "count_points": 2, "latitude": 47.24209, "longitude": 32.11085, "city": "Mykolayiv", "images": []}, {"id": 458666, "min_date": "2020-07-12T10:06:00Z", "max_date": "2020-07-12T10:06:00Z", "count_points": 1, "latitude": 48.68051, "longitude": 35.02627, "city": "Spas\u2019ke", "images": []}, {"id": 458667, "min_date": "2020-07-12T10:06:00Z", "max_date": "2020-07-12T10:06:00Z", "count_points": 1, "latitude": 48.31938, "longitude": 37.77293, "city": "Shcherbynivka", "images": []}, {"id": 458668, "min_date": "2020-07-12T10:06:00Z", "max_date": "2020-07-12T10:06:00Z", "count_points": 1, "latitude": 49.77875, "longitude": 38.79351, "city": "Lozno-Oleksandrivka", "images": []}, {"id": 458669, "min_date": "2020-07-12T10:06:00Z", "max_date": "2020-07-12T10:06:00Z", "count_points": 1, "latitude": 48.6062, "longitude": 38.68982, "city": "Kirovs\u2019k", "images": []}, {"id": 458670, "min_date": "2020-07-12T10:06:00Z", "max_date": "2020-07-12T10:06:00Z", "count_points": 1, "latitude": 47.44985, "longitude": 32.74329, "city": "Bereznehuvate", "images": []}, {"id": 458671, "min_date": "2020-07-12T10:06:00Z", "max_date": "2020-07-12T10:06:00Z", "count_points": 2, "latitude": 47.37806, "longitude": 32.04163, "city": "Nova Odesa", "images": []}, {"id": 458672, "min_date": "2020-07-12T10:06:00Z", "max_date": "2020-07-12T10:06:00Z", "count_points": 1, "latitude": 48.72303, "longitude": 38.83858, "city": "Frunze", "images": []}, {"id": 458673, "min_date": "2020-07-12T10:06:00Z", "max_date": "2020-07-12T10:06:00Z", "count_points": 1, "latitude": 48.45153, "longitude": 34.48486, "city": "Krynychky", "images": []}, {"id": 458674, "min_date": "2020-07-12T10:06:00Z", "max_date": "2020-07-12T10:06:00Z", "count_points": 1, "latitude": 49.65678, "longitude": 37.71341, "city": "Kivsharivka", "images": []}, {"id": 458675, "min_date": "2020-07-12T10:06:00Z", "max_date": "2020-07-12T10:06:00Z", "count_points": 1, "latitude": 48.49685, "longitude": 39.78892, "city": "Uralo-Kavkaz", "images": []}, {"id": 458676, "min_date": "2020-07-12T10:06:00Z", "max_date": "2020-07-12T10:06:00Z", "count_points": 1, "latitude": 45.1177, "longitude": 35.24075, "city": "Zhuravki", "images": []}, {"id": 458677, "min_date": "2020-07-12T10:06:00Z", "max_date": "2020-07-12T10:06:00Z", "count_points": 1, "latitude": 47.88566, "longitude": 36.79207, "city": "Velyka Novosilka", "images": []}, {"id": 458678, "min_date": "2020-07-12T10:06:00Z", "max_date": "2020-07-12T10:06:00Z", "count_points": 1, "latitude": 45.16962, "longitude": 34.84294, "city": "Muromskoye", "images": []}, {"id": 458679, "min_date": "2020-07-12T10:06:00Z", "max_date": "2020-07-12T10:06:00Z", "count_points": 1, "latitude": 51.8852, "longitude": 33.47757, "city": "Shostka", "images": []}, {"id": 458680, "min_date": "2020-07-12T10:06:00Z", "max_date": "2020-07-12T10:06:00Z", "count_points": 3, "latitude": 47.4553, "longitude": 32.90836, "city": "Bereznehuvate", "images": []}, {"id": 458681, "min_date": "2020-07-12T10:06:00Z", "max_date": "2020-07-12T10:06:00Z", "count_points": 2, "latitude": 48.67551, "longitude": 34.69385, "city": "Petrykivka", "images": []}, {"id": 458682, "min_date": "2020-07-12T10:06:00Z", "max_date": "2020-07-12T10:06:00Z", "count_points": 5, "latitude": 47.9546, "longitude": 31.89836, "city": "Yelanets\u2019", "images": []}, {"id": 458683, "min_date": "2020-07-12T10:06:00Z", "max_date": "2020-07-12T10:06:00Z", "count_points": 1, "latitude": 46.84662, "longitude": 33.03636, "city": "Kozachi Laheri", "images": []}, {"id": 458684, "min_date": "2020-07-12T10:06:00Z", "max_date": "2020-07-12T10:06:00Z", "count_points": 3, "latitude": 48.49055, "longitude": 38.55992, "city": "Zoryns\u2019k", "images": []}, {"id": 458685, "min_date": "2020-07-12T10:06:00Z", "max_date": "2020-07-12T10:06:00Z", "count_points": 1, "latitude": 50.301, "longitude": 37.11847, "city": "Vovchans\u2019k", "images": []}, {"id": 458686, "min_date": "2020-07-12T10:06:00Z", "max_date": "2020-07-12T10:06:00Z", "count_points": 1, "latitude": 47.59673, "longitude": 34.30143, "city": "Nikopol", "images": []}, {"id": 458687, "min_date": "2020-07-12T10:06:00Z", "max_date": "2020-07-12T10:06:00Z", "count_points": 2, "latitude": 46.35292, "longitude": 33.73886, "city": "Askaniya-Nova", "images": []}, {"id": 458688, "min_date": "2020-07-12T10:06:00Z", "max_date": "2020-07-12T10:06:00Z", "count_points": 1, "latitude": 45.34925, "longitude": 36.20208, "city": "Chistopolye", "images": []}, {"id": 458689, "min_date": "2020-07-12T10:06:00Z", "max_date": "2020-07-12T10:06:00Z", "count_points": 1, "latitude": 48.626, "longitude": 35.20433, "city": "Novomoskovs\u2019k", "images": []}, {"id": 458690, "min_date": "2020-07-12T10:06:00Z", "max_date": "2020-07-12T10:06:00Z", "count_points": 1, "latitude": 47.70086, "longitude": 33.42697, "city": "Shyroke", "images": []}, {"id": 458691, "min_date": "2020-07-12T10:06:00Z", "max_date": "2020-07-12T10:06:00Z", "count_points": 2, "latitude": 48.2341, "longitude": 38.41281, "city": "Debal\u2019tseve", "images": []}, {"id": 458692, "min_date": "2020-07-12T10:06:00Z", "max_date": "2020-07-12T10:06:00Z", "count_points": 1, "latitude": 47.96828, "longitude": 38.88765, "city": "Dmytrivka", "images": []}, {"id": 458693, "min_date": "2020-07-12T10:06:00Z", "max_date": "2020-07-12T11:48:00Z", "count_points": 8, "latitude": 48.30722, "longitude": 30.49142, "city": "Holovanivs\u2019k", "images": []}, {"id": 458694, "min_date": "2020-07-12T10:06:00Z", "max_date": "2020-07-12T10:06:00Z", "count_points": 1, "latitude": 48.14664, "longitude": 38.70027, "city": "Krasnyy Kut", "images": []}, {"id": 458695, "min_date": "2020-07-12T10:06:00Z", "max_date": "2020-07-12T10:06:00Z", "count_points": 1, "latitude": 47.23858, "longitude": 36.33475, "city": "Chernihivka", "images": []}, {"id": 458696, "min_date": "2020-07-12T10:06:00Z", "max_date": "2020-07-12T10:06:00Z", "count_points": 1, "latitude": 48.99945, "longitude": 34.46151, "city": "Tsarychanka", "images": []}, {"id": 458697, "min_date": "2020-07-12T11:48:00Z", "max_date": "2020-07-12T11:48:00Z", "count_points": 2, "latitude": 49.07042, "longitude": 32.06506, "city": "Kamianka", "images": []}, {"id": 458698, "min_date": "2020-07-12T11:48:00Z", "max_date": "2020-07-12T11:48:00Z", "count_points": 1, "latitude": 48.31083, "longitude": 32.93944, "city": "Nova Praha", "images": []}, {"id": 458699, "min_date": "2020-07-12T11:48:00Z", "max_date": "2020-07-12T11:48:00Z", "count_points": 2, "latitude": 48.00945, "longitude": 29.28662, "city": "Slobidka", "images": []}, {"id": 458700, "min_date": "2020-07-12T11:48:00Z", "max_date": "2020-07-12T11:48:00Z", "count_points": 2, "latitude": 48.09659, "longitude": 31.62473, "city": "Rivne", "images": []}, {"id": 458701, "min_date": "2020-07-12T11:48:00Z", "max_date": "2020-07-12T11:48:00Z", "count_points": 1, "latitude": 48.16759, "longitude": 31.63283, "city": "Rivne", "images": []}, {"id": 458702, "min_date": "2020-07-12T22:18:00Z", "max_date": "2020-07-12T22:18:00Z", "count_points": 1, "latitude": 48.73603, "longitude": 36.24042, "city": "Lozova", "images": []}, {"id": 458703, "min_date": "2020-07-12T22:18:00Z", "max_date": "2020-07-12T22:18:00Z", "count_points": 2, "latitude": 48.04401, "longitude": 36.43363, "city": "Pokrovs\u2019ke", "images": []}]