[{"id": 457938, "min_date": "2020-05-04T09:12:00Z", "max_date": "2020-05-04T09:12:00Z", "count_points": 1, "latitude": 50.5951, "longitude": 30.4718, "city": "Vyshhorod", "images": []}, {"id": 457939, "min_date": "2020-05-04T09:12:00Z", "max_date": "2020-05-04T09:12:00Z", "count_points": 1, "latitude": 52.0192, "longitude": 32.479, "city": "Semenivka", "images": []}, {"id": 457940, "min_date": "2020-05-04T10:58:00Z", "max_date": "2020-05-04T10:58:00Z", "count_points": 1, "latitude": 48.7961, "longitude": 27.9544, "city": "Sharhorod", "images": []}, {"id": 457941, "min_date": "2020-05-04T10:58:00Z", "max_date": "2020-05-04T10:58:00Z", "count_points": 3, "latitude": 50.55103, "longitude": 30.8296, "city": "Brovary", "images": []}, {"id": 457942, "min_date": "2020-05-06T10:45:00Z", "max_date": "2020-05-10T23:43:00Z", "count_points": 6, "latitude": 47.62702, "longitude": 34.33591, "city": "Nikopol", "images": []}, {"id": 457943, "min_date": "2020-05-07T09:43:00Z", "max_date": "2020-05-07T09:43:00Z", "count_points": 1, "latitude": 50.6742, "longitude": 26.1732, "city": "Tynne", "images": []}, {"id": 457944, "min_date": "2020-05-08T08:48:00Z", "max_date": "2020-05-08T10:27:00Z", "count_points": 5, "latitude": 51.66351, "longitude": 25.93417, "city": "Kuznetsovs\u2019k", "images": [{"image_url": "457944.jpg", "timestamp": "2020-05-08T10:27:00Z"}]}, {"id": 457945, "min_date": "2020-05-08T10:34:00Z", "max_date": "2020-05-08T10:34:00Z", "count_points": 1, "latitude": 50.8866, "longitude": 24.2971, "city": "Volodymyr-Volynskyi", "images": []}, {"id": 457946, "min_date": "2020-05-10T23:53:00Z", "max_date": "2020-05-10T23:43:00Z", "count_points": 2, "latitude": 49.9439, "longitude": 35.03833, "city": "Krasnokuts\u2019k", "images": []}, {"id": 457947, "min_date": "2020-05-04T00:14:00Z", "max_date": "2020-05-04T23:55:00Z", "count_points": 3, "latitude": 49.99979, "longitude": 34.27983, "city": "Zin\u2019kiv", "images": []}, {"id": 457948, "min_date": "2020-05-04T10:01:00Z", "max_date": "2020-05-04T10:01:00Z", "count_points": 1, "latitude": 49.74902, "longitude": 34.37852, "city": "Dykan\u2019ka", "images": []}, {"id": 457949, "min_date": "2020-05-04T10:02:00Z", "max_date": "2020-05-04T10:02:00Z", "count_points": 1, "latitude": 49.52495, "longitude": 30.44747, "city": "Tarashcha", "images": []}, {"id": 457950, "min_date": "2020-05-04T23:55:00Z", "max_date": "2020-05-04T23:55:00Z", "count_points": 1, "latitude": 50.37523, "longitude": 30.70149, "city": "Hnidyn", "images": []}, {"id": 457951, "min_date": "2020-05-04T23:56:00Z", "max_date": "2020-05-04T23:56:00Z", "count_points": 1, "latitude": 49.2174, "longitude": 31.76589, "city": "Smila", "images": []}, {"id": 457952, "min_date": "2020-05-05T11:22:00Z", "max_date": "2020-05-05T11:22:00Z", "count_points": 1, "latitude": 45.42123, "longitude": 29.56958, "city": "Vylkove", "images": []}, {"id": 457953, "min_date": "2020-05-05T11:23:00Z", "max_date": "2020-05-05T11:23:00Z", "count_points": 1, "latitude": 49.33956, "longitude": 35.81775, "city": "Chapayeve", "images": []}, {"id": 457954, "min_date": "2020-05-05T23:37:00Z", "max_date": "2020-05-05T23:37:00Z", "count_points": 1, "latitude": 49.33017, "longitude": 36.27096, "city": "Pervomays\u2019kyy", "images": []}, {"id": 457955, "min_date": "2020-05-05T23:37:00Z", "max_date": "2020-05-05T23:37:00Z", "count_points": 1, "latitude": 49.42146, "longitude": 36.21424, "city": "Pervomays\u2019kyy", "images": []}, {"id": 457956, "min_date": "2020-05-06T01:17:00Z", "max_date": "2020-05-06T01:17:00Z", "count_points": 1, "latitude": 49.37587, "longitude": 26.64037, "city": "Narkevychi", "images": []}, {"id": 457957, "min_date": "2020-05-06T09:23:00Z", "max_date": "2020-05-06T09:23:00Z", "count_points": 2, "latitude": 44.88001, "longitude": 33.75352, "city": "Prudovoye", "images": []}, {"id": 457958, "min_date": "2020-05-06T09:24:00Z", "max_date": "2020-05-06T09:24:00Z", "count_points": 1, "latitude": 49.99566, "longitude": 31.64497, "city": "Tsybli", "images": []}, {"id": 457959, "min_date": "2020-05-06T11:04:00Z", "max_date": "2020-05-10T00:02:00Z", "count_points": 2, "latitude": 50.2249, "longitude": 33.33676, "city": "Sencha", "images": []}, {"id": 457960, "min_date": "2020-05-07T10:46:00Z", "max_date": "2020-05-07T10:46:00Z", "count_points": 1, "latitude": 51.61716, "longitude": 24.75827, "city": "Rakiv Lis", "images": []}, {"id": 457961, "min_date": "2020-05-07T10:46:00Z", "max_date": "2020-05-07T10:46:00Z", "count_points": 1, "latitude": 51.24687, "longitude": 25.94538, "city": "Volodymyrets\u2019", "images": []}, {"id": 457962, "min_date": "2020-05-07T10:46:00Z", "max_date": "2020-05-07T10:46:00Z", "count_points": 1, "latitude": 51.76442, "longitude": 26.66894, "city": "Dubrovytsya", "images": []}, {"id": 457963, "min_date": "2020-05-07T22:58:00Z", "max_date": "2020-05-07T22:58:00Z", "count_points": 1, "latitude": 50.64178, "longitude": 33.45885, "city": "Romny", "images": []}, {"id": 457964, "min_date": "2020-05-08T12:08:00Z", "max_date": "2020-05-08T12:08:00Z", "count_points": 1, "latitude": 50.52492, "longitude": 27.01173, "city": "Korets", "images": []}, {"id": 457965, "min_date": "2020-05-09T11:49:00Z", "max_date": "2020-05-09T11:49:00Z", "count_points": 1, "latitude": 50.70393, "longitude": 27.37006, "city": "Horodnytsya", "images": []}, {"id": 457966, "min_date": "2020-05-10T00:02:00Z", "max_date": "2020-05-10T00:02:00Z", "count_points": 1, "latitude": 49.1215, "longitude": 25.70664, "city": "Belaya", "images": []}, {"id": 457967, "min_date": "2020-05-10T00:02:00Z", "max_date": "2020-05-10T23:43:00Z", "count_points": 2, "latitude": 49.16076, "longitude": 33.47283, "city": "Kremenchuk", "images": []}, {"id": 457968, "min_date": "2020-05-10T09:48:00Z", "max_date": "2020-05-10T09:48:00Z", "count_points": 1, "latitude": 46.44711, "longitude": 30.21009, "city": "Bilyayivka", "images": []}, {"id": 457969, "min_date": "2020-05-10T09:49:00Z", "max_date": "2020-05-10T09:49:00Z", "count_points": 1, "latitude": 49.84457, "longitude": 27.94654, "city": "Liubar", "images": []}, {"id": 457970, "min_date": "2020-05-10T09:50:00Z", "max_date": "2020-05-10T11:30:00Z", "count_points": 5, "latitude": 50.16829, "longitude": 27.6435, "city": "Polyanka", "images": []}]