[{"id": 450577, "min_date": "2020-03-30T00:54:00Z", "max_date": "2020-03-30T01:10:00Z", "count_points": 10, "latitude": 51.39772, "longitude": 31.74929, "city": "Kulykivka", "images": []}, {"id": 450578, "min_date": "2020-03-30T00:55:00Z", "max_date": "2020-04-05T00:58:00Z", "count_points": 9, "latitude": 50.25951, "longitude": 32.53045, "city": "Pyryatyn", "images": []}, {"id": 450579, "min_date": "2020-03-30T00:55:00Z", "max_date": "2020-03-30T23:11:00Z", "count_points": 55, "latitude": 49.76519, "longitude": 32.87927, "city": "Orzhytsya", "images": []}, {"id": 450580, "min_date": "2020-03-30T08:41:00Z", "max_date": "2020-03-30T10:59:00Z", "count_points": 10, "latitude": 52.18905, "longitude": 33.34886, "city": "Novhorod-Sivers\u2019kyy", "images": []}, {"id": 450581, "min_date": "2020-03-30T08:41:00Z", "max_date": "2020-03-30T09:19:00Z", "count_points": 3, "latitude": 52.07914, "longitude": 32.83153, "city": "Semenivka", "images": []}, {"id": 450582, "min_date": "2020-03-30T08:41:00Z", "max_date": "2020-03-30T10:59:00Z", "count_points": 9, "latitude": 52.05441, "longitude": 33.84339, "city": "Druzhba", "images": []}, {"id": 450583, "min_date": "2020-03-30T08:42:00Z", "max_date": "2020-04-03T11:24:00Z", "count_points": 32, "latitude": 50.9669, "longitude": 31.78458, "city": "Nizhyn", "images": []}, {"id": 450584, "min_date": "2020-03-30T08:42:00Z", "max_date": "2020-03-30T10:59:00Z", "count_points": 6, "latitude": 51.63817, "longitude": 33.21263, "city": "Krolevets\u2019", "images": []}, {"id": 450585, "min_date": "2020-03-30T08:42:00Z", "max_date": "2020-03-30T10:58:00Z", "count_points": 8, "latitude": 51.35868, "longitude": 34.29063, "city": "Vorozhba", "images": []}, {"id": 450586, "min_date": "2020-03-30T08:42:00Z", "max_date": "2020-03-30T10:59:00Z", "count_points": 12, "latitude": 51.53893, "longitude": 32.69214, "city": "Sosnytsya", "images": []}, {"id": 450587, "min_date": "2020-03-30T08:42:00Z", "max_date": "2020-03-30T09:19:00Z", "count_points": 4, "latitude": 51.50724, "longitude": 31.54153, "city": "Sedniv", "images": []}, {"id": 450588, "min_date": "2020-03-30T08:42:00Z", "max_date": "2020-03-30T08:42:00Z", "count_points": 1, "latitude": 51.3754, "longitude": 31.5651, "city": "Kulykivka", "images": []}, {"id": 450589, "min_date": "2020-03-30T08:42:00Z", "max_date": "2020-03-30T10:59:00Z", "count_points": 14, "latitude": 51.35071, "longitude": 31.52878, "city": "Kulykivka", "images": []}, {"id": 450590, "min_date": "2020-03-30T08:42:00Z", "max_date": "2020-03-30T10:58:00Z", "count_points": 10, "latitude": 51.12537, "longitude": 33.51778, "city": "Sloboda", "images": []}, {"id": 450591, "min_date": "2020-03-30T08:42:00Z", "max_date": "2020-03-30T10:59:00Z", "count_points": 9, "latitude": 51.34701, "longitude": 31.35638, "city": "Olyshivka", "images": []}, {"id": 450592, "min_date": "2020-03-30T08:42:00Z", "max_date": "2020-03-30T08:42:00Z", "count_points": 1, "latitude": 51.2713, "longitude": 31.9069, "city": "Nizhyn", "images": []}, {"id": 450593, "min_date": "2020-03-30T08:42:00Z", "max_date": "2020-03-30T10:58:00Z", "count_points": 3, "latitude": 50.84844, "longitude": 34.41512, "city": "Lebedyn", "images": []}, {"id": 450594, "min_date": "2020-03-30T08:42:00Z", "max_date": "2020-03-30T08:42:00Z", "count_points": 1, "latitude": 50.8698, "longitude": 34.1223, "city": "Terny", "images": []}, {"id": 450595, "min_date": "2020-03-30T08:42:00Z", "max_date": "2020-03-30T08:42:00Z", "count_points": 2, "latitude": 51.09275, "longitude": 31.76335, "city": "Nizhyn", "images": []}, {"id": 450596, "min_date": "2020-03-30T08:42:00Z", "max_date": "2020-04-03T11:24:00Z", "count_points": 2, "latitude": 51.05826, "longitude": 31.93055, "city": "Nizhyn", "images": []}, {"id": 450597, "min_date": "2020-03-30T08:42:00Z", "max_date": "2020-03-30T09:18:00Z", "count_points": 2, "latitude": 50.84647, "longitude": 33.90449, "city": "Nedryhayliv", "images": []}, {"id": 450598, "min_date": "2020-03-30T08:42:00Z", "max_date": "2020-03-30T09:18:00Z", "count_points": 5, "latitude": 50.66255, "longitude": 35.14074, "city": "Boromlya", "images": []}, {"id": 450599, "min_date": "2020-03-30T08:42:00Z", "max_date": "2020-03-30T09:18:00Z", "count_points": 8, "latitude": 51.12454, "longitude": 30.89697, "city": "Oster", "images": []}, {"id": 450600, "min_date": "2020-03-30T08:42:00Z", "max_date": "2020-04-04T09:24:00Z", "count_points": 2, "latitude": 50.36236, "longitude": 37.25032, "city": "Prykolotne", "images": []}, {"id": 450601, "min_date": "2020-03-30T08:42:00Z", "max_date": "2020-04-05T22:58:00Z", "count_points": 31, "latitude": 50.79831, "longitude": 33.67482, "city": "Nedryhayliv", "images": []}, {"id": 450602, "min_date": "2020-03-30T08:42:00Z", "max_date": "2020-03-30T08:42:00Z", "count_points": 1, "latitude": 50.8601, "longitude": 32.6277, "city": "Ichnya", "images": []}, {"id": 450603, "min_date": "2020-03-30T08:42:00Z", "max_date": "2020-03-30T09:18:00Z", "count_points": 3, "latitude": 50.61986, "longitude": 34.6372, "city": "Lebedyn", "images": []}, {"id": 450604, "min_date": "2020-03-30T08:42:00Z", "max_date": "2020-03-30T08:42:00Z", "count_points": 1, "latitude": 50.9364, "longitude": 31.1679, "city": "Kozelets\u2019", "images": []}, {"id": 450605, "min_date": "2020-03-30T08:42:00Z", "max_date": "2020-04-03T09:43:00Z", "count_points": 25, "latitude": 50.65598, "longitude": 33.69908, "city": "Lypova Dolyna", "images": []}, {"id": 450606, "min_date": "2020-03-30T08:42:00Z", "max_date": "2020-03-30T10:58:00Z", "count_points": 5, "latitude": 50.56967, "longitude": 33.62107, "city": "Lypova Dolyna", "images": []}, {"id": 450607, "min_date": "2020-03-30T08:42:00Z", "max_date": "2020-03-30T10:58:00Z", "count_points": 64, "latitude": 50.81718, "longitude": 31.2497, "city": "Kozelets\u2019", "images": []}, {"id": 450608, "min_date": "2020-03-30T08:42:00Z", "max_date": "2020-04-05T09:06:00Z", "count_points": 5, "latitude": 50.40468, "longitude": 34.74001, "city": "Okhtyrka", "images": []}, {"id": 450609, "min_date": "2020-03-30T08:42:00Z", "max_date": "2020-03-30T08:42:00Z", "count_points": 1, "latitude": 49.9561, "longitude": 37.5077, "city": "Velykyy Burluk", "images": []}, {"id": 450610, "min_date": "2020-03-30T08:42:00Z", "max_date": "2020-04-04T11:04:00Z", "count_points": 7, "latitude": 49.84936, "longitude": 38.33854, "city": "Troyits\u2019ke", "images": []}, {"id": 450611, "min_date": "2020-03-30T08:42:00Z", "max_date": "2020-03-30T08:42:00Z", "count_points": 1, "latitude": 50.176, "longitude": 35.9525, "city": "Zolochiv", "images": []}, {"id": 450612, "min_date": "2020-03-30T08:42:00Z", "max_date": "2020-03-30T10:58:00Z", "count_points": 5, "latitude": 50.10638, "longitude": 35.97165, "city": "Peresichna", "images": []}, {"id": 450613, "min_date": "2020-03-30T08:42:00Z", "max_date": "2020-03-30T10:58:00Z", "count_points": 8, "latitude": 50.02212, "longitude": 36.06401, "city": "Solonytsivka", "images": []}, {"id": 450614, "min_date": "2020-03-30T08:42:00Z", "max_date": "2020-03-30T08:42:00Z", "count_points": 2, "latitude": 50.343, "longitude": 33.2589, "city": "Lokhvytsya", "images": []}, {"id": 450615, "min_date": "2020-03-30T08:42:00Z", "max_date": "2020-03-30T08:42:00Z", "count_points": 1, "latitude": 49.6705, "longitude": 38.0738, "city": "Nyzhnya Duvanka", "images": []}, {"id": 450616, "min_date": "2020-03-30T08:42:00Z", "max_date": "2020-03-30T09:18:00Z", "count_points": 4, "latitude": 49.68064, "longitude": 37.85852, "city": "Kivsharivka", "images": []}, {"id": 450617, "min_date": "2020-03-30T08:42:00Z", "max_date": "2020-03-30T09:18:00Z", "count_points": 3, "latitude": 50.16141, "longitude": 34.40204, "city": "Zin\u2019kiv", "images": []}, {"id": 450618, "min_date": "2020-03-30T08:42:00Z", "max_date": "2020-04-02T23:55:00Z", "count_points": 14, "latitude": 50.3754, "longitude": 32.4968, "city": "Pyryatyn", "images": []}, {"id": 450619, "min_date": "2020-03-30T08:42:00Z", "max_date": "2020-04-01T22:33:00Z", "count_points": 6, "latitude": 49.30767, "longitude": 39.42761, "city": "Bilovodsk", "images": []}, {"id": 450620, "min_date": "2020-03-30T08:42:00Z", "max_date": "2020-03-30T08:42:00Z", "count_points": 1, "latitude": 49.2772, "longitude": 39.5779, "city": "Bilovodsk", "images": []}, {"id": 450621, "min_date": "2020-03-30T08:42:00Z", "max_date": "2020-03-30T09:17:00Z", "count_points": 3, "latitude": 49.41582, "longitude": 38.58887, "city": "Bilokurakyne", "images": []}, {"id": 450622, "min_date": "2020-03-30T08:42:00Z", "max_date": "2020-03-30T08:42:00Z", "count_points": 2, "latitude": 49.5499, "longitude": 37.21335, "city": "Shevchenkove", "images": []}, {"id": 450623, "min_date": "2020-03-30T08:42:00Z", "max_date": "2020-04-03T11:23:00Z", "count_points": 3, "latitude": 49.71701, "longitude": 34.0389, "city": "Reshetylivka", "images": []}, {"id": 450624, "min_date": "2020-03-30T08:42:00Z", "max_date": "2020-04-03T09:42:00Z", "count_points": 6, "latitude": 48.88142, "longitude": 38.87141, "city": "Tr\u2019okhizbenka", "images": []}, {"id": 450625, "min_date": "2020-03-30T08:42:00Z", "max_date": "2020-03-30T10:27:00Z", "count_points": 5, "latitude": 49.18432, "longitude": 36.4897, "city": "Krasnopavlivka", "images": []}, {"id": 450626, "min_date": "2020-03-30T08:42:00Z", "max_date": "2020-03-30T10:58:00Z", "count_points": 6, "latitude": 48.69812, "longitude": 38.84733, "city": "Frunze", "images": []}, {"id": 450627, "min_date": "2020-03-30T08:42:00Z", "max_date": "2020-03-30T08:42:00Z", "count_points": 1, "latitude": 49.5226, "longitude": 33.0134, "city": "Semenivka", "images": []}, {"id": 450628, "min_date": "2020-03-30T08:42:00Z", "max_date": "2020-03-30T08:42:00Z", "count_points": 1, "latitude": 49.2064, "longitude": 35.2023, "city": "Zachepylivka", "images": []}, {"id": 450629, "min_date": "2020-03-30T08:42:00Z", "max_date": "2020-03-30T08:42:00Z", "count_points": 2, "latitude": 48.914, "longitude": 36.593, "city": "Blyznyuky", "images": []}, {"id": 450630, "min_date": "2020-03-30T08:42:00Z", "max_date": "2020-03-30T08:42:00Z", "count_points": 2, "latitude": 48.82625, "longitude": 36.9856, "city": "Barvinkove", "images": []}, {"id": 450631, "min_date": "2020-03-30T08:42:00Z", "max_date": "2020-04-05T22:59:00Z", "count_points": 14, "latitude": 48.50483, "longitude": 38.8177, "city": "Alchevs\u2019k", "images": []}, {"id": 450632, "min_date": "2020-03-30T08:42:00Z", "max_date": "2020-03-30T09:17:00Z", "count_points": 8, "latitude": 48.34077, "longitude": 39.78765, "city": "Uralo-Kavkaz", "images": []}, {"id": 450786, "min_date": "2020-04-01T08:30:00Z", "max_date": "2020-04-01T08:30:00Z", "count_points": 1, "latitude": 49.4614, "longitude": 34.5884, "city": "Poltava", "images": []}, {"id": 450633, "min_date": "2020-03-30T08:42:00Z", "max_date": "2020-03-30T10:58:00Z", "count_points": 6, "latitude": 49.6017, "longitude": 29.94024, "city": "Volodarka", "images": []}, {"id": 450634, "min_date": "2020-03-30T08:42:00Z", "max_date": "2020-03-30T09:18:00Z", "count_points": 4, "latitude": 49.22961, "longitude": 33.39162, "city": "Kremenchuk", "images": []}, {"id": 450635, "min_date": "2020-03-30T08:42:00Z", "max_date": "2020-03-30T09:17:00Z", "count_points": 3, "latitude": 48.35584, "longitude": 39.26735, "city": "Lutuhyne", "images": []}, {"id": 450636, "min_date": "2020-03-30T08:42:00Z", "max_date": "2020-03-30T10:57:00Z", "count_points": 11, "latitude": 48.17664, "longitude": 39.77196, "city": "Krasnodon", "images": []}, {"id": 450637, "min_date": "2020-03-30T08:42:00Z", "max_date": "2020-03-30T09:18:00Z", "count_points": 2, "latitude": 49.23023, "longitude": 29.94658, "city": "Zhashkiv", "images": []}, {"id": 450638, "min_date": "2020-03-30T08:42:00Z", "max_date": "2020-03-30T08:42:00Z", "count_points": 2, "latitude": 48.6732, "longitude": 34.4995, "city": "Auly", "images": []}, {"id": 450639, "min_date": "2020-03-30T08:42:00Z", "max_date": "2020-04-02T10:01:00Z", "count_points": 5, "latitude": 48.01536, "longitude": 38.11707, "city": "Khartsyz\u2019k", "images": []}, {"id": 450640, "min_date": "2020-03-30T08:42:00Z", "max_date": "2020-04-04T11:04:00Z", "count_points": 8, "latitude": 48.07445, "longitude": 37.7664, "city": "Donetsk", "images": []}, {"id": 450641, "min_date": "2020-03-30T08:42:00Z", "max_date": "2020-03-30T08:42:00Z", "count_points": 2, "latitude": 48.7081, "longitude": 29.54735, "city": "Haisyn", "images": []}, {"id": 450642, "min_date": "2020-03-30T08:43:00Z", "max_date": "2020-03-30T08:43:00Z", "count_points": 1, "latitude": 48.357, "longitude": 30.5283, "city": "Holovanivs\u2019k", "images": []}, {"id": 450643, "min_date": "2020-03-30T10:26:00Z", "max_date": "2020-03-30T10:26:00Z", "count_points": 2, "latitude": 48.03245, "longitude": 38.91605, "city": "Miusyns\u2019k", "images": []}, {"id": 450644, "min_date": "2020-03-30T10:26:00Z", "max_date": "2020-04-04T11:04:00Z", "count_points": 7, "latitude": 48.10781, "longitude": 39.52338, "city": "Klenovyy", "images": []}, {"id": 450645, "min_date": "2020-03-30T10:26:00Z", "max_date": "2020-04-04T23:18:00Z", "count_points": 8, "latitude": 47.62297, "longitude": 37.75394, "city": "Dokuchayevs\u2019k", "images": []}, {"id": 450646, "min_date": "2020-03-30T10:26:00Z", "max_date": "2020-04-02T10:00:00Z", "count_points": 15, "latitude": 45.37565, "longitude": 34.99983, "city": "Urozhaynoye", "images": []}, {"id": 450647, "min_date": "2020-03-30T10:26:00Z", "max_date": "2020-03-30T09:17:00Z", "count_points": 2, "latitude": 46.97845, "longitude": 36.58921, "city": "Osypenko", "images": []}, {"id": 450648, "min_date": "2020-03-30T10:26:00Z", "max_date": "2020-03-30T10:26:00Z", "count_points": 1, "latitude": 47.0421, "longitude": 36.4786, "city": "Prymors\u2019k", "images": []}, {"id": 450649, "min_date": "2020-03-30T10:26:00Z", "max_date": "2020-03-30T10:26:00Z", "count_points": 1, "latitude": 45.8465, "longitude": 29.2353, "city": "Artsyz", "images": []}, {"id": 450650, "min_date": "2020-03-30T10:26:00Z", "max_date": "2020-03-30T10:26:00Z", "count_points": 1, "latitude": 47.1614, "longitude": 36.7564, "city": "Komysh-Zorya", "images": []}, {"id": 450651, "min_date": "2020-03-30T10:26:00Z", "max_date": "2020-03-30T10:26:00Z", "count_points": 1, "latitude": 47.981, "longitude": 38.3157, "city": "Zuhres", "images": []}, {"id": 450652, "min_date": "2020-03-30T10:27:00Z", "max_date": "2020-03-30T10:58:00Z", "count_points": 4, "latitude": 48.90143, "longitude": 38.49366, "city": "Lysychans\u2019k", "images": []}, {"id": 450653, "min_date": "2020-03-30T10:27:00Z", "max_date": "2020-03-30T10:27:00Z", "count_points": 1, "latitude": 50.3198, "longitude": 36.1761, "city": "Prudyanka", "images": []}, {"id": 450654, "min_date": "2020-03-30T10:27:00Z", "max_date": "2020-03-30T10:27:00Z", "count_points": 1, "latitude": 49.6887, "longitude": 32.3228, "city": "Chornobay", "images": []}, {"id": 450655, "min_date": "2020-03-30T10:27:00Z", "max_date": "2020-03-30T10:58:00Z", "count_points": 7, "latitude": 49.65241, "longitude": 31.77406, "city": "Moshny", "images": []}, {"id": 450656, "min_date": "2020-03-30T10:27:00Z", "max_date": "2020-03-30T10:58:00Z", "count_points": 2, "latitude": 49.493, "longitude": 30.88171, "city": "Bohuslav", "images": []}, {"id": 450657, "min_date": "2020-03-30T10:27:00Z", "max_date": "2020-04-05T10:46:00Z", "count_points": 5, "latitude": 50.02571, "longitude": 33.61735, "city": "Myrhorod", "images": []}, {"id": 450658, "min_date": "2020-03-30T10:27:00Z", "max_date": "2020-04-05T10:45:00Z", "count_points": 5, "latitude": 49.12412, "longitude": 28.86799, "city": "Nemyriv", "images": []}, {"id": 450659, "min_date": "2020-03-30T10:27:00Z", "max_date": "2020-03-30T10:58:00Z", "count_points": 2, "latitude": 50.08324, "longitude": 33.23862, "city": "Romodan", "images": []}, {"id": 450660, "min_date": "2020-03-30T10:27:00Z", "max_date": "2020-04-03T11:23:00Z", "count_points": 6, "latitude": 50.17512, "longitude": 33.74694, "city": "Komyshnya", "images": []}, {"id": 450661, "min_date": "2020-03-30T10:27:00Z", "max_date": "2020-03-30T10:58:00Z", "count_points": 5, "latitude": 50.47773, "longitude": 35.42154, "city": "Velyka Pysarivka", "images": []}, {"id": 450662, "min_date": "2020-03-30T10:27:00Z", "max_date": "2020-04-02T10:02:00Z", "count_points": 10, "latitude": 50.15626, "longitude": 33.48653, "city": "Sencha", "images": []}, {"id": 450663, "min_date": "2020-03-30T10:27:00Z", "max_date": "2020-03-30T10:27:00Z", "count_points": 2, "latitude": 50.0396, "longitude": 31.8518, "city": "Chernyakhivka", "images": []}, {"id": 450664, "min_date": "2020-03-30T10:27:00Z", "max_date": "2020-03-30T10:58:00Z", "count_points": 3, "latitude": 50.19853, "longitude": 32.38998, "city": "Hrebinka", "images": []}, {"id": 450665, "min_date": "2020-03-30T10:27:00Z", "max_date": "2020-03-30T10:27:00Z", "count_points": 2, "latitude": 50.4991, "longitude": 34.00985, "city": "Hadyach", "images": []}, {"id": 450666, "min_date": "2020-03-30T10:27:00Z", "max_date": "2020-04-03T11:23:00Z", "count_points": 6, "latitude": 50.13514, "longitude": 31.82582, "city": "Chernyakhivka", "images": []}, {"id": 450667, "min_date": "2020-03-30T10:27:00Z", "max_date": "2020-03-30T10:27:00Z", "count_points": 2, "latitude": 49.86885, "longitude": 30.47635, "city": "Uzyn", "images": []}, {"id": 450668, "min_date": "2020-03-30T10:27:00Z", "max_date": "2020-03-30T10:58:00Z", "count_points": 2, "latitude": 50.60026, "longitude": 34.24956, "city": "Lebedyn", "images": []}, {"id": 450669, "min_date": "2020-03-30T10:27:00Z", "max_date": "2020-03-30T10:58:00Z", "count_points": 4, "latitude": 50.15805, "longitude": 31.73144, "city": "Yahotyn", "images": []}, {"id": 450670, "min_date": "2020-03-30T10:27:00Z", "max_date": "2020-03-30T10:58:00Z", "count_points": 2, "latitude": 50.71487, "longitude": 34.82524, "city": "Nyzy", "images": []}, {"id": 450671, "min_date": "2020-03-30T10:27:00Z", "max_date": "2020-04-04T11:05:00Z", "count_points": 5, "latitude": 50.50102, "longitude": 33.3115, "city": "Lokhvytsya", "images": []}, {"id": 450672, "min_date": "2020-03-30T10:27:00Z", "max_date": "2020-03-30T10:58:00Z", "count_points": 7, "latitude": 50.42294, "longitude": 32.84087, "city": "Varva", "images": []}, {"id": 450673, "min_date": "2020-03-30T10:27:00Z", "max_date": "2020-04-02T11:43:00Z", "count_points": 7, "latitude": 50.84185, "longitude": 34.86561, "city": "Nyzy", "images": []}, {"id": 450674, "min_date": "2020-03-30T10:27:00Z", "max_date": "2020-04-04T11:05:00Z", "count_points": 12, "latitude": 50.65341, "longitude": 33.61719, "city": "Lypova Dolyna", "images": []}, {"id": 450675, "min_date": "2020-03-30T10:27:00Z", "max_date": "2020-04-05T10:46:00Z", "count_points": 5, "latitude": 49.92506, "longitude": 29.24235, "city": "Popilnya", "images": []}, {"id": 450676, "min_date": "2020-03-30T10:27:00Z", "max_date": "2020-03-30T10:58:00Z", "count_points": 2, "latitude": 50.53717, "longitude": 31.9217, "city": "Zgurovka", "images": []}, {"id": 450677, "min_date": "2020-03-30T10:27:00Z", "max_date": "2020-03-30T10:27:00Z", "count_points": 1, "latitude": 50.7781, "longitude": 33.1744, "city": "Talalayivka", "images": []}, {"id": 450678, "min_date": "2020-03-30T10:27:00Z", "max_date": "2020-03-30T10:58:00Z", "count_points": 3, "latitude": 50.93082, "longitude": 33.98753, "city": "Terny", "images": []}, {"id": 450679, "min_date": "2020-03-30T10:27:00Z", "max_date": "2020-03-30T10:58:00Z", "count_points": 3, "latitude": 50.81508, "longitude": 33.0069, "city": "Talalayivka", "images": []}, {"id": 450680, "min_date": "2020-03-30T10:27:00Z", "max_date": "2020-03-31T10:39:00Z", "count_points": 4, "latitude": 50.36997, "longitude": 30.67051, "city": "Hnidyn", "images": []}, {"id": 450681, "min_date": "2020-03-30T10:27:00Z", "max_date": "2020-04-02T11:43:00Z", "count_points": 5, "latitude": 50.91798, "longitude": 33.04477, "city": "Talalayivka", "images": []}, {"id": 450682, "min_date": "2020-03-30T10:27:00Z", "max_date": "2020-03-30T10:58:00Z", "count_points": 10, "latitude": 50.78449, "longitude": 32.13078, "city": "Lisovi Sorochyntsi", "images": []}, {"id": 450683, "min_date": "2020-03-30T10:27:00Z", "max_date": "2020-03-30T10:58:00Z", "count_points": 4, "latitude": 50.6574, "longitude": 31.43487, "city": "Bobrovytsya", "images": []}, {"id": 450684, "min_date": "2020-03-30T10:27:00Z", "max_date": "2020-03-30T10:27:00Z", "count_points": 1, "latitude": 48.3075, "longitude": 39.6317, "city": "Molodohvardiys\u2019k", "images": []}, {"id": 450685, "min_date": "2020-03-30T10:27:00Z", "max_date": "2020-04-01T10:20:00Z", "count_points": 7, "latitude": 48.11687, "longitude": 38.22654, "city": "Nyzhnya Krynka", "images": []}, {"id": 450686, "min_date": "2020-03-30T10:27:00Z", "max_date": "2020-04-03T11:23:00Z", "count_points": 5, "latitude": 48.44631, "longitude": 39.26464, "city": "Rozkishne", "images": []}, {"id": 450687, "min_date": "2020-03-30T10:27:00Z", "max_date": "2020-04-05T10:45:00Z", "count_points": 7, "latitude": 48.4917, "longitude": 39.22118, "city": "Rozkishne", "images": []}, {"id": 450688, "min_date": "2020-03-30T10:27:00Z", "max_date": "2020-03-30T10:58:00Z", "count_points": 3, "latitude": 48.53515, "longitude": 38.77312, "city": "Alchevs\u2019k", "images": []}, {"id": 450689, "min_date": "2020-03-30T10:27:00Z", "max_date": "2020-03-30T10:57:00Z", "count_points": 3, "latitude": 47.36438, "longitude": 31.44937, "city": "Veselynove", "images": []}, {"id": 450690, "min_date": "2020-03-30T10:27:00Z", "max_date": "2020-03-30T10:27:00Z", "count_points": 2, "latitude": 48.7497, "longitude": 39.60135, "city": "Stanytsya Luhans\u2019ka", "images": []}, {"id": 450691, "min_date": "2020-03-30T10:27:00Z", "max_date": "2020-04-03T23:37:00Z", "count_points": 12, "latitude": 48.80681, "longitude": 39.55528, "city": "Stanytsya Luhans\u2019ka", "images": []}, {"id": 450692, "min_date": "2020-03-30T10:27:00Z", "max_date": "2020-03-30T10:27:00Z", "count_points": 3, "latitude": 48.8304, "longitude": 38.27877, "city": "Bilohorivka", "images": []}, {"id": 450693, "min_date": "2020-03-30T10:27:00Z", "max_date": "2020-03-30T10:27:00Z", "count_points": 1, "latitude": 49.001, "longitude": 38.8095, "city": "Novoaydar", "images": []}, {"id": 450694, "min_date": "2020-03-30T10:27:00Z", "max_date": "2020-03-30T10:58:00Z", "count_points": 5, "latitude": 49.20924, "longitude": 40.02586, "city": "Milove", "images": []}, {"id": 450695, "min_date": "2020-03-30T10:27:00Z", "max_date": "2020-04-03T09:42:00Z", "count_points": 10, "latitude": 49.30717, "longitude": 39.87981, "city": "Milove", "images": []}, {"id": 450696, "min_date": "2020-03-30T10:27:00Z", "max_date": "2020-03-30T09:18:00Z", "count_points": 2, "latitude": 48.62136, "longitude": 35.13702, "city": "Pidhorodne", "images": []}, {"id": 450697, "min_date": "2020-03-30T10:27:00Z", "max_date": "2020-03-31T10:39:00Z", "count_points": 7, "latitude": 49.19276, "longitude": 38.78582, "city": "Starobil\u2019s\u2019k", "images": []}, {"id": 450698, "min_date": "2020-03-30T10:27:00Z", "max_date": "2020-04-01T10:20:00Z", "count_points": 2, "latitude": 47.82928, "longitude": 29.66973, "city": "Balta", "images": []}, {"id": 450699, "min_date": "2020-03-30T10:27:00Z", "max_date": "2020-03-30T10:27:00Z", "count_points": 1, "latitude": 48.4572, "longitude": 31.9926, "city": "Kropyvnytskyi", "images": []}, {"id": 450700, "min_date": "2020-03-30T10:27:00Z", "max_date": "2020-04-03T11:23:00Z", "count_points": 2, "latitude": 49.35516, "longitude": 36.62825, "city": "Balakliya", "images": []}, {"id": 450701, "min_date": "2020-03-30T10:27:00Z", "max_date": "2020-03-30T10:27:00Z", "count_points": 1, "latitude": 48.6181, "longitude": 32.3257, "city": "Kropyvnytskyi", "images": []}, {"id": 450702, "min_date": "2020-03-30T10:27:00Z", "max_date": "2020-03-30T10:58:00Z", "count_points": 4, "latitude": 49.2568, "longitude": 35.22171, "city": "Zachepylivka", "images": []}, {"id": 450703, "min_date": "2020-03-30T10:27:00Z", "max_date": "2020-04-01T10:20:00Z", "count_points": 9, "latitude": 49.54395, "longitude": 36.79951, "city": "Balakliya", "images": []}, {"id": 450704, "min_date": "2020-03-30T10:27:00Z", "max_date": "2020-03-30T10:58:00Z", "count_points": 3, "latitude": 49.60582, "longitude": 37.15007, "city": "Shevchenkove", "images": []}, {"id": 450705, "min_date": "2020-03-30T10:27:00Z", "max_date": "2020-04-05T10:45:00Z", "count_points": 2, "latitude": 49.95464, "longitude": 37.30507, "city": "Velykyy Burluk", "images": []}, {"id": 450706, "min_date": "2020-03-30T10:27:00Z", "max_date": "2020-04-03T11:23:00Z", "count_points": 9, "latitude": 49.81748, "longitude": 36.30778, "city": "Vasyshcheve", "images": []}, {"id": 450707, "min_date": "2020-03-30T10:27:00Z", "max_date": "2020-03-30T10:27:00Z", "count_points": 1, "latitude": 49.7071, "longitude": 35.1923, "city": "Chutove", "images": []}, {"id": 450708, "min_date": "2020-03-30T10:27:00Z", "max_date": "2020-04-05T22:59:00Z", "count_points": 11, "latitude": 49.32564, "longitude": 32.31376, "city": "Chervona Sloboda", "images": []}, {"id": 450709, "min_date": "2020-03-30T10:27:00Z", "max_date": "2020-03-30T10:58:00Z", "count_points": 3, "latitude": 50.06526, "longitude": 36.36259, "city": "Kulynychi", "images": []}, {"id": 450710, "min_date": "2020-03-30T10:27:00Z", "max_date": "2020-03-30T10:58:00Z", "count_points": 3, "latitude": 49.60413, "longitude": 33.29371, "city": "Semenivka", "images": []}, {"id": 450711, "min_date": "2020-03-30T10:27:00Z", "max_date": "2020-03-30T09:18:00Z", "count_points": 3, "latitude": 49.88849, "longitude": 34.49642, "city": "Dykan\u2019ka", "images": []}, {"id": 450712, "min_date": "2020-03-30T10:27:00Z", "max_date": "2020-03-30T10:27:00Z", "count_points": 1, "latitude": 48.8219, "longitude": 28.5667, "city": "Tyvriv", "images": []}, {"id": 450713, "min_date": "2020-03-30T10:28:00Z", "max_date": "2020-03-30T10:59:00Z", "count_points": 2, "latitude": 51.76816, "longitude": 33.93445, "city": "Hlukhiv", "images": []}, {"id": 450714, "min_date": "2020-03-30T10:28:00Z", "max_date": "2020-03-30T10:59:00Z", "count_points": 2, "latitude": 51.58827, "longitude": 32.90053, "city": "Korop", "images": []}, {"id": 450715, "min_date": "2020-03-30T10:28:00Z", "max_date": "2020-04-05T10:46:00Z", "count_points": 34, "latitude": 51.41433, "longitude": 31.9837, "city": "Berezna", "images": []}, {"id": 450716, "min_date": "2020-03-30T10:28:00Z", "max_date": "2020-03-30T10:59:00Z", "count_points": 4, "latitude": 51.41852, "longitude": 31.83736, "city": "Berezna", "images": []}, {"id": 450717, "min_date": "2020-03-30T10:28:00Z", "max_date": "2020-04-05T10:46:00Z", "count_points": 9, "latitude": 51.34079, "longitude": 31.10486, "city": "Olyshivka", "images": []}, {"id": 450718, "min_date": "2020-03-30T10:28:00Z", "max_date": "2020-04-05T22:58:00Z", "count_points": 6, "latitude": 51.92048, "longitude": 33.85998, "city": "Yampil\u2019", "images": []}, {"id": 450719, "min_date": "2020-03-30T10:28:00Z", "max_date": "2020-03-30T10:59:00Z", "count_points": 5, "latitude": 51.88152, "longitude": 33.1712, "city": "Novhorod-Sivers\u2019kyy", "images": []}, {"id": 450720, "min_date": "2020-03-30T10:28:00Z", "max_date": "2020-03-30T10:59:00Z", "count_points": 4, "latitude": 51.77084, "longitude": 31.86222, "city": "Shchors", "images": []}, {"id": 450721, "min_date": "2020-03-30T10:28:00Z", "max_date": "2020-03-30T10:28:00Z", "count_points": 1, "latitude": 51.8016, "longitude": 31.8798, "city": "Shchors", "images": []}, {"id": 450722, "min_date": "2020-03-30T10:28:00Z", "max_date": "2020-03-30T09:19:00Z", "count_points": 2, "latitude": 52.23287, "longitude": 33.64263, "city": "Yampil\u2019", "images": []}, {"id": 450723, "min_date": "2020-03-30T10:28:00Z", "max_date": "2020-03-30T10:58:00Z", "count_points": 3, "latitude": 51.24485, "longitude": 34.09875, "city": "Vorozhba", "images": []}, {"id": 450724, "min_date": "2020-03-30T10:28:00Z", "max_date": "2020-04-04T11:05:00Z", "count_points": 28, "latitude": 50.97269, "longitude": 32.06902, "city": "Kruty", "images": []}, {"id": 450725, "min_date": "2020-03-30T10:28:00Z", "max_date": "2020-04-03T11:24:00Z", "count_points": 16, "latitude": 51.07171, "longitude": 32.05554, "city": "Kruty", "images": []}, {"id": 450726, "min_date": "2020-03-30T10:28:00Z", "max_date": "2020-03-30T10:28:00Z", "count_points": 1, "latitude": 50.898, "longitude": 31.0796, "city": "Kozelets\u2019", "images": []}, {"id": 450727, "min_date": "2020-03-30T10:28:00Z", "max_date": "2020-04-03T11:24:00Z", "count_points": 4, "latitude": 50.96796, "longitude": 31.26867, "city": "Kozelets\u2019", "images": []}, {"id": 450728, "min_date": "2020-03-30T10:28:00Z", "max_date": "2020-04-03T09:43:00Z", "count_points": 12, "latitude": 51.26699, "longitude": 32.61661, "city": "Bakhmach", "images": []}, {"id": 450729, "min_date": "2020-03-30T10:28:00Z", "max_date": "2020-03-30T10:58:00Z", "count_points": 4, "latitude": 51.23077, "longitude": 31.74057, "city": "Kulykivka", "images": []}, {"id": 450730, "min_date": "2020-03-30T10:28:00Z", "max_date": "2020-03-30T10:28:00Z", "count_points": 2, "latitude": 51.4123, "longitude": 32.5646, "city": "Sosnytsya", "images": []}, {"id": 450731, "min_date": "2020-03-30T10:28:00Z", "max_date": "2020-04-04T11:05:00Z", "count_points": 6, "latitude": 51.71871, "longitude": 33.91023, "city": "Hlukhiv", "images": []}, {"id": 450732, "min_date": "2020-03-30T19:51:00Z", "max_date": "2020-03-30T10:57:00Z", "count_points": 10, "latitude": 46.34303, "longitude": 30.25997, "city": "Mayaky", "images": []}, {"id": 450733, "min_date": "2020-03-30T19:52:00Z", "max_date": "2020-03-30T19:52:00Z", "count_points": 1, "latitude": 49.7241, "longitude": 34.0782, "city": "Reshetylivka", "images": []}, {"id": 450734, "min_date": "2020-03-30T19:52:00Z", "max_date": "2020-04-03T09:43:00Z", "count_points": 6, "latitude": 49.00673, "longitude": 33.25875, "city": "Svitlovods\u2019k", "images": []}, {"id": 450735, "min_date": "2020-03-30T19:52:00Z", "max_date": "2020-03-30T19:52:00Z", "count_points": 1, "latitude": 49.5533, "longitude": 28.283, "city": "Ulaniv", "images": []}, {"id": 450736, "min_date": "2020-03-31T00:00:00Z", "max_date": "2020-03-31T00:51:00Z", "count_points": 4, "latitude": 49.66423, "longitude": 36.04853, "city": "Utkivka", "images": []}, {"id": 450737, "min_date": "2020-03-31T07:47:00Z", "max_date": "2020-03-31T07:47:00Z", "count_points": 2, "latitude": 47.87855, "longitude": 39.42485, "city": "Roven\u2019ky", "images": []}, {"id": 450738, "min_date": "2020-03-31T07:47:00Z", "max_date": "2020-04-02T00:14:00Z", "count_points": 6, "latitude": 49.72013, "longitude": 38.54779, "city": "Pavlivka", "images": []}, {"id": 450739, "min_date": "2020-03-31T07:47:00Z", "max_date": "2020-03-31T07:47:00Z", "count_points": 1, "latitude": 48.2627, "longitude": 39.8881, "city": "Uralo-Kavkaz", "images": []}, {"id": 450740, "min_date": "2020-03-31T07:47:00Z", "max_date": "2020-04-03T23:37:00Z", "count_points": 5, "latitude": 48.16916, "longitude": 38.74834, "city": "Krasnyy Kut", "images": []}, {"id": 450741, "min_date": "2020-03-31T07:47:00Z", "max_date": "2020-03-31T07:47:00Z", "count_points": 2, "latitude": 47.795, "longitude": 37.20415, "city": "Kurakhovo", "images": []}, {"id": 450742, "min_date": "2020-03-31T09:25:00Z", "max_date": "2020-04-04T11:04:00Z", "count_points": 10, "latitude": 49.1524, "longitude": 38.54005, "city": "Syevyerodonets\u2019k", "images": []}, {"id": 450743, "min_date": "2020-03-31T09:25:00Z", "max_date": "2020-03-31T10:40:00Z", "count_points": 4, "latitude": 51.72105, "longitude": 26.11425, "city": "Zarichne", "images": []}, {"id": 450744, "min_date": "2020-03-31T09:25:00Z", "max_date": "2020-04-02T10:01:00Z", "count_points": 18, "latitude": 48.85906, "longitude": 39.62441, "city": "Stanytsya Luhans\u2019ka", "images": []}, {"id": 450745, "min_date": "2020-03-31T09:25:00Z", "max_date": "2020-04-01T10:20:00Z", "count_points": 21, "latitude": 48.30186, "longitude": 39.31809, "city": "Lutuhyne", "images": []}, {"id": 450746, "min_date": "2020-03-31T09:25:00Z", "max_date": "2020-04-02T11:43:00Z", "count_points": 3, "latitude": 50.97376, "longitude": 26.49217, "city": "Kostopil\u2019", "images": []}, {"id": 450747, "min_date": "2020-03-31T09:25:00Z", "max_date": "2020-03-31T09:25:00Z", "count_points": 1, "latitude": 50.8977, "longitude": 26.1197, "city": "Orzhiv", "images": []}, {"id": 450748, "min_date": "2020-03-31T09:25:00Z", "max_date": "2020-03-31T12:21:00Z", "count_points": 9, "latitude": 50.74861, "longitude": 26.60438, "city": "Hoshcha", "images": []}, {"id": 450749, "min_date": "2020-03-31T09:25:00Z", "max_date": "2020-03-31T09:25:00Z", "count_points": 1, "latitude": 50.8541, "longitude": 25.5185, "city": "Kivertsi", "images": []}, {"id": 450750, "min_date": "2020-03-31T09:25:00Z", "max_date": "2020-03-31T10:40:00Z", "count_points": 4, "latitude": 50.96288, "longitude": 24.45976, "city": "Turiys\u2019k", "images": []}, {"id": 450751, "min_date": "2020-03-31T09:25:00Z", "max_date": "2020-03-31T09:25:00Z", "count_points": 2, "latitude": 48.10375, "longitude": 38.09, "city": "Nyzhnya Krynka", "images": []}, {"id": 450752, "min_date": "2020-03-31T09:25:00Z", "max_date": "2020-04-03T11:24:00Z", "count_points": 2, "latitude": 50.12752, "longitude": 27.54722, "city": "Polonne", "images": []}, {"id": 450753, "min_date": "2020-03-31T09:25:00Z", "max_date": "2020-04-05T10:45:00Z", "count_points": 15, "latitude": 47.91726, "longitude": 37.69396, "city": "Donetsk", "images": []}, {"id": 450754, "min_date": "2020-03-31T09:25:00Z", "max_date": "2020-03-31T10:39:00Z", "count_points": 6, "latitude": 48.73619, "longitude": 38.33609, "city": "Popasna", "images": []}, {"id": 450755, "min_date": "2020-03-31T09:26:00Z", "max_date": "2020-04-05T09:44:00Z", "count_points": 2, "latitude": 48.4718, "longitude": 22.54635, "city": "Rakoshyno", "images": []}, {"id": 450756, "min_date": "2020-03-31T09:26:00Z", "max_date": "2020-03-31T10:39:00Z", "count_points": 3, "latitude": 48.44034, "longitude": 22.45878, "city": "Batiovo", "images": []}, {"id": 450757, "min_date": "2020-03-31T09:26:00Z", "max_date": "2020-04-04T11:04:00Z", "count_points": 4, "latitude": 48.37406, "longitude": 22.41669, "city": "Batiovo", "images": []}, {"id": 450758, "min_date": "2020-03-31T11:09:00Z", "max_date": "2020-03-31T11:09:00Z", "count_points": 1, "latitude": 47.8661, "longitude": 37.7772, "city": "Dokuchayevs\u2019k", "images": []}, {"id": 450759, "min_date": "2020-03-31T11:09:00Z", "max_date": "2020-04-02T10:01:00Z", "count_points": 5, "latitude": 48.04675, "longitude": 38.35204, "city": "Zuhres", "images": []}, {"id": 450760, "min_date": "2020-03-31T11:10:00Z", "max_date": "2020-04-03T11:23:00Z", "count_points": 9, "latitude": 48.57045, "longitude": 38.46055, "city": "Popasna", "images": []}, {"id": 450761, "min_date": "2020-03-31T11:10:00Z", "max_date": "2020-03-31T11:10:00Z", "count_points": 1, "latitude": 47.6939, "longitude": 30.0698, "city": "Ananyiv Pershyi", "images": []}, {"id": 450762, "min_date": "2020-03-31T11:10:00Z", "max_date": "2020-03-31T11:10:00Z", "count_points": 1, "latitude": 48.3119, "longitude": 26.0708, "city": "Boyany", "images": []}, {"id": 450763, "min_date": "2020-03-31T11:10:00Z", "max_date": "2020-04-02T11:42:00Z", "count_points": 10, "latitude": 48.02501, "longitude": 23.51718, "city": "Bushtyno", "images": []}, {"id": 450764, "min_date": "2020-03-31T11:10:00Z", "max_date": "2020-03-31T11:10:00Z", "count_points": 1, "latitude": 48.2756, "longitude": 23.4195, "city": "Horinchovo", "images": []}, {"id": 450765, "min_date": "2020-03-31T11:10:00Z", "max_date": "2020-03-31T11:10:00Z", "count_points": 1, "latitude": 50.1763, "longitude": 28.6182, "city": "Zhytomyr", "images": []}, {"id": 450766, "min_date": "2020-03-31T11:10:00Z", "max_date": "2020-03-31T10:39:00Z", "count_points": 2, "latitude": 50.03724, "longitude": 26.93766, "city": "Izyaslav", "images": []}, {"id": 450767, "min_date": "2020-03-31T11:10:00Z", "max_date": "2020-03-31T11:10:00Z", "count_points": 1, "latitude": 49.9069, "longitude": 24.3141, "city": "Novyy Yarychiv", "images": []}, {"id": 450768, "min_date": "2020-03-31T11:10:00Z", "max_date": "2020-03-31T12:21:00Z", "count_points": 7, "latitude": 50.33059, "longitude": 25.73304, "city": "Tarakaniv", "images": []}, {"id": 450769, "min_date": "2020-03-31T11:10:00Z", "max_date": "2020-04-05T10:46:00Z", "count_points": 10, "latitude": 50.87759, "longitude": 28.93788, "city": "Chopovychi", "images": []}, {"id": 450770, "min_date": "2020-03-31T11:10:00Z", "max_date": "2020-03-31T11:10:00Z", "count_points": 1, "latitude": 50.3689, "longitude": 24.3427, "city": "Chervonohrad", "images": []}, {"id": 450771, "min_date": "2020-03-31T11:10:00Z", "max_date": "2020-03-31T11:10:00Z", "count_points": 1, "latitude": 48.041, "longitude": 34.6487, "city": "Novopokrovka", "images": []}, {"id": 450772, "min_date": "2020-03-31T11:11:00Z", "max_date": "2020-03-31T11:11:00Z", "count_points": 1, "latitude": 50.7275, "longitude": 26.067, "city": "Orzhiv", "images": []}, {"id": 450773, "min_date": "2020-03-31T11:11:00Z", "max_date": "2020-03-31T11:11:00Z", "count_points": 1, "latitude": 51.2933, "longitude": 26.6599, "city": "Sarny", "images": []}, {"id": 450774, "min_date": "2020-03-31T11:11:00Z", "max_date": "2020-04-02T11:43:00Z", "count_points": 4, "latitude": 51.07673, "longitude": 26.83048, "city": "Berezne", "images": []}, {"id": 450775, "min_date": "2020-03-31T18:58:00Z", "max_date": "2020-04-03T11:24:00Z", "count_points": 42, "latitude": 50.07472, "longitude": 26.77626, "city": "Izyaslav", "images": []}, {"id": 450776, "min_date": "2020-04-01T00:44:00Z", "max_date": "2020-04-02T00:15:00Z", "count_points": 15, "latitude": 46.41773, "longitude": 30.22984, "city": "Bilyayivka", "images": []}, {"id": 450777, "min_date": "2020-04-01T08:29:00Z", "max_date": "2020-04-05T10:46:00Z", "count_points": 3, "latitude": 51.21317, "longitude": 31.47306, "city": "Olyshivka", "images": []}, {"id": 450778, "min_date": "2020-04-01T08:29:00Z", "max_date": "2020-04-01T08:29:00Z", "count_points": 1, "latitude": 51.2545, "longitude": 34.1911, "city": "Vorozhba", "images": []}, {"id": 450779, "min_date": "2020-04-01T08:29:00Z", "max_date": "2020-04-03T11:24:00Z", "count_points": 7, "latitude": 51.78045, "longitude": 34.32141, "city": "Chervone", "images": []}, {"id": 450780, "min_date": "2020-04-01T08:29:00Z", "max_date": "2020-04-01T08:29:00Z", "count_points": 1, "latitude": 51.5475, "longitude": 34.1373, "city": "Shalyhyne", "images": []}, {"id": 450781, "min_date": "2020-04-01T08:29:00Z", "max_date": "2020-04-01T08:29:00Z", "count_points": 1, "latitude": 51.2863, "longitude": 34.2469, "city": "Vorozhba", "images": []}, {"id": 450782, "min_date": "2020-04-01T08:30:00Z", "max_date": "2020-04-05T10:45:00Z", "count_points": 7, "latitude": 50.22424, "longitude": 37.38637, "city": "Prykolotne", "images": []}, {"id": 450783, "min_date": "2020-04-01T08:30:00Z", "max_date": "2020-04-01T10:20:00Z", "count_points": 2, "latitude": 49.51629, "longitude": 37.79539, "city": "Kivsharivka", "images": []}, {"id": 450784, "min_date": "2020-04-01T08:30:00Z", "max_date": "2020-04-01T08:30:00Z", "count_points": 1, "latitude": 49.7656, "longitude": 34.6975, "city": "Dykan\u2019ka", "images": []}, {"id": 450785, "min_date": "2020-04-01T08:30:00Z", "max_date": "2020-04-01T08:30:00Z", "count_points": 1, "latitude": 49.7826, "longitude": 33.0214, "city": "Lubny", "images": []}, {"id": 450787, "min_date": "2020-04-01T08:30:00Z", "max_date": "2020-04-01T08:30:00Z", "count_points": 3, "latitude": 49.51173, "longitude": 33.83397, "city": "Reshetylivka", "images": []}, {"id": 450788, "min_date": "2020-04-01T08:30:00Z", "max_date": "2020-03-30T10:58:00Z", "count_points": 2, "latitude": 49.25712, "longitude": 35.56418, "city": "Verbivka", "images": []}, {"id": 450789, "min_date": "2020-04-01T08:30:00Z", "max_date": "2020-04-01T08:30:00Z", "count_points": 1, "latitude": 49.1465, "longitude": 34.9753, "city": "Mahdalynivka", "images": []}, {"id": 450790, "min_date": "2020-04-01T08:30:00Z", "max_date": "2020-04-01T10:20:00Z", "count_points": 4, "latitude": 48.86675, "longitude": 36.90467, "city": "Barvinkove", "images": []}, {"id": 450791, "min_date": "2020-04-01T08:30:00Z", "max_date": "2020-04-01T10:20:00Z", "count_points": 4, "latitude": 48.59572, "longitude": 36.11353, "city": "Yur\u201dyivka", "images": []}, {"id": 450792, "min_date": "2020-04-01T08:30:00Z", "max_date": "2020-04-01T10:20:00Z", "count_points": 4, "latitude": 48.36984, "longitude": 37.94283, "city": "Dzerzhyns\u2019k", "images": []}, {"id": 450793, "min_date": "2020-04-01T08:30:00Z", "max_date": "2020-04-01T10:20:00Z", "count_points": 4, "latitude": 48.05632, "longitude": 39.18237, "city": "Antratsyt", "images": []}, {"id": 450794, "min_date": "2020-04-01T08:30:00Z", "max_date": "2020-03-31T22:53:00Z", "count_points": 2, "latitude": 48.1105, "longitude": 38.75558, "city": "Snizhne", "images": []}, {"id": 450795, "min_date": "2020-04-01T08:30:00Z", "max_date": "2020-04-02T09:13:00Z", "count_points": 3, "latitude": 48.76317, "longitude": 31.2696, "city": "Shpola", "images": []}, {"id": 450796, "min_date": "2020-04-01T08:30:00Z", "max_date": "2020-04-01T08:30:00Z", "count_points": 1, "latitude": 48.1234, "longitude": 37.3755, "city": "Selydove", "images": []}, {"id": 450797, "min_date": "2020-04-01T08:30:00Z", "max_date": "2020-04-04T11:04:00Z", "count_points": 17, "latitude": 47.94528, "longitude": 38.23859, "city": "Shyroke", "images": []}, {"id": 450798, "min_date": "2020-04-01T08:30:00Z", "max_date": "2020-04-02T11:42:00Z", "count_points": 6, "latitude": 48.75083, "longitude": 29.85388, "city": "Khrystynivka", "images": []}, {"id": 450799, "min_date": "2020-04-01T08:30:00Z", "max_date": "2020-04-01T10:20:00Z", "count_points": 4, "latitude": 48.04828, "longitude": 35.24209, "city": "Vil\u2019nyans\u2019k", "images": [{"image_url": "450799.jpg", "timestamp": "2020-04-01T10:20:00Z"}]}, {"id": 450800, "min_date": "2020-04-01T08:30:00Z", "max_date": "2020-04-04T11:04:00Z", "count_points": 17, "latitude": 47.66785, "longitude": 37.67022, "city": "Dokuchayevs\u2019k", "images": []}, {"id": 450801, "min_date": "2020-04-01T08:30:00Z", "max_date": "2020-04-01T10:20:00Z", "count_points": 5, "latitude": 47.83027, "longitude": 35.70706, "city": "Kirove", "images": []}, {"id": 450802, "min_date": "2020-04-01T08:30:00Z", "max_date": "2020-04-01T08:30:00Z", "count_points": 2, "latitude": 47.5669, "longitude": 37.04375, "city": "Rozivka", "images": []}, {"id": 450803, "min_date": "2020-04-01T08:30:00Z", "max_date": "2020-04-02T10:01:00Z", "count_points": 8, "latitude": 47.36421, "longitude": 38.09478, "city": "Tel\u2019manove", "images": []}, {"id": 450804, "min_date": "2020-04-01T08:30:00Z", "max_date": "2020-04-01T10:20:00Z", "count_points": 7, "latitude": 47.40539, "longitude": 37.70434, "city": "Sartana", "images": []}, {"id": 450805, "min_date": "2020-04-01T08:30:00Z", "max_date": "2020-04-01T10:14:00Z", "count_points": 3, "latitude": 47.61887, "longitude": 34.9131, "city": "Vyshchetarasivka", "images": []}, {"id": 450806, "min_date": "2020-04-01T08:30:00Z", "max_date": "2020-04-03T09:42:00Z", "count_points": 3, "latitude": 47.28579, "longitude": 36.44826, "city": "Chapayevka", "images": []}, {"id": 450807, "min_date": "2020-04-01T08:30:00Z", "max_date": "2020-04-01T10:20:00Z", "count_points": 2, "latitude": 47.43238, "longitude": 34.56528, "city": "Dniprovka", "images": []}, {"id": 450808, "min_date": "2020-04-01T08:31:00Z", "max_date": "2020-04-01T08:31:00Z", "count_points": 2, "latitude": 46.0122, "longitude": 29.06195, "city": "Dmytrivka", "images": []}, {"id": 450809, "min_date": "2020-04-01T10:07:00Z", "max_date": "2020-04-01T10:21:00Z", "count_points": 4, "latitude": 51.23761, "longitude": 28.72331, "city": "Ovruch", "images": []}, {"id": 450810, "min_date": "2020-04-01T10:08:00Z", "max_date": "2020-04-02T11:43:00Z", "count_points": 16, "latitude": 50.17166, "longitude": 23.99478, "city": "Zhovkva", "images": []}, {"id": 450811, "min_date": "2020-04-01T10:08:00Z", "max_date": "2020-04-01T10:08:00Z", "count_points": 1, "latitude": 47.4394, "longitude": 30.4067, "city": "Shyryayeve", "images": []}, {"id": 450812, "min_date": "2020-04-01T10:08:00Z", "max_date": "2020-04-04T11:04:00Z", "count_points": 10, "latitude": 48.07394, "longitude": 23.42287, "city": "Vyshkovo", "images": []}, {"id": 450813, "min_date": "2020-04-01T10:08:00Z", "max_date": "2020-04-01T10:21:00Z", "count_points": 5, "latitude": 50.83429, "longitude": 24.44319, "city": "Volodymyr-Volynskyi", "images": []}, {"id": 450814, "min_date": "2020-04-01T10:08:00Z", "max_date": "2020-04-01T10:08:00Z", "count_points": 2, "latitude": 50.9394, "longitude": 25.1207, "city": "Rozhyshche", "images": []}, {"id": 450815, "min_date": "2020-04-01T10:14:00Z", "max_date": "2020-04-01T10:20:00Z", "count_points": 6, "latitude": 48.69395, "longitude": 39.66168, "city": "Stanytsya Luhans\u2019ka", "images": []}, {"id": 450816, "min_date": "2020-04-01T10:14:00Z", "max_date": "2020-04-04T11:04:00Z", "count_points": 6, "latitude": 48.15545, "longitude": 37.81368, "city": "Yasynuvata", "images": []}, {"id": 450817, "min_date": "2020-04-01T10:14:00Z", "max_date": "2020-04-01T10:20:00Z", "count_points": 4, "latitude": 48.41082, "longitude": 39.25932, "city": "Lutuhyne", "images": []}, {"id": 450818, "min_date": "2020-04-01T10:14:00Z", "max_date": "2020-04-02T23:56:00Z", "count_points": 5, "latitude": 48.18851, "longitude": 37.91698, "city": "Yasynuvata", "images": []}, {"id": 450819, "min_date": "2020-04-01T10:14:00Z", "max_date": "2020-04-01T10:14:00Z", "count_points": 2, "latitude": 46.53005, "longitude": 30.16395, "city": "Bilyayivka", "images": []}, {"id": 450820, "min_date": "2020-04-01T10:14:00Z", "max_date": "2020-04-01T10:20:00Z", "count_points": 2, "latitude": 48.51243, "longitude": 39.72252, "city": "Molodohvardiys\u2019k", "images": []}, {"id": 450821, "min_date": "2020-04-01T10:14:00Z", "max_date": "2020-04-01T10:20:00Z", "count_points": 2, "latitude": 48.19241, "longitude": 36.6297, "city": "Mezhova", "images": []}, {"id": 450822, "min_date": "2020-04-01T10:14:00Z", "max_date": "2020-04-01T10:20:00Z", "count_points": 2, "latitude": 48.20809, "longitude": 36.17514, "city": "Vasyl\u2019kivka", "images": []}, {"id": 450823, "min_date": "2020-04-01T10:14:00Z", "max_date": "2020-04-01T10:20:00Z", "count_points": 7, "latitude": 48.61537, "longitude": 38.26616, "city": "Popasna", "images": []}, {"id": 450824, "min_date": "2020-04-01T10:14:00Z", "max_date": "2020-04-01T10:14:00Z", "count_points": 1, "latitude": 47.8747, "longitude": 33.6446, "city": "Apostolove", "images": []}, {"id": 450825, "min_date": "2020-04-01T10:14:00Z", "max_date": "2020-04-01T10:14:00Z", "count_points": 3, "latitude": 48.73923, "longitude": 37.9057, "city": "Chasiv Yar", "images": []}, {"id": 450826, "min_date": "2020-04-01T10:14:00Z", "max_date": "2020-04-01T10:19:00Z", "count_points": 7, "latitude": 46.98023, "longitude": 35.96401, "city": "Rozivka", "images": []}, {"id": 450827, "min_date": "2020-04-01T10:14:00Z", "max_date": "2020-04-01T10:20:00Z", "count_points": 3, "latitude": 47.20539, "longitude": 35.54929, "city": "Tokmak", "images": []}, {"id": 450828, "min_date": "2020-04-01T10:14:00Z", "max_date": "2020-04-01T10:20:00Z", "count_points": 3, "latitude": 47.74997, "longitude": 38.06688, "city": "Starobesheve", "images": []}, {"id": 450829, "min_date": "2020-04-01T10:14:00Z", "max_date": "2020-04-01T10:20:00Z", "count_points": 3, "latitude": 48.06379, "longitude": 39.81397, "city": "Chervonopartyzans\u2019k", "images": []}, {"id": 450830, "min_date": "2020-04-01T10:14:00Z", "max_date": "2020-04-05T10:45:00Z", "count_points": 6, "latitude": 47.83569, "longitude": 38.07014, "city": "Novyy Svit", "images": []}, {"id": 450831, "min_date": "2020-04-01T10:14:00Z", "max_date": "2020-04-05T10:45:00Z", "count_points": 33, "latitude": 48.10811, "longitude": 39.39979, "city": "Roven\u2019ky", "images": []}, {"id": 450832, "min_date": "2020-04-01T10:14:00Z", "max_date": "2020-04-01T10:20:00Z", "count_points": 3, "latitude": 47.85983, "longitude": 37.60383, "city": "Dokuchayevs\u2019k", "images": []}, {"id": 450833, "min_date": "2020-04-01T10:14:00Z", "max_date": "2020-04-01T10:20:00Z", "count_points": 2, "latitude": 48.04782, "longitude": 38.09259, "city": "Khartsyz\u2019k", "images": []}, {"id": 450834, "min_date": "2020-04-01T10:14:00Z", "max_date": "2020-04-02T00:15:00Z", "count_points": 20, "latitude": 46.39686, "longitude": 30.14003, "city": "Bilyayivka", "images": []}, {"id": 450835, "min_date": "2020-04-01T10:14:00Z", "max_date": "2020-04-01T10:20:00Z", "count_points": 4, "latitude": 48.19945, "longitude": 38.69731, "city": "Krasnyy Kut", "images": []}, {"id": 450836, "min_date": "2020-04-01T10:14:00Z", "max_date": "2020-04-01T10:20:00Z", "count_points": 4, "latitude": 47.03216, "longitude": 32.70141, "city": "Snihurivka", "images": []}, {"id": 450837, "min_date": "2020-04-01T10:14:00Z", "max_date": "2020-04-01T10:20:00Z", "count_points": 2, "latitude": 48.02773, "longitude": 37.17728, "city": "Kurakhovo", "images": []}, {"id": 450838, "min_date": "2020-04-01T10:15:00Z", "max_date": "2020-04-01T10:15:00Z", "count_points": 1, "latitude": 49.808, "longitude": 36.5731, "city": "Eskhar", "images": []}, {"id": 450839, "min_date": "2020-04-01T10:15:00Z", "max_date": "2020-04-01T10:20:00Z", "count_points": 3, "latitude": 50.02183, "longitude": 37.79819, "city": "Dvorichna", "images": []}, {"id": 450840, "min_date": "2020-04-01T10:15:00Z", "max_date": "2020-04-01T10:20:00Z", "count_points": 3, "latitude": 49.87045, "longitude": 38.24051, "city": "Troyits\u2019ke", "images": []}, {"id": 450841, "min_date": "2020-04-01T10:15:00Z", "max_date": "2020-04-02T10:01:00Z", "count_points": 21, "latitude": 50.17923, "longitude": 36.59687, "city": "Staryy Saltiv", "images": []}, {"id": 450842, "min_date": "2020-04-01T10:15:00Z", "max_date": "2020-04-01T10:20:00Z", "count_points": 2, "latitude": 48.66183, "longitude": 35.19719, "city": "Novomoskovs\u2019k", "images": []}, {"id": 450843, "min_date": "2020-04-01T10:15:00Z", "max_date": "2020-04-01T10:15:00Z", "count_points": 4, "latitude": 48.59493, "longitude": 34.602, "city": "Kamianske", "images": []}, {"id": 450844, "min_date": "2020-04-01T10:15:00Z", "max_date": "2020-04-01T10:20:00Z", "count_points": 3, "latitude": 49.36919, "longitude": 36.73527, "city": "Balakliya", "images": []}, {"id": 450845, "min_date": "2020-04-01T10:15:00Z", "max_date": "2020-04-02T00:14:00Z", "count_points": 6, "latitude": 49.62365, "longitude": 38.1731, "city": "Nyzhnya Duvanka", "images": []}, {"id": 450846, "min_date": "2020-04-01T10:15:00Z", "max_date": "2020-04-01T10:15:00Z", "count_points": 1, "latitude": 49.5684, "longitude": 37.8366, "city": "Kivsharivka", "images": []}, {"id": 450847, "min_date": "2020-04-01T10:15:00Z", "max_date": "2020-04-04T11:04:00Z", "count_points": 2, "latitude": 49.22628, "longitude": 38.52842, "city": "Rubizhne", "images": []}, {"id": 450848, "min_date": "2020-04-01T11:53:00Z", "max_date": "2020-04-01T12:01:00Z", "count_points": 3, "latitude": 48.36432, "longitude": 23.02711, "city": "Irshava", "images": []}, {"id": 450849, "min_date": "2020-04-01T11:53:00Z", "max_date": "2020-04-01T12:01:00Z", "count_points": 3, "latitude": 48.03934, "longitude": 29.18081, "city": "Kodyma", "images": []}, {"id": 450850, "min_date": "2020-04-01T11:53:00Z", "max_date": "2020-04-01T12:01:00Z", "count_points": 3, "latitude": 48.10953, "longitude": 23.48405, "city": "Bushtyno", "images": []}, {"id": 450851, "min_date": "2020-04-01T11:53:00Z", "max_date": "2020-04-01T12:01:00Z", "count_points": 6, "latitude": 48.12918, "longitude": 23.57421, "city": "Drahovo", "images": [{"image_url": "450851.jpg", "timestamp": "2020-04-01T12:01:00Z"}]}, {"id": 450852, "min_date": "2020-04-01T11:53:00Z", "max_date": "2020-04-01T12:01:00Z", "count_points": 3, "latitude": 48.20132, "longitude": 23.49508, "city": "Kopashnovo", "images": []}, {"id": 450853, "min_date": "2020-04-01T11:53:00Z", "max_date": "2020-04-04T11:04:00Z", "count_points": 10, "latitude": 48.66228, "longitude": 22.78064, "city": "Poroshkovo", "images": []}, {"id": 450854, "min_date": "2020-04-01T11:54:00Z", "max_date": "2020-04-01T11:54:00Z", "count_points": 1, "latitude": 51.3871, "longitude": 26.0921, "city": "Volodymyrets\u2019", "images": []}, {"id": 450855, "min_date": "2020-04-01T11:54:00Z", "max_date": "2020-04-01T11:54:00Z", "count_points": 1, "latitude": 51.1733, "longitude": 25.9574, "city": "Volodymyrets\u2019", "images": []}, {"id": 450856, "min_date": "2020-04-01T11:54:00Z", "max_date": "2020-04-01T12:02:00Z", "count_points": 5, "latitude": 51.0191, "longitude": 26.31597, "city": "Kostopil\u2019", "images": []}, {"id": 450857, "min_date": "2020-04-01T19:40:00Z", "max_date": "2020-04-01T22:33:00Z", "count_points": 2, "latitude": 49.92013, "longitude": 36.49475, "city": "Vvedenka", "images": []}, {"id": 450858, "min_date": "2020-04-01T19:40:00Z", "max_date": "2020-03-30T23:11:00Z", "count_points": 4, "latitude": 49.5868, "longitude": 34.29539, "city": "Reshetylivka", "images": []}, {"id": 450859, "min_date": "2020-04-01T19:40:00Z", "max_date": "2020-04-02T11:43:00Z", "count_points": 32, "latitude": 50.52178, "longitude": 31.70662, "city": "Zgurovka", "images": [{"image_url": "450859.jpg", "timestamp": "2020-04-02T11:43:00Z"}]}, {"id": 450860, "min_date": "2020-04-01T19:40:00Z", "max_date": "2020-04-02T00:14:00Z", "count_points": 6, "latitude": 49.7921, "longitude": 33.34297, "city": "Khorol", "images": []}, {"id": 450861, "min_date": "2020-04-01T19:41:00Z", "max_date": "2020-04-01T19:41:00Z", "count_points": 1, "latitude": 50.7918, "longitude": 25.2978, "city": "Lutsk", "images": []}, {"id": 450862, "min_date": "2020-04-02T07:34:00Z", "max_date": "2020-04-05T10:45:00Z", "count_points": 9, "latitude": 49.78523, "longitude": 38.66101, "city": "Lozno-Oleksandrivka", "images": [{"image_url": "450862.jpg", "timestamp": "2020-04-05T10:45:00Z"}]}, {"id": 450863, "min_date": "2020-04-02T07:35:00Z", "max_date": "2020-04-02T10:01:00Z", "count_points": 3, "latitude": 47.87077, "longitude": 39.48416, "city": "Roven\u2019ky", "images": []}, {"id": 450864, "min_date": "2020-04-02T07:35:00Z", "max_date": "2020-04-05T10:45:00Z", "count_points": 42, "latitude": 48.05522, "longitude": 37.61272, "city": "Mareyka", "images": [{"image_url": "450864.jpg", "timestamp": "2020-04-05T10:45:00Z"}]}, {"id": 450865, "min_date": "2020-04-02T07:35:00Z", "max_date": "2020-04-04T11:04:00Z", "count_points": 12, "latitude": 48.58169, "longitude": 38.73209, "city": "Bryanka", "images": []}, {"id": 450866, "min_date": "2020-04-02T09:12:00Z", "max_date": "2020-03-30T10:58:00Z", "count_points": 2, "latitude": 50.67746, "longitude": 32.21222, "city": "Lisovi Sorochyntsi", "images": []}, {"id": 450867, "min_date": "2020-04-02T09:12:00Z", "max_date": "2020-04-03T23:37:00Z", "count_points": 5, "latitude": 49.44173, "longitude": 38.19749, "city": "Svatove", "images": []}, {"id": 450868, "min_date": "2020-04-02T09:12:00Z", "max_date": "2020-04-02T09:12:00Z", "count_points": 1, "latitude": 50.6581, "longitude": 32.0861, "city": "Lisovi Sorochyntsi", "images": []}, {"id": 450869, "min_date": "2020-04-02T09:12:00Z", "max_date": "2020-04-05T10:46:00Z", "count_points": 97, "latitude": 51.03928, "longitude": 29.46632, "city": "Krasyatychi", "images": []}, {"id": 450870, "min_date": "2020-04-02T09:12:00Z", "max_date": "2020-04-02T09:12:00Z", "count_points": 1, "latitude": 50.1594, "longitude": 34.3479, "city": "Zin\u2019kiv", "images": []}, {"id": 450871, "min_date": "2020-04-02T09:12:00Z", "max_date": "2020-04-02T10:58:00Z", "count_points": 2, "latitude": 51.43795, "longitude": 26.0188, "city": "Volodymyrets\u2019", "images": []}, {"id": 450872, "min_date": "2020-04-02T09:12:00Z", "max_date": "2020-04-03T11:24:00Z", "count_points": 2, "latitude": 51.34103, "longitude": 26.67694, "city": "Sarny", "images": []}, {"id": 450873, "min_date": "2020-04-02T09:12:00Z", "max_date": "2020-04-02T09:12:00Z", "count_points": 1, "latitude": 50.2853, "longitude": 33.5237, "city": "Sencha", "images": []}, {"id": 450874, "min_date": "2020-04-02T09:12:00Z", "max_date": "2020-04-02T10:02:00Z", "count_points": 4, "latitude": 50.17376, "longitude": 34.00437, "city": "Velyki Sorochyntsi", "images": []}, {"id": 450875, "min_date": "2020-04-02T09:12:00Z", "max_date": "2020-04-02T10:01:00Z", "count_points": 3, "latitude": 49.04286, "longitude": 39.24423, "city": "Novoaydar", "images": []}, {"id": 450876, "min_date": "2020-04-02T09:12:00Z", "max_date": "2020-04-02T09:12:00Z", "count_points": 1, "latitude": 51.7281, "longitude": 31.4097, "city": "Sedniv", "images": []}, {"id": 450877, "min_date": "2020-04-02T09:12:00Z", "max_date": "2020-04-02T10:02:00Z", "count_points": 6, "latitude": 51.74861, "longitude": 31.00693, "city": "Ripky", "images": []}, {"id": 450878, "min_date": "2020-04-02T09:12:00Z", "max_date": "2020-04-02T09:12:00Z", "count_points": 2, "latitude": 51.64945, "longitude": 31.317, "city": "Chernihiv", "images": []}, {"id": 450879, "min_date": "2020-04-02T09:12:00Z", "max_date": "2020-04-02T09:12:00Z", "count_points": 1, "latitude": 51.6501, "longitude": 31.0189, "city": "Ripky", "images": []}, {"id": 450880, "min_date": "2020-04-02T09:12:00Z", "max_date": "2020-04-03T11:24:00Z", "count_points": 13, "latitude": 51.42679, "longitude": 31.32475, "city": "Chernihiv", "images": []}, {"id": 450881, "min_date": "2020-04-02T09:12:00Z", "max_date": "2020-04-02T10:01:00Z", "count_points": 5, "latitude": 49.87034, "longitude": 38.42932, "city": "Troyits\u2019ke", "images": []}, {"id": 450882, "min_date": "2020-04-02T09:12:00Z", "max_date": "2020-04-02T10:02:00Z", "count_points": 6, "latitude": 51.11212, "longitude": 32.07101, "city": "Kruty", "images": [{"image_url": "450882.jpg", "timestamp": "2020-04-02T10:02:00Z"}]}, {"id": 450883, "min_date": "2020-04-02T09:12:00Z", "max_date": "2020-04-05T10:46:00Z", "count_points": 29, "latitude": 50.28315, "longitude": 36.36274, "city": "Prudyanka", "images": []}, {"id": 450884, "min_date": "2020-04-02T09:12:00Z", "max_date": "2020-04-05T10:45:00Z", "count_points": 8, "latitude": 49.97785, "longitude": 37.69534, "city": "Dvorichna", "images": [{"image_url": "450884.jpg", "timestamp": "2020-04-05T10:45:00Z"}]}, {"id": 450885, "min_date": "2020-04-02T09:12:00Z", "max_date": "2020-04-03T11:24:00Z", "count_points": 8, "latitude": 50.4741, "longitude": 35.32964, "city": "Velyka Pysarivka", "images": []}, {"id": 450886, "min_date": "2020-04-02T09:12:00Z", "max_date": "2020-04-05T10:46:00Z", "count_points": 53, "latitude": 51.1804, "longitude": 31.32812, "city": "Olyshivka", "images": [{"image_url": "450886.jpg", "timestamp": "2020-04-05T10:46:00Z"}]}, {"id": 450887, "min_date": "2020-04-02T09:12:00Z", "max_date": "2020-04-05T10:46:00Z", "count_points": 8, "latitude": 50.93147, "longitude": 32.58957, "city": "Ichnya", "images": []}, {"id": 450888, "min_date": "2020-04-02T09:12:00Z", "max_date": "2020-04-02T09:12:00Z", "count_points": 1, "latitude": 50.1416, "longitude": 36.5863, "city": "Staryy Saltiv", "images": []}, {"id": 450889, "min_date": "2020-04-02T09:12:00Z", "max_date": "2020-04-05T10:46:00Z", "count_points": 9, "latitude": 51.88894, "longitude": 25.89911, "city": "Kuznetsovs\u2019k", "images": [{"image_url": "450889.jpg", "timestamp": "2020-04-05T10:46:00Z"}]}, {"id": 450890, "min_date": "2020-04-02T09:12:00Z", "max_date": "2020-04-02T10:01:00Z", "count_points": 5, "latitude": 49.28588, "longitude": 39.65412, "city": "Bilovodsk", "images": []}, {"id": 450891, "min_date": "2020-04-02T09:12:00Z", "max_date": "2020-04-02T09:12:00Z", "count_points": 2, "latitude": 49.643, "longitude": 38.131, "city": "Nyzhnya Duvanka", "images": []}, {"id": 450892, "min_date": "2020-04-02T09:12:00Z", "max_date": "2020-04-05T10:46:00Z", "count_points": 41, "latitude": 51.54262, "longitude": 27.59567, "city": "Olevs\u2019k", "images": []}, {"id": 450893, "min_date": "2020-04-02T09:12:00Z", "max_date": "2020-04-02T09:12:00Z", "count_points": 1, "latitude": 51.6318, "longitude": 26.5633, "city": "Dubrovytsya", "images": []}, {"id": 450894, "min_date": "2020-04-02T09:12:00Z", "max_date": "2020-04-05T09:06:00Z", "count_points": 8, "latitude": 50.65969, "longitude": 33.03606, "city": "Sribne", "images": []}, {"id": 450895, "min_date": "2020-04-02T09:12:00Z", "max_date": "2020-04-02T11:43:00Z", "count_points": 9, "latitude": 50.37739, "longitude": 34.54687, "city": "Lebedyn", "images": []}, {"id": 450896, "min_date": "2020-04-02T09:12:00Z", "max_date": "2020-04-03T11:23:00Z", "count_points": 3, "latitude": 50.2479, "longitude": 34.99982, "city": "Okhtyrka", "images": []}, {"id": 450897, "min_date": "2020-04-02T09:12:00Z", "max_date": "2020-04-02T10:02:00Z", "count_points": 3, "latitude": 51.41525, "longitude": 27.7059, "city": "Olevs\u2019k", "images": []}, {"id": 450898, "min_date": "2020-04-02T09:12:00Z", "max_date": "2020-04-04T11:05:00Z", "count_points": 3, "latitude": 51.22795, "longitude": 29.06781, "city": "Narodychi", "images": []}, {"id": 450899, "min_date": "2020-04-02T09:13:00Z", "max_date": "2020-04-02T10:01:00Z", "count_points": 4, "latitude": 49.13798, "longitude": 33.66579, "city": "Horishni Plavni", "images": []}, {"id": 450900, "min_date": "2020-04-02T09:13:00Z", "max_date": "2020-04-02T09:13:00Z", "count_points": 1, "latitude": 48.8417, "longitude": 35.127, "city": "Hubynykha", "images": []}, {"id": 450901, "min_date": "2020-04-02T09:13:00Z", "max_date": "2020-04-03T11:23:00Z", "count_points": 3, "latitude": 48.44085, "longitude": 37.04323, "city": "Dobropillya", "images": []}, {"id": 450902, "min_date": "2020-04-02T09:13:00Z", "max_date": "2020-04-02T10:01:00Z", "count_points": 3, "latitude": 48.96602, "longitude": 34.46809, "city": "Tsarychanka", "images": []}, {"id": 450903, "min_date": "2020-04-02T09:13:00Z", "max_date": "2020-04-02T09:13:00Z", "count_points": 2, "latitude": 49.77325, "longitude": 29.8369, "city": "Skvyra", "images": []}, {"id": 450904, "min_date": "2020-04-02T09:13:00Z", "max_date": "2020-04-02T10:02:00Z", "count_points": 7, "latitude": 49.83073, "longitude": 29.40964, "city": "Popilnya", "images": [{"image_url": "450904.jpg", "timestamp": "2020-04-02T10:02:00Z"}]}, {"id": 450905, "min_date": "2020-04-02T09:13:00Z", "max_date": "2020-04-04T10:46:00Z", "count_points": 2, "latitude": 49.5605, "longitude": 30.85765, "city": "Bohuslav", "images": []}, {"id": 450906, "min_date": "2020-04-02T09:13:00Z", "max_date": "2020-04-05T10:46:00Z", "count_points": 7, "latitude": 50.10737, "longitude": 27.19354, "city": "Shepetivka", "images": []}, {"id": 450907, "min_date": "2020-04-02T09:13:00Z", "max_date": "2020-04-02T09:13:00Z", "count_points": 1, "latitude": 50.2647, "longitude": 25.6076, "city": "Tarakaniv", "images": []}, {"id": 450908, "min_date": "2020-04-02T09:13:00Z", "max_date": "2020-04-02T09:13:00Z", "count_points": 1, "latitude": 50.1039, "longitude": 26.8502, "city": "Izyaslav", "images": []}, {"id": 450909, "min_date": "2020-04-02T09:13:00Z", "max_date": "2020-04-03T11:23:00Z", "count_points": 5, "latitude": 49.42959, "longitude": 31.33119, "city": "Korsun-Shevchenkivskyi", "images": [{"image_url": "450909.jpg", "timestamp": "2020-04-03T11:23:00Z"}]}, {"id": 450910, "min_date": "2020-04-02T09:13:00Z", "max_date": "2020-04-02T09:13:00Z", "count_points": 1, "latitude": 49.4911, "longitude": 30.8411, "city": "Bohuslav", "images": []}, {"id": 450911, "min_date": "2020-04-02T09:13:00Z", "max_date": "2020-04-02T09:13:00Z", "count_points": 1, "latitude": 49.8727, "longitude": 27.4223, "city": "Novoselytsya", "images": []}, {"id": 450912, "min_date": "2020-04-02T09:13:00Z", "max_date": "2020-04-02T10:02:00Z", "count_points": 2, "latitude": 49.25639, "longitude": 31.44211, "city": "Horodyshche", "images": []}, {"id": 450913, "min_date": "2020-04-02T09:13:00Z", "max_date": "2020-04-02T09:13:00Z", "count_points": 2, "latitude": 49.7009, "longitude": 28.5873, "city": "Berdychiv", "images": []}, {"id": 450914, "min_date": "2020-04-02T09:13:00Z", "max_date": "2020-04-02T09:13:00Z", "count_points": 2, "latitude": 48.86735, "longitude": 33.36085, "city": "Pavlysh", "images": []}, {"id": 450915, "min_date": "2020-04-02T09:13:00Z", "max_date": "2020-04-02T09:13:00Z", "count_points": 1, "latitude": 48.5974, "longitude": 34.656, "city": "Kamianske", "images": []}, {"id": 450916, "min_date": "2020-04-02T09:13:00Z", "max_date": "2020-04-02T09:13:00Z", "count_points": 1, "latitude": 49.9432, "longitude": 26.1542, "city": "Lanivtsi", "images": []}, {"id": 450917, "min_date": "2020-04-02T09:13:00Z", "max_date": "2020-04-02T10:01:00Z", "count_points": 2, "latitude": 48.61421, "longitude": 34.02652, "city": "Lykhivka", "images": []}, {"id": 450918, "min_date": "2020-04-02T09:13:00Z", "max_date": "2020-04-02T09:13:00Z", "count_points": 1, "latitude": 49.2471, "longitude": 30.3297, "city": "Buky", "images": []}, {"id": 450919, "min_date": "2020-04-02T09:13:00Z", "max_date": "2020-04-02T10:01:00Z", "count_points": 2, "latitude": 47.76843, "longitude": 37.76185, "city": "Dokuchayevs\u2019k", "images": []}, {"id": 450920, "min_date": "2020-04-02T09:13:00Z", "max_date": "2020-04-03T11:24:00Z", "count_points": 5, "latitude": 50.08416, "longitude": 23.56071, "city": "Starychi", "images": [{"image_url": "450920.jpg", "timestamp": "2020-04-03T11:24:00Z"}]}, {"id": 450921, "min_date": "2020-04-02T09:13:00Z", "max_date": "2020-04-02T09:13:00Z", "count_points": 1, "latitude": 49.497, "longitude": 28.393, "city": "Pavlovka", "images": []}, {"id": 450922, "min_date": "2020-04-02T09:13:00Z", "max_date": "2020-04-02T09:13:00Z", "count_points": 2, "latitude": 47.87545, "longitude": 36.93315, "city": "Velyka Novosilka", "images": []}, {"id": 450923, "min_date": "2020-04-02T09:13:00Z", "max_date": "2020-04-02T09:13:00Z", "count_points": 1, "latitude": 49.0603, "longitude": 30.6654, "city": "Talne", "images": []}, {"id": 450924, "min_date": "2020-04-02T09:13:00Z", "max_date": "2020-04-02T10:01:00Z", "count_points": 5, "latitude": 48.47424, "longitude": 33.85139, "city": "Vyshneve", "images": []}, {"id": 450925, "min_date": "2020-04-02T09:13:00Z", "max_date": "2020-04-02T10:02:00Z", "count_points": 3, "latitude": 49.75241, "longitude": 25.59999, "city": "Ternopil", "images": []}, {"id": 450926, "min_date": "2020-04-02T09:13:00Z", "max_date": "2020-04-02T09:13:00Z", "count_points": 1, "latitude": 48.6413, "longitude": 32.8929, "city": "Pantayivka", "images": []}, {"id": 450927, "min_date": "2020-04-02T09:13:00Z", "max_date": "2020-04-02T10:01:00Z", "count_points": 4, "latitude": 47.85608, "longitude": 36.64986, "city": "Velyka Novosilka", "images": []}, {"id": 450928, "min_date": "2020-04-02T09:13:00Z", "max_date": "2020-04-02T10:02:00Z", "count_points": 4, "latitude": 49.1728, "longitude": 29.66603, "city": "Orativ", "images": [{"image_url": "450928.jpg", "timestamp": "2020-04-02T10:02:00Z"}]}, {"id": 450929, "min_date": "2020-04-02T09:13:00Z", "max_date": "2020-04-02T10:02:00Z", "count_points": 4, "latitude": 49.51128, "longitude": 26.8144, "city": "Narkevychi", "images": []}, {"id": 450930, "min_date": "2020-04-02T09:13:00Z", "max_date": "2020-04-02T09:13:00Z", "count_points": 1, "latitude": 48.7137, "longitude": 31.9803, "city": "Kapitanivka", "images": []}, {"id": 450931, "min_date": "2020-04-02T09:13:00Z", "max_date": "2020-04-02T10:58:00Z", "count_points": 2, "latitude": 49.3438, "longitude": 27.81845, "city": "Letychiv", "images": []}, {"id": 450932, "min_date": "2020-04-02T09:13:00Z", "max_date": "2020-04-02T10:01:00Z", "count_points": 5, "latitude": 47.60715, "longitude": 36.66643, "city": "Kuybysheve", "images": []}, {"id": 450933, "min_date": "2020-04-02T09:13:00Z", "max_date": "2020-04-02T09:13:00Z", "count_points": 1, "latitude": 49.5273, "longitude": 24.9243, "city": "\u0411\u0435\u0440\u0435\u0436\u0430\u043d\u0438", "images": []}, {"id": 450934, "min_date": "2020-04-02T09:13:00Z", "max_date": "2020-04-02T11:42:00Z", "count_points": 9, "latitude": 49.27738, "longitude": 27.00868, "city": "Khmelnytskyi", "images": []}, {"id": 450935, "min_date": "2020-04-02T09:13:00Z", "max_date": "2020-04-02T10:01:00Z", "count_points": 4, "latitude": 47.41592, "longitude": 37.02439, "city": "Rozivka", "images": []}, {"id": 450936, "min_date": "2020-04-02T09:13:00Z", "max_date": "2020-04-02T11:42:00Z", "count_points": 3, "latitude": 49.44012, "longitude": 24.79429, "city": "\u0411\u0435\u0440\u0435\u0436\u0430\u043d\u0438", "images": []}, {"id": 450937, "min_date": "2020-04-02T09:13:00Z", "max_date": "2020-04-02T09:13:00Z", "count_points": 1, "latitude": 49.0021, "longitude": 27.7678, "city": "Bar", "images": []}, {"id": 450938, "min_date": "2020-04-02T09:13:00Z", "max_date": "2020-04-02T09:13:00Z", "count_points": 1, "latitude": 48.9792, "longitude": 27.7322, "city": "Bar", "images": []}, {"id": 450939, "min_date": "2020-04-02T09:13:00Z", "max_date": "2020-04-05T10:46:00Z", "count_points": 4, "latitude": 49.29711, "longitude": 24.9708, "city": "\u0411\u0435\u0440\u0435\u0436\u0430\u043d\u0438", "images": [{"image_url": "450939.jpg", "timestamp": "2020-04-05T10:46:00Z"}]}, {"id": 450940, "min_date": "2020-04-02T09:13:00Z", "max_date": "2020-04-02T11:42:00Z", "count_points": 3, "latitude": 48.28089, "longitude": 31.79021, "city": "Rivne", "images": []}, {"id": 450941, "min_date": "2020-04-02T09:13:00Z", "max_date": "2020-04-02T10:02:00Z", "count_points": 5, "latitude": 49.28491, "longitude": 24.56377, "city": "Burshtyn", "images": []}, {"id": 450942, "min_date": "2020-04-02T09:13:00Z", "max_date": "2020-04-02T09:13:00Z", "count_points": 1, "latitude": 48.2062, "longitude": 31.857, "city": "Rivne", "images": []}, {"id": 450943, "min_date": "2020-04-02T09:13:00Z", "max_date": "2020-04-02T09:13:00Z", "count_points": 1, "latitude": 49.3143, "longitude": 23.8956, "city": "Stryi", "images": []}, {"id": 450944, "min_date": "2020-04-02T09:13:00Z", "max_date": "2020-04-03T11:23:00Z", "count_points": 16, "latitude": 48.6395, "longitude": 29.02812, "city": "Tulchyn", "images": [{"image_url": "450944.jpg", "timestamp": "2020-04-03T11:23:00Z"}]}, {"id": 450945, "min_date": "2020-04-02T09:13:00Z", "max_date": "2020-04-02T10:02:00Z", "count_points": 2, "latitude": 48.97415, "longitude": 26.46356, "city": "Chemerivtsi", "images": []}, {"id": 450946, "min_date": "2020-04-02T09:13:00Z", "max_date": "2020-04-02T09:13:00Z", "count_points": 2, "latitude": 48.5338, "longitude": 29.2432, "city": "Trostyanets\u2019", "images": []}, {"id": 450947, "min_date": "2020-04-02T09:13:00Z", "max_date": "2020-04-02T09:13:00Z", "count_points": 1, "latitude": 48.6192, "longitude": 28.4952, "city": "Tomashpil\u2019", "images": []}, {"id": 450948, "min_date": "2020-04-02T09:13:00Z", "max_date": "2020-04-02T10:02:00Z", "count_points": 3, "latitude": 48.71633, "longitude": 27.19866, "city": "Nova Ushytsya", "images": []}, {"id": 450949, "min_date": "2020-04-02T09:13:00Z", "max_date": "2020-04-02T10:02:00Z", "count_points": 3, "latitude": 48.41919, "longitude": 28.77103, "city": "Kryzhopil\u2019", "images": []}, {"id": 450950, "min_date": "2020-04-02T09:13:00Z", "max_date": "2020-04-02T09:13:00Z", "count_points": 1, "latitude": 47.9259, "longitude": 31.4361, "city": "Arbuzynka", "images": []}, {"id": 450951, "min_date": "2020-04-02T09:13:00Z", "max_date": "2020-04-02T11:42:00Z", "count_points": 8, "latitude": 48.62562, "longitude": 26.72271, "city": "Kamianets-Podilskyi", "images": []}, {"id": 450952, "min_date": "2020-04-02T09:13:00Z", "max_date": "2020-04-02T10:01:00Z", "count_points": 3, "latitude": 48.17591, "longitude": 29.36949, "city": "Chechelnyk", "images": []}, {"id": 450953, "min_date": "2020-04-02T09:13:00Z", "max_date": "2020-04-02T10:01:00Z", "count_points": 2, "latitude": 48.14098, "longitude": 28.79076, "city": "Pishchanka", "images": []}, {"id": 450954, "min_date": "2020-04-02T09:13:00Z", "max_date": "2020-04-02T09:13:00Z", "count_points": 1, "latitude": 48.5946, "longitude": 25.3069, "city": "Zabolotiv", "images": []}, {"id": 450955, "min_date": "2020-04-02T09:13:00Z", "max_date": "2020-04-02T09:13:00Z", "count_points": 1, "latitude": 47.9352, "longitude": 29.9014, "city": "Ananyiv Pershyi", "images": []}, {"id": 450956, "min_date": "2020-04-02T09:13:00Z", "max_date": "2020-04-02T09:13:00Z", "count_points": 2, "latitude": 47.5597, "longitude": 31.04855, "city": "Domanivka", "images": []}, {"id": 450957, "min_date": "2020-04-02T09:13:00Z", "max_date": "2020-04-05T10:45:00Z", "count_points": 11, "latitude": 47.48391, "longitude": 31.06354, "city": "Domanivka", "images": [{"image_url": "450957.jpg", "timestamp": "2020-04-05T10:45:00Z"}]}, {"id": 450958, "min_date": "2020-04-02T09:13:00Z", "max_date": "2020-04-02T09:13:00Z", "count_points": 1, "latitude": 48.6365, "longitude": 22.254, "city": "Storozhnytsya", "images": []}, {"id": 450959, "min_date": "2020-04-02T09:13:00Z", "max_date": "2020-04-02T10:02:00Z", "count_points": 4, "latitude": 48.23756, "longitude": 25.71685, "city": "Storozhynets\u2019", "images": [{"image_url": "450959.jpg", "timestamp": "2020-04-02T10:02:00Z"}]}, {"id": 450960, "min_date": "2020-04-02T09:13:00Z", "max_date": "2020-04-02T09:13:00Z", "count_points": 1, "latitude": 48.466, "longitude": 22.7483, "city": "Mukacheve", "images": []}, {"id": 450961, "min_date": "2020-04-02T09:13:00Z", "max_date": "2020-04-02T09:13:00Z", "count_points": 1, "latitude": 48.2528, "longitude": 22.6832, "city": "Berehove", "images": []}, {"id": 450962, "min_date": "2020-04-02T09:13:00Z", "max_date": "2020-04-04T11:04:00Z", "count_points": 4, "latitude": 48.07791, "longitude": 23.57562, "city": "Tyachiv", "images": []}, {"id": 450963, "min_date": "2020-04-02T09:13:00Z", "max_date": "2020-04-01T10:20:00Z", "count_points": 3, "latitude": 49.70169, "longitude": 36.27, "city": "Zmiyiv", "images": []}, {"id": 450964, "min_date": "2020-04-02T09:13:00Z", "max_date": "2020-04-05T10:46:00Z", "count_points": 30, "latitude": 51.05565, "longitude": 28.29741, "city": "Luhyny", "images": [{"image_url": "450964.jpg", "timestamp": "2020-04-05T10:46:00Z"}]}, {"id": 450965, "min_date": "2020-04-02T09:13:00Z", "max_date": "2020-04-03T11:24:00Z", "count_points": 12, "latitude": 50.98516, "longitude": 28.60133, "city": "Korosten\u2019", "images": [{"image_url": "450965.jpg", "timestamp": "2020-04-03T11:24:00Z"}]}, {"id": 450966, "min_date": "2020-04-02T09:13:00Z", "max_date": "2020-04-02T11:43:00Z", "count_points": 4, "latitude": 51.27578, "longitude": 26.11625, "city": "Volodymyrets\u2019", "images": []}, {"id": 450967, "min_date": "2020-04-02T09:13:00Z", "max_date": "2020-04-02T10:01:00Z", "count_points": 2, "latitude": 48.84591, "longitude": 39.41666, "city": "Stanytsya Luhans\u2019ka", "images": []}, {"id": 450968, "min_date": "2020-04-02T09:13:00Z", "max_date": "2020-04-03T23:36:00Z", "count_points": 7, "latitude": 50.92215, "longitude": 28.70893, "city": "Korosten\u2019", "images": []}, {"id": 450969, "min_date": "2020-04-02T09:13:00Z", "max_date": "2020-04-05T10:46:00Z", "count_points": 42, "latitude": 50.93078, "longitude": 28.36995, "city": "Luhyny", "images": [{"image_url": "450969.jpg", "timestamp": "2020-04-05T10:46:00Z"}]}, {"id": 450970, "min_date": "2020-04-02T09:13:00Z", "max_date": "2020-04-02T11:43:00Z", "count_points": 15, "latitude": 51.21234, "longitude": 26.07787, "city": "Volodymyrets\u2019", "images": []}, {"id": 450971, "min_date": "2020-04-02T09:13:00Z", "max_date": "2020-04-02T10:58:00Z", "count_points": 2, "latitude": 51.22435, "longitude": 25.7577, "city": "Manevychi", "images": []}, {"id": 450972, "min_date": "2020-04-02T09:13:00Z", "max_date": "2020-04-02T10:02:00Z", "count_points": 3, "latitude": 50.49434, "longitude": 30.99571, "city": "Trebukhiv", "images": []}, {"id": 450973, "min_date": "2020-04-02T09:13:00Z", "max_date": "2020-04-02T09:13:00Z", "count_points": 1, "latitude": 51.3231, "longitude": 24.685, "city": "Kovel", "images": []}, {"id": 450974, "min_date": "2020-04-02T09:13:00Z", "max_date": "2020-04-02T11:43:00Z", "count_points": 6, "latitude": 50.84311, "longitude": 28.57628, "city": "Korosten\u2019", "images": []}, {"id": 450975, "min_date": "2020-04-02T09:13:00Z", "max_date": "2020-04-05T10:46:00Z", "count_points": 14, "latitude": 50.76995, "longitude": 29.09597, "city": "Malyn", "images": []}, {"id": 450976, "min_date": "2020-04-02T09:13:00Z", "max_date": "2020-04-02T10:03:00Z", "count_points": 11, "latitude": 51.32826, "longitude": 24.00868, "city": "Liuboml", "images": []}, {"id": 450977, "min_date": "2020-04-02T09:13:00Z", "max_date": "2020-04-02T10:02:00Z", "count_points": 2, "latitude": 51.04418, "longitude": 25.91641, "city": "Klevan\u2019", "images": []}, {"id": 450978, "min_date": "2020-04-02T09:13:00Z", "max_date": "2020-04-05T22:59:00Z", "count_points": 21, "latitude": 49.23923, "longitude": 36.6313, "city": "Petrivs\u2019ke", "images": []}, {"id": 450979, "min_date": "2020-04-02T09:13:00Z", "max_date": "2020-04-02T10:02:00Z", "count_points": 5, "latitude": 50.0106, "longitude": 32.75446, "city": "Orzhytsya", "images": [{"image_url": "450979.jpg", "timestamp": "2020-04-02T10:02:00Z"}]}, {"id": 450980, "min_date": "2020-04-02T09:13:00Z", "max_date": "2020-04-04T11:05:00Z", "count_points": 5, "latitude": 50.60742, "longitude": 28.94975, "city": "Holovyne", "images": []}, {"id": 450981, "min_date": "2020-04-02T09:13:00Z", "max_date": "2020-04-03T11:24:00Z", "count_points": 33, "latitude": 50.5727, "longitude": 29.10399, "city": "Radomyshl", "images": []}, {"id": 450982, "min_date": "2020-04-02T09:13:00Z", "max_date": "2020-04-02T10:02:00Z", "count_points": 3, "latitude": 50.89059, "longitude": 26.76069, "city": "Berezne", "images": []}, {"id": 450983, "min_date": "2020-04-02T09:13:00Z", "max_date": "2020-04-02T10:02:00Z", "count_points": 3, "latitude": 51.01428, "longitude": 25.27104, "city": "Rozhyshche", "images": []}, {"id": 450984, "min_date": "2020-04-02T09:13:00Z", "max_date": "2020-04-02T10:02:00Z", "count_points": 3, "latitude": 49.94712, "longitude": 32.27869, "city": "Drabiv", "images": []}, {"id": 450985, "min_date": "2020-04-02T09:13:00Z", "max_date": "2020-04-02T10:01:00Z", "count_points": 3, "latitude": 49.2215, "longitude": 35.98977, "city": "Sakhnovshchyna", "images": []}, {"id": 450986, "min_date": "2020-04-02T09:13:00Z", "max_date": "2020-04-02T10:58:00Z", "count_points": 2, "latitude": 50.5776, "longitude": 27.73925, "city": "Novohrad-Volynskyi", "images": []}, {"id": 450987, "min_date": "2020-04-02T09:13:00Z", "max_date": "2020-04-02T10:02:00Z", "count_points": 5, "latitude": 50.43873, "longitude": 28.68445, "city": "Cherniakhiv", "images": []}, {"id": 450988, "min_date": "2020-04-02T09:13:00Z", "max_date": "2020-04-04T11:05:00Z", "count_points": 11, "latitude": 50.48501, "longitude": 27.97982, "city": "Dovbysh", "images": []}, {"id": 450989, "min_date": "2020-04-02T09:13:00Z", "max_date": "2020-04-02T11:42:00Z", "count_points": 10, "latitude": 49.63317, "longitude": 33.26561, "city": "Semenivka", "images": []}, {"id": 450990, "min_date": "2020-04-02T09:13:00Z", "max_date": "2020-04-02T09:13:00Z", "count_points": 1, "latitude": 50.3909, "longitude": 28.4982, "city": "Cherniakhiv", "images": []}, {"id": 450991, "min_date": "2020-04-02T09:13:00Z", "max_date": "2020-04-02T09:13:00Z", "count_points": 1, "latitude": 48.4204, "longitude": 38.7525, "city": "Artemivs\u2019k", "images": []}, {"id": 450992, "min_date": "2020-04-02T09:13:00Z", "max_date": "2020-04-02T09:13:00Z", "count_points": 1, "latitude": 50.6144, "longitude": 26.6046, "city": "Hoshcha", "images": []}, {"id": 450993, "min_date": "2020-04-02T09:13:00Z", "max_date": "2020-04-04T23:18:00Z", "count_points": 35, "latitude": 49.67535, "longitude": 32.77583, "city": "Orzhytsya", "images": [{"image_url": "450993.jpg", "timestamp": "2020-04-04T23:18:00Z"}]}, {"id": 450994, "min_date": "2020-04-02T09:13:00Z", "max_date": "2020-04-02T11:43:00Z", "count_points": 7, "latitude": 50.70991, "longitude": 25.63797, "city": "Mlyniv", "images": [{"image_url": "450994.jpg", "timestamp": "2020-04-02T11:43:00Z"}]}, {"id": 450995, "min_date": "2020-04-02T09:13:00Z", "max_date": "2020-04-05T10:46:00Z", "count_points": 7, "latitude": 50.09763, "longitude": 29.97278, "city": "Fastiv", "images": [{"image_url": "450995.jpg", "timestamp": "2020-04-05T10:46:00Z"}]}, {"id": 450996, "min_date": "2020-04-02T09:13:00Z", "max_date": "2020-04-02T23:55:00Z", "count_points": 8, "latitude": 50.68841, "longitude": 25.25383, "city": "Lutsk", "images": []}, {"id": 450997, "min_date": "2020-04-02T09:13:00Z", "max_date": "2020-04-02T11:43:00Z", "count_points": 12, "latitude": 50.37205, "longitude": 27.75874, "city": "Baranivka", "images": []}, {"id": 450998, "min_date": "2020-04-02T09:13:00Z", "max_date": "2020-04-03T11:24:00Z", "count_points": 43, "latitude": 50.27328, "longitude": 28.27016, "city": "Denyshi", "images": [{"image_url": "450998.jpg", "timestamp": "2020-04-03T11:24:00Z"}]}, {"id": 450999, "min_date": "2020-04-02T09:13:00Z", "max_date": "2020-04-01T10:20:00Z", "count_points": 2, "latitude": 49.6803, "longitude": 32.06271, "city": "Zolotonosha", "images": []}, {"id": 451000, "min_date": "2020-04-02T09:13:00Z", "max_date": "2020-04-02T09:13:00Z", "count_points": 1, "latitude": 49.9099, "longitude": 30.5663, "city": "Mirovka", "images": []}, {"id": 451001, "min_date": "2020-04-02T09:13:00Z", "max_date": "2020-04-02T09:13:00Z", "count_points": 1, "latitude": 49.5042, "longitude": 32.9234, "city": "Semenivka", "images": []}, {"id": 451002, "min_date": "2020-04-02T09:13:00Z", "max_date": "2020-04-02T09:13:00Z", "count_points": 1, "latitude": 50.5072, "longitude": 26.213, "city": "Zdovbytsya", "images": []}, {"id": 451003, "min_date": "2020-04-02T09:13:00Z", "max_date": "2020-04-02T10:02:00Z", "count_points": 2, "latitude": 50.69417, "longitude": 24.40183, "city": "Ivanychi", "images": []}, {"id": 451004, "min_date": "2020-04-02T09:13:00Z", "max_date": "2020-04-02T11:42:00Z", "count_points": 5, "latitude": 49.80405, "longitude": 30.97994, "city": "Myronivka", "images": []}, {"id": 451005, "min_date": "2020-04-02T09:13:00Z", "max_date": "2020-04-03T11:24:00Z", "count_points": 8, "latitude": 50.64724, "longitude": 24.39127, "city": "Ivanychi", "images": []}, {"id": 451006, "min_date": "2020-04-02T09:13:00Z", "max_date": "2020-04-03T11:23:00Z", "count_points": 3, "latitude": 49.40378, "longitude": 32.96727, "city": "Hradyz\u2019k", "images": []}, {"id": 451007, "min_date": "2020-04-02T09:13:00Z", "max_date": "2020-04-02T10:01:00Z", "count_points": 2, "latitude": 48.29599, "longitude": 38.12762, "city": "Horlivka", "images": []}, {"id": 451008, "min_date": "2020-04-02T09:13:00Z", "max_date": "2020-04-02T09:13:00Z", "count_points": 1, "latitude": 50.1104, "longitude": 28.5141, "city": "Denyshi", "images": []}, {"id": 451009, "min_date": "2020-04-02T09:13:00Z", "max_date": "2020-04-02T10:58:00Z", "count_points": 2, "latitude": 50.2328, "longitude": 27.51225, "city": "Poninka", "images": []}, {"id": 451010, "min_date": "2020-04-02T09:13:00Z", "max_date": "2020-04-02T11:42:00Z", "count_points": 9, "latitude": 48.86294, "longitude": 35.42301, "city": "Hubynykha", "images": []}, {"id": 451011, "min_date": "2020-04-02T09:13:00Z", "max_date": "2020-04-02T09:13:00Z", "count_points": 1, "latitude": 50.5318, "longitude": 24.4812, "city": "Ivanychi", "images": []}, {"id": 451012, "min_date": "2020-04-02T09:13:00Z", "max_date": "2020-04-02T09:13:00Z", "count_points": 1, "latitude": 49.1914, "longitude": 33.4779, "city": "Kremenchuk", "images": []}, {"id": 451013, "min_date": "2020-04-02T09:13:00Z", "max_date": "2020-04-02T09:13:00Z", "count_points": 1, "latitude": 50.007, "longitude": 28.4587, "city": "Hryshkivtsi", "images": []}, {"id": 451014, "min_date": "2020-04-02T09:14:00Z", "max_date": "2020-04-02T09:14:00Z", "count_points": 1, "latitude": 46.2439, "longitude": 29.3516, "city": "Borodino", "images": []}, {"id": 451244, "min_date": "2020-04-03T09:55:00Z", "max_date": "2020-04-03T11:24:00Z", "count_points": 8, "latitude": 50.39948, "longitude": 29.67941, "city": "Makariv", "images": []}, {"id": 451015, "min_date": "2020-04-02T09:14:00Z", "max_date": "2020-04-02T10:00:00Z", "count_points": 2, "latitude": 45.09145, "longitude": 35.16183, "city": "Pervomayskoye", "images": []}, {"id": 451016, "min_date": "2020-04-02T09:14:00Z", "max_date": "2020-04-02T09:14:00Z", "count_points": 1, "latitude": 45.9067, "longitude": 29.6402, "city": "Tatarbunary", "images": []}, {"id": 451017, "min_date": "2020-04-02T09:20:00Z", "max_date": "2020-04-02T09:20:00Z", "count_points": 2, "latitude": 50.0317, "longitude": 36.7033, "city": "Staryy Saltiv", "images": []}, {"id": 451018, "min_date": "2020-04-02T10:57:00Z", "max_date": "2020-04-02T10:01:00Z", "count_points": 6, "latitude": 46.65637, "longitude": 33.0627, "city": "Kozachi Laheri", "images": []}, {"id": 451019, "min_date": "2020-04-02T10:57:00Z", "max_date": "2020-04-02T11:42:00Z", "count_points": 4, "latitude": 47.64024, "longitude": 36.13151, "city": "Zaliznychne", "images": []}, {"id": 451020, "min_date": "2020-04-02T10:57:00Z", "max_date": "2020-04-02T10:57:00Z", "count_points": 1, "latitude": 47.8359, "longitude": 36.8998, "city": "Velyka Novosilka", "images": []}, {"id": 451021, "min_date": "2020-04-02T10:57:00Z", "max_date": "2020-04-02T10:57:00Z", "count_points": 1, "latitude": 47.9, "longitude": 37.2515, "city": "Kurakhovo", "images": []}, {"id": 451022, "min_date": "2020-04-02T10:57:00Z", "max_date": "2020-04-02T10:57:00Z", "count_points": 1, "latitude": 47.1062, "longitude": 30.2658, "city": "Ivanivka", "images": []}, {"id": 451023, "min_date": "2020-04-02T10:57:00Z", "max_date": "2020-04-02T10:57:00Z", "count_points": 1, "latitude": 48.0707, "longitude": 38.5873, "city": "Torez", "images": []}, {"id": 451024, "min_date": "2020-04-02T10:57:00Z", "max_date": "2020-04-02T11:42:00Z", "count_points": 3, "latitude": 47.60707, "longitude": 33.31914, "city": "Shyroke", "images": []}, {"id": 451025, "min_date": "2020-04-02T10:57:00Z", "max_date": "2020-04-02T10:57:00Z", "count_points": 1, "latitude": 47.1459, "longitude": 29.7898, "city": "Kuchurhan", "images": []}, {"id": 451026, "min_date": "2020-04-02T10:57:00Z", "max_date": "2020-04-02T10:57:00Z", "count_points": 1, "latitude": 48.0601, "longitude": 35.7219, "city": "Novomykolayivka", "images": []}, {"id": 451027, "min_date": "2020-04-02T10:57:00Z", "max_date": "2020-04-03T11:23:00Z", "count_points": 4, "latitude": 48.09523, "longitude": 34.53935, "city": "Novopokrovka", "images": []}, {"id": 451028, "min_date": "2020-04-02T10:57:00Z", "max_date": "2020-04-02T10:57:00Z", "count_points": 2, "latitude": 48.50375, "longitude": 39.0701, "city": "Bile", "images": []}, {"id": 451029, "min_date": "2020-04-02T10:57:00Z", "max_date": "2020-04-02T10:01:00Z", "count_points": 2, "latitude": 48.43134, "longitude": 37.20565, "city": "Bilyts\u2019ke", "images": []}, {"id": 451030, "min_date": "2020-04-02T10:57:00Z", "max_date": "2020-04-02T10:57:00Z", "count_points": 1, "latitude": 48.4968, "longitude": 37.9115, "city": "Chasiv Yar", "images": []}, {"id": 451031, "min_date": "2020-04-02T10:57:00Z", "max_date": "2020-04-02T11:42:00Z", "count_points": 3, "latitude": 47.70496, "longitude": 30.37835, "city": "Lyubashivka", "images": []}, {"id": 451032, "min_date": "2020-04-02T10:57:00Z", "max_date": "2020-04-02T10:01:00Z", "count_points": 4, "latitude": 48.46744, "longitude": 36.24165, "city": "Petropavlivka", "images": []}, {"id": 451033, "min_date": "2020-04-02T10:57:00Z", "max_date": "2020-04-02T10:57:00Z", "count_points": 4, "latitude": 48.51993, "longitude": 36.6891, "city": "Mezhova", "images": []}, {"id": 451034, "min_date": "2020-04-02T10:57:00Z", "max_date": "2020-04-02T10:57:00Z", "count_points": 1, "latitude": 48.1772, "longitude": 33.4012, "city": "Lozuvatka", "images": []}, {"id": 451035, "min_date": "2020-04-02T10:57:00Z", "max_date": "2020-04-05T10:45:00Z", "count_points": 3, "latitude": 48.68273, "longitude": 38.59171, "city": "Kirovs\u2019k", "images": []}, {"id": 451036, "min_date": "2020-04-02T10:57:00Z", "max_date": "2020-04-02T11:42:00Z", "count_points": 3, "latitude": 48.41506, "longitude": 34.97319, "city": "Dnipro", "images": []}, {"id": 451037, "min_date": "2020-04-02T10:57:00Z", "max_date": "2020-03-31T10:39:00Z", "count_points": 2, "latitude": 48.08196, "longitude": 32.04553, "city": "Bobrynets", "images": []}, {"id": 451038, "min_date": "2020-04-02T10:57:00Z", "max_date": "2020-04-02T10:57:00Z", "count_points": 1, "latitude": 48.865, "longitude": 38.3262, "city": "Bilohorivka", "images": []}, {"id": 451039, "min_date": "2020-04-02T10:57:00Z", "max_date": "2020-04-03T11:23:00Z", "count_points": 6, "latitude": 48.52785, "longitude": 33.57007, "city": "Piatykhatky", "images": []}, {"id": 451040, "min_date": "2020-04-02T10:57:00Z", "max_date": "2020-04-04T23:18:00Z", "count_points": 10, "latitude": 49.07029, "longitude": 39.38185, "city": "Bilovodsk", "images": []}, {"id": 451041, "min_date": "2020-04-02T10:57:00Z", "max_date": "2020-04-02T11:42:00Z", "count_points": 3, "latitude": 48.06951, "longitude": 29.56846, "city": "Balta", "images": []}, {"id": 451042, "min_date": "2020-04-02T10:57:00Z", "max_date": "2020-04-04T11:04:00Z", "count_points": 2, "latitude": 48.60132, "longitude": 33.41708, "city": "Novyy Starodub", "images": []}, {"id": 451043, "min_date": "2020-04-02T10:57:00Z", "max_date": "2020-04-04T09:01:00Z", "count_points": 2, "latitude": 48.8254, "longitude": 34.84775, "city": "Mahdalynivka", "images": []}, {"id": 451044, "min_date": "2020-04-02T10:57:00Z", "max_date": "2020-04-02T10:57:00Z", "count_points": 1, "latitude": 48.9125, "longitude": 35.6342, "city": "Sakhnovshchyna", "images": []}, {"id": 451045, "min_date": "2020-04-02T10:57:00Z", "max_date": "2020-04-02T10:01:00Z", "count_points": 4, "latitude": 48.71876, "longitude": 33.74577, "city": "Lykhivka", "images": []}, {"id": 451046, "min_date": "2020-04-02T10:57:00Z", "max_date": "2020-04-02T10:57:00Z", "count_points": 1, "latitude": 48.8997, "longitude": 35.0735, "city": "Mahdalynivka", "images": []}, {"id": 451047, "min_date": "2020-04-02T10:57:00Z", "max_date": "2020-04-02T11:42:00Z", "count_points": 8, "latitude": 48.12472, "longitude": 28.9939, "city": "Kodyma", "images": []}, {"id": 451048, "min_date": "2020-04-02T10:57:00Z", "max_date": "2020-04-02T10:01:00Z", "count_points": 2, "latitude": 48.51703, "longitude": 31.34253, "city": "Zlynka", "images": []}, {"id": 451049, "min_date": "2020-04-02T10:58:00Z", "max_date": "2020-04-02T10:58:00Z", "count_points": 1, "latitude": 49.6858, "longitude": 29.079, "city": "Ruzhyn", "images": []}, {"id": 451050, "min_date": "2020-04-02T10:58:00Z", "max_date": "2020-04-02T10:02:00Z", "count_points": 4, "latitude": 51.24457, "longitude": 32.28266, "city": "Borzna", "images": []}, {"id": 451051, "min_date": "2020-04-02T10:58:00Z", "max_date": "2020-04-02T11:43:00Z", "count_points": 6, "latitude": 50.24892, "longitude": 25.48513, "city": "Demydivka", "images": []}, {"id": 451052, "min_date": "2020-04-02T10:58:00Z", "max_date": "2020-04-05T00:58:00Z", "count_points": 16, "latitude": 51.19402, "longitude": 31.64608, "city": "Kulykivka", "images": []}, {"id": 451053, "min_date": "2020-04-02T10:58:00Z", "max_date": "2020-04-02T10:58:00Z", "count_points": 3, "latitude": 50.45903, "longitude": 26.18937, "city": "Mizoch", "images": []}, {"id": 451054, "min_date": "2020-04-02T10:58:00Z", "max_date": "2020-04-03T11:24:00Z", "count_points": 18, "latitude": 51.22024, "longitude": 31.24584, "city": "Olyshivka", "images": []}, {"id": 451055, "min_date": "2020-04-02T10:58:00Z", "max_date": "2020-04-04T01:17:00Z", "count_points": 4, "latitude": 50.39611, "longitude": 25.72335, "city": "Dubno", "images": []}, {"id": 451056, "min_date": "2020-04-02T10:58:00Z", "max_date": "2020-04-02T11:43:00Z", "count_points": 3, "latitude": 50.68675, "longitude": 27.42603, "city": "Horodnytsya", "images": []}, {"id": 451057, "min_date": "2020-04-02T10:58:00Z", "max_date": "2020-04-02T10:58:00Z", "count_points": 1, "latitude": 51.1076, "longitude": 30.2134, "city": "Kryva Hora", "images": []}, {"id": 451058, "min_date": "2020-04-02T10:58:00Z", "max_date": "2020-04-02T10:58:00Z", "count_points": 2, "latitude": 49.95585, "longitude": 23.3754, "city": "Yavoriv", "images": []}, {"id": 451059, "min_date": "2020-04-02T10:58:00Z", "max_date": "2020-04-02T11:43:00Z", "count_points": 2, "latitude": 50.47991, "longitude": 25.95905, "city": "Mizoch", "images": []}, {"id": 451060, "min_date": "2020-04-02T10:58:00Z", "max_date": "2020-04-02T10:02:00Z", "count_points": 4, "latitude": 51.11396, "longitude": 29.99425, "city": "Ivankiv", "images": []}, {"id": 451061, "min_date": "2020-04-02T10:58:00Z", "max_date": "2020-04-03T11:24:00Z", "count_points": 7, "latitude": 50.73926, "longitude": 27.04045, "city": "Koloniya Zastav\u2019ye", "images": []}, {"id": 451062, "min_date": "2020-04-02T10:58:00Z", "max_date": "2020-04-02T10:02:00Z", "count_points": 4, "latitude": 50.97233, "longitude": 28.49137, "city": "Korosten\u2019", "images": []}, {"id": 451063, "min_date": "2020-04-02T10:58:00Z", "max_date": "2020-04-02T11:43:00Z", "count_points": 4, "latitude": 50.60694, "longitude": 26.07625, "city": "Tynne", "images": []}, {"id": 451064, "min_date": "2020-04-02T10:58:00Z", "max_date": "2020-04-02T11:43:00Z", "count_points": 5, "latitude": 50.35723, "longitude": 24.65865, "city": "Radekhiv", "images": []}, {"id": 451065, "min_date": "2020-04-02T10:58:00Z", "max_date": "2020-04-02T10:02:00Z", "count_points": 6, "latitude": 50.61488, "longitude": 25.9418, "city": "Klevan\u2019", "images": []}, {"id": 451066, "min_date": "2020-04-02T10:58:00Z", "max_date": "2020-04-02T11:43:00Z", "count_points": 5, "latitude": 51.00459, "longitude": 27.43456, "city": "Horodnytsya", "images": []}, {"id": 451067, "min_date": "2020-04-02T10:58:00Z", "max_date": "2020-04-05T10:46:00Z", "count_points": 3, "latitude": 51.26364, "longitude": 28.96508, "city": "Narodychi", "images": []}, {"id": 451068, "min_date": "2020-04-02T10:58:00Z", "max_date": "2020-04-05T10:46:00Z", "count_points": 3, "latitude": 51.17985, "longitude": 28.07623, "city": "Novi Bilokorovychi", "images": []}, {"id": 451069, "min_date": "2020-04-02T10:58:00Z", "max_date": "2020-04-03T09:44:00Z", "count_points": 3, "latitude": 51.11978, "longitude": 27.43599, "city": "Olevs\u2019k", "images": []}, {"id": 451070, "min_date": "2020-04-02T10:58:00Z", "max_date": "2020-04-02T11:43:00Z", "count_points": 4, "latitude": 51.17933, "longitude": 27.69704, "city": "Olevs\u2019k", "images": []}, {"id": 451071, "min_date": "2020-04-02T10:58:00Z", "max_date": "2020-04-02T11:43:00Z", "count_points": 4, "latitude": 50.88039, "longitude": 25.84189, "city": "Olyka", "images": []}, {"id": 451072, "min_date": "2020-04-02T10:58:00Z", "max_date": "2020-04-02T11:43:00Z", "count_points": 2, "latitude": 51.03218, "longitude": 25.724, "city": "Olyka", "images": []}, {"id": 451073, "min_date": "2020-04-02T10:58:00Z", "max_date": "2020-04-03T11:24:00Z", "count_points": 11, "latitude": 51.01641, "longitude": 25.3598, "city": "Lukiv", "images": []}, {"id": 451074, "min_date": "2020-04-02T10:58:00Z", "max_date": "2020-04-05T12:27:00Z", "count_points": 11, "latitude": 50.91886, "longitude": 24.49015, "city": "Turiys\u2019k", "images": []}, {"id": 451075, "min_date": "2020-04-02T10:58:00Z", "max_date": "2020-04-02T10:58:00Z", "count_points": 2, "latitude": 49.14145, "longitude": 36.5326, "city": "Krasnopavlivka", "images": []}, {"id": 451076, "min_date": "2020-04-02T10:58:00Z", "max_date": "2020-04-02T10:58:00Z", "count_points": 2, "latitude": 49.1569, "longitude": 36.0762, "city": "Sakhnovshchyna", "images": []}, {"id": 451077, "min_date": "2020-04-02T10:58:00Z", "max_date": "2020-04-02T11:42:00Z", "count_points": 2, "latitude": 48.442, "longitude": 29.93256, "city": "Hayvoron", "images": []}, {"id": 451078, "min_date": "2020-04-02T10:58:00Z", "max_date": "2020-04-02T11:42:00Z", "count_points": 3, "latitude": 49.37037, "longitude": 36.41198, "city": "Pervomays\u2019kyy", "images": []}, {"id": 451079, "min_date": "2020-04-02T10:58:00Z", "max_date": "2020-04-02T10:58:00Z", "count_points": 2, "latitude": 49.16145, "longitude": 34.182, "city": "Kobelyaky", "images": []}, {"id": 451080, "min_date": "2020-04-02T10:58:00Z", "max_date": "2020-04-02T10:01:00Z", "count_points": 4, "latitude": 49.32605, "longitude": 35.37365, "city": "Krasnohrad", "images": []}, {"id": 451081, "min_date": "2020-04-02T10:58:00Z", "max_date": "2020-04-02T10:01:00Z", "count_points": 3, "latitude": 49.28674, "longitude": 34.75001, "city": "Hupalivka", "images": []}, {"id": 451082, "min_date": "2020-04-02T10:58:00Z", "max_date": "2020-04-02T10:58:00Z", "count_points": 1, "latitude": 49.1297, "longitude": 33.3321, "city": "Kremenchuk", "images": []}, {"id": 451083, "min_date": "2020-04-02T10:58:00Z", "max_date": "2020-04-02T10:58:00Z", "count_points": 1, "latitude": 48.4596, "longitude": 28.1983, "city": "Chernivtsi", "images": []}, {"id": 451084, "min_date": "2020-04-02T10:58:00Z", "max_date": "2020-04-02T11:42:00Z", "count_points": 2, "latitude": 49.00668, "longitude": 31.79392, "city": "Kapitanivka", "images": []}, {"id": 451085, "min_date": "2020-04-02T10:58:00Z", "max_date": "2020-04-02T10:01:00Z", "count_points": 4, "latitude": 49.53766, "longitude": 35.94276, "city": "Chapayeve", "images": []}, {"id": 451086, "min_date": "2020-04-02T10:58:00Z", "max_date": "2020-04-02T11:42:00Z", "count_points": 5, "latitude": 49.51284, "longitude": 35.55487, "city": "Verbivka", "images": []}, {"id": 451087, "min_date": "2020-04-02T10:58:00Z", "max_date": "2020-04-02T10:02:00Z", "count_points": 3, "latitude": 48.92491, "longitude": 30.34721, "city": "Mankivka", "images": []}, {"id": 451088, "min_date": "2020-04-02T10:58:00Z", "max_date": "2020-04-02T10:58:00Z", "count_points": 3, "latitude": 48.94007, "longitude": 29.8787, "city": "Nove-Misto", "images": []}, {"id": 451089, "min_date": "2020-04-02T10:58:00Z", "max_date": "2020-04-02T11:42:00Z", "count_points": 2, "latitude": 48.30907, "longitude": 25.98464, "city": "Chernivtsi", "images": []}, {"id": 451090, "min_date": "2020-04-02T10:58:00Z", "max_date": "2020-04-02T11:42:00Z", "count_points": 2, "latitude": 48.7163, "longitude": 28.1161, "city": "Sharhorod", "images": []}, {"id": 451091, "min_date": "2020-04-02T10:58:00Z", "max_date": "2020-04-02T10:58:00Z", "count_points": 2, "latitude": 49.84315, "longitude": 36.2546, "city": "Bezlyudivka", "images": []}, {"id": 451092, "min_date": "2020-04-02T10:58:00Z", "max_date": "2020-04-02T10:01:00Z", "count_points": 2, "latitude": 49.75319, "longitude": 35.21102, "city": "Chutove", "images": []}, {"id": 451093, "min_date": "2020-04-02T10:58:00Z", "max_date": "2020-04-02T11:42:00Z", "count_points": 4, "latitude": 48.76649, "longitude": 27.43991, "city": "Murovani Kurylivtsi", "images": []}, {"id": 451094, "min_date": "2020-04-02T10:58:00Z", "max_date": "2020-04-02T10:58:00Z", "count_points": 1, "latitude": 48.4977, "longitude": 25.8228, "city": "Zastavna", "images": []}, {"id": 451095, "min_date": "2020-04-02T10:58:00Z", "max_date": "2020-04-02T10:58:00Z", "count_points": 2, "latitude": 50.0284, "longitude": 37.12715, "city": "Prykolotne", "images": []}, {"id": 451096, "min_date": "2020-04-02T10:58:00Z", "max_date": "2020-04-03T11:23:00Z", "count_points": 9, "latitude": 48.54151, "longitude": 25.60203, "city": "Stetseva", "images": [{"image_url": "451096.jpg", "timestamp": "2020-04-03T11:23:00Z"}]}, {"id": 451097, "min_date": "2020-04-02T10:58:00Z", "max_date": "2020-04-02T11:42:00Z", "count_points": 2, "latitude": 49.08227, "longitude": 28.70172, "city": "Voronovytsya", "images": []}, {"id": 451098, "min_date": "2020-04-02T10:58:00Z", "max_date": "2020-04-02T10:58:00Z", "count_points": 1, "latitude": 48.4512, "longitude": 25.0137, "city": "Velykyy Klyuchiv", "images": []},