[{"id": 440985, "min_date": "2020-01-27T11:09:00Z", "max_date": "2020-01-27T10:39:00Z", "count_points": 4, "latitude": 48.65938, "longitude": 30.4475, "city": "Babanka", "images": []}, {"id": 440986, "min_date": "2020-01-28T11:53:00Z", "max_date": "2020-01-28T12:01:00Z", "count_points": 2, "latitude": 48.38644, "longitude": 26.31499, "city": "Klishkivtsi", "images": []}, {"id": 440987, "min_date": "2020-01-28T11:53:00Z", "max_date": "2020-01-28T12:02:00Z", "count_points": 7, "latitude": 51.46866, "longitude": 26.9686, "city": "Rokytne", "images": []}, {"id": 440988, "min_date": "2020-01-31T10:45:00Z", "max_date": "2020-01-31T11:04:00Z", "count_points": 7, "latitude": 47.83393, "longitude": 33.19156, "city": "Shyroke", "images": []}, {"id": 440989, "min_date": "2020-02-02T10:32:00Z", "max_date": "2020-02-02T10:25:00Z", "count_points": 4, "latitude": 45.62121, "longitude": 34.62926, "city": "Tabachnoye", "images": []}, {"id": 440990, "min_date": "2020-02-02T10:32:00Z", "max_date": "2020-02-02T10:32:00Z", "count_points": 1, "latitude": 47.2754, "longitude": 35.7147, "city": "Tokmak", "images": []}, {"id": 440991, "min_date": "2020-02-02T10:32:00Z", "max_date": "2020-02-02T10:32:00Z", "count_points": 2, "latitude": 47.35605, "longitude": 31.61105, "city": "Nova Odesa", "images": []}, {"id": 440992, "min_date": "2020-02-02T10:32:00Z", "max_date": "2020-02-02T10:32:00Z", "count_points": 1, "latitude": 48.2, "longitude": 34.4947, "city": "Krynychky", "images": []}, {"id": 440993, "min_date": "2020-01-27T00:51:00Z", "max_date": "2020-01-27T00:51:00Z", "count_points": 2, "latitude": 50.86088, "longitude": 29.82679, "city": "Ivankiv", "images": []}, {"id": 440994, "min_date": "2020-01-27T00:52:00Z", "max_date": "2020-01-27T00:52:00Z", "count_points": 2, "latitude": 48.93111, "longitude": 24.06126, "city": "Spas", "images": []}, {"id": 440995, "min_date": "2020-01-27T08:58:00Z", "max_date": "2020-01-27T08:58:00Z", "count_points": 1, "latitude": 48.18064, "longitude": 38.99716, "city": "Krasnyy Luch", "images": []}, {"id": 440996, "min_date": "2020-01-27T10:38:00Z", "max_date": "2020-01-27T10:38:00Z", "count_points": 2, "latitude": 47.9597, "longitude": 38.08234, "city": "Mospyne", "images": []}, {"id": 440997, "min_date": "2020-01-27T10:38:00Z", "max_date": "2020-01-27T10:38:00Z", "count_points": 1, "latitude": 48.06745, "longitude": 31.95797, "city": "Bobrynets", "images": []}, {"id": 440998, "min_date": "2020-01-27T10:39:00Z", "max_date": "2020-01-27T10:39:00Z", "count_points": 1, "latitude": 49.29412, "longitude": 29.32513, "city": "Pohrebyshche", "images": []}, {"id": 440999, "min_date": "2020-01-27T12:20:00Z", "max_date": "2020-01-27T12:20:00Z", "count_points": 2, "latitude": 49.42841, "longitude": 23.01984, "city": "Staryy Sambir", "images": []}, {"id": 441000, "min_date": "2020-01-28T00:33:00Z", "max_date": "2020-01-28T00:33:00Z", "count_points": 1, "latitude": 50.12427, "longitude": 25.47815, "city": "Pochaiv", "images": []}, {"id": 441001, "min_date": "2020-01-28T00:33:00Z", "max_date": "2020-01-28T00:33:00Z", "count_points": 1, "latitude": 49.18298, "longitude": 23.58417, "city": "Verkhnie Synevydne", "images": []}, {"id": 441002, "min_date": "2020-01-28T10:20:00Z", "max_date": "2020-01-28T10:20:00Z", "count_points": 1, "latitude": 48.95319, "longitude": 38.99254, "city": "Novoaydar", "images": []}, {"id": 441003, "min_date": "2020-01-28T10:21:00Z", "max_date": "2020-01-28T10:21:00Z", "count_points": 2, "latitude": 51.68931, "longitude": 26.68693, "city": "Dubrovytsya", "images": []}, {"id": 441004, "min_date": "2020-01-28T10:21:00Z", "max_date": "2020-01-28T10:21:00Z", "count_points": 1, "latitude": 51.65279, "longitude": 25.78486, "city": "Kuznetsovs\u2019k", "images": []}, {"id": 441005, "min_date": "2020-01-28T12:01:00Z", "max_date": "2020-01-28T12:01:00Z", "count_points": 1, "latitude": 48.78062, "longitude": 24.90255, "city": "Chornoliztsi", "images": []}, {"id": 441006, "min_date": "2020-01-28T12:01:00Z", "max_date": "2020-01-28T12:01:00Z", "count_points": 1, "latitude": 48.58873, "longitude": 24.8947, "city": "Pechenizhyn", "images": []}, {"id": 441007, "min_date": "2020-01-28T12:01:00Z", "max_date": "2020-01-28T12:01:00Z", "count_points": 1, "latitude": 50.87256, "longitude": 29.23904, "city": "Malyn", "images": []}, {"id": 441008, "min_date": "2020-01-31T11:03:00Z", "max_date": "2020-01-31T11:03:00Z", "count_points": 1, "latitude": 47.61086, "longitude": 32.95991, "city": "Kazanka", "images": []}, {"id": 441009, "min_date": "2020-01-31T23:18:00Z", "max_date": "2020-01-31T23:18:00Z", "count_points": 1, "latitude": 49.36069, "longitude": 35.57143, "city": "Verbivka", "images": []}, {"id": 441010, "min_date": "2020-02-01T10:45:00Z", "max_date": "2020-02-01T10:45:00Z", "count_points": 2, "latitude": 48.35298, "longitude": 25.15004, "city": "Khymchyn", "images": []}, {"id": 441011, "min_date": "2020-02-02T00:40:00Z", "max_date": "2020-02-02T00:40:00Z", "count_points": 2, "latitude": 49.0427, "longitude": 23.9232, "city": "Bolekhiv", "images": []}, {"id": 441012, "min_date": "2020-02-02T00:40:00Z", "max_date": "2020-02-02T00:40:00Z", "count_points": 1, "latitude": 48.88097, "longitude": 24.06788, "city": "Spas", "images": []}, {"id": 441013, "min_date": "2020-02-02T10:25:00Z", "max_date": "2020-02-02T10:25:00Z", "count_points": 1, "latitude": 45.71716, "longitude": 29.4459, "city": "Shevchenkove", "images": []}, {"id": 441014, "min_date": "2020-02-02T10:25:00Z", "max_date": "2020-02-02T10:25:00Z", "count_points": 1, "latitude": 45.04153, "longitude": 34.5377, "city": "Belogorsk", "images": []}, {"id": 441015, "min_date": "2020-02-02T10:26:00Z", "max_date": "2020-02-02T10:26:00Z", "count_points": 1, "latitude": 48.38467, "longitude": 33.47363, "city": "Zhovti Vody", "images": []}, {"id": 441016, "min_date": "2020-02-02T10:26:00Z", "max_date": "2020-02-02T10:26:00Z", "count_points": 1, "latitude": 48.14232, "longitude": 34.61533, "city": "Novopokrovka", "images": []}, {"id": 441017, "min_date": "2020-02-02T10:26:00Z", "max_date": "2020-02-02T10:26:00Z", "count_points": 1, "latitude": 48.30779, "longitude": 34.69069, "city": "Surs\u2019ko-Mykhaylivka", "images": []}, {"id": 441018, "min_date": "2020-02-02T10:26:00Z", "max_date": "2020-02-02T10:26:00Z", "count_points": 1, "latitude": 48.72557, "longitude": 33.88884, "city": "Lykhivka", "images": []}, {"id": 441019, "min_date": "2020-02-02T10:26:00Z", "max_date": "2020-02-02T10:26:00Z", "count_points": 1, "latitude": 47.65531, "longitude": 33.32026, "city": "Shyroke", "images": []}]