[{"id": 460334, "min_date": "2020-07-29T08:36:00Z", "max_date": "2020-07-30T09:30:00Z", "count_points": 5, "latitude": 48.16931, "longitude": 36.56815, "city": "Mezhova", "images": [{"image_url": "460334.jpg", "timestamp": "2020-07-30T09:30:00Z"}]}, {"id": 460865, "min_date": "2020-07-30T11:06:00Z", "max_date": "2020-07-30T11:06:00Z", "count_points": 2, "latitude": 48.52272, "longitude": 25.36591, "city": "Zabolotiv", "images": []}, {"id": 460866, "min_date": "2020-07-30T11:06:00Z", "max_date": "2020-07-30T11:06:00Z", "count_points": 1, "latitude": 46.0523, "longitude": 30.13765, "city": "Kulevcha", "images": []}, {"id": 460867, "min_date": "2020-07-30T11:06:00Z", "max_date": "2020-07-30T11:06:00Z", "count_points": 1, "latitude": 50.32642, "longitude": 23.90855, "city": "Belz", "images": []}, {"id": 460868, "min_date": "2020-07-30T11:06:00Z", "max_date": "2020-07-30T11:06:00Z", "count_points": 1, "latitude": 47.28922, "longitude": 34.21474, "city": "Verkhniy Rohachyk", "images": []}, {"id": 460869, "min_date": "2020-07-30T11:06:00Z", "max_date": "2020-07-30T11:06:00Z", "count_points": 1, "latitude": 46.84991, "longitude": 32.65201, "city": "Oleksandrivka", "images": []}, {"id": 460870, "min_date": "2020-07-30T11:06:00Z", "max_date": "2020-07-30T11:06:00Z", "count_points": 1, "latitude": 50.43459, "longitude": 24.52128, "city": "Radekhiv", "images": []}, {"id": 460871, "min_date": "2020-07-30T11:06:00Z", "max_date": "2020-07-30T11:06:00Z", "count_points": 2, "latitude": 49.15057, "longitude": 29.72024, "city": "Tsibulev", "images": []}, {"id": 460872, "min_date": "2020-07-30T11:06:00Z", "max_date": "2020-07-30T11:06:00Z", "count_points": 1, "latitude": 49.32592, "longitude": 30.91718, "city": "Lysyanka", "images": []}, {"id": 460873, "min_date": "2020-07-30T11:06:00Z", "max_date": "2020-07-30T11:06:00Z", "count_points": 1, "latitude": 49.67629, "longitude": 28.6093, "city": "Berdychiv", "images": []}, {"id": 460874, "min_date": "2020-07-30T11:06:00Z", "max_date": "2020-07-31T10:48:00Z", "count_points": 3, "latitude": 47.2941, "longitude": 34.4389, "city": "Verkhniy Rohachyk", "images": []}, {"id": 460875, "min_date": "2020-07-30T11:06:00Z", "max_date": "2020-07-30T11:06:00Z", "count_points": 1, "latitude": 48.22539, "longitude": 34.16853, "city": "Vyshneve", "images": []}, {"id": 460876, "min_date": "2020-07-30T11:06:00Z", "max_date": "2020-07-30T11:06:00Z", "count_points": 1, "latitude": 48.14426, "longitude": 31.4054, "city": "Pomichna", "images": []}, {"id": 460877, "min_date": "2020-07-30T11:06:00Z", "max_date": "2020-07-30T11:06:00Z", "count_points": 1, "latitude": 49.85027, "longitude": 30.50013, "city": "Uzyn", "images": []}, {"id": 460878, "min_date": "2020-07-30T11:06:00Z", "max_date": "2020-07-30T11:06:00Z", "count_points": 1, "latitude": 49.23315, "longitude": 30.38187, "city": "Buky", "images": []}, {"id": 460879, "min_date": "2020-07-30T11:06:00Z", "max_date": "2020-07-30T23:24:00Z", "count_points": 4, "latitude": 48.5783, "longitude": 33.8877, "city": "Lykhivka", "images": []}, {"id": 460880, "min_date": "2020-07-30T11:06:00Z", "max_date": "2020-07-30T11:06:00Z", "count_points": 1, "latitude": 47.2633, "longitude": 37.64496, "city": "Sartana", "images": []}, {"id": 460881, "min_date": "2020-07-30T11:06:00Z", "max_date": "2020-07-30T11:06:00Z", "count_points": 2, "latitude": 48.17644, "longitude": 37.47661, "city": "Selydove", "images": []}, {"id": 460882, "min_date": "2020-07-30T11:06:00Z", "max_date": "2020-07-30T11:06:00Z", "count_points": 1, "latitude": 49.33194, "longitude": 25.24313, "city": "Pidhaytsi", "images": []}, {"id": 460883, "min_date": "2020-07-30T11:06:00Z", "max_date": "2020-07-30T11:06:00Z", "count_points": 1, "latitude": 47.43558, "longitude": 29.99387, "city": "Zatyshshya", "images": []}, {"id": 460884, "min_date": "2020-07-30T11:06:00Z", "max_date": "2020-07-30T11:06:00Z", "count_points": 1, "latitude": 46.76471, "longitude": 32.12722, "city": "Shevchenkove", "images": []}, {"id": 460885, "min_date": "2020-07-30T11:06:00Z", "max_date": "2020-07-30T11:06:00Z", "count_points": 4, "latitude": 49.04581, "longitude": 39.55407, "city": "Bilovodsk", "images": []}, {"id": 460886, "min_date": "2020-07-30T11:06:00Z", "max_date": "2020-07-30T11:06:00Z", "count_points": 2, "latitude": 48.5, "longitude": 32.6895, "city": "Novhorodka", "images": []}, {"id": 460887, "min_date": "2020-07-30T23:24:00Z", "max_date": "2020-07-30T23:24:00Z", "count_points": 1, "latitude": 50.49457, "longitude": 30.3457, "city": "Kotsyubyns\u2019ke", "images": []}, {"id": 460888, "min_date": "2020-07-30T23:24:00Z", "max_date": "2020-07-31T01:00:00Z", "count_points": 3, "latitude": 47.65698, "longitude": 36.61712, "city": "Velyka Novosilka", "images": []}, {"id": 460889, "min_date": "2020-07-30T23:24:00Z", "max_date": "2020-07-31T01:00:00Z", "count_points": 3, "latitude": 50.02651, "longitude": 37.23656, "city": "Velykyy Burluk", "images": []}, {"id": 460890, "min_date": "2020-07-30T23:24:00Z", "max_date": "2020-07-31T01:00:00Z", "count_points": 6, "latitude": 48.74547, "longitude": 36.93254, "city": "Oleksandrivka", "images": []}, {"id": 460891, "min_date": "2020-07-30T23:24:00Z", "max_date": "2020-07-30T23:24:00Z", "count_points": 2, "latitude": 48.28483, "longitude": 33.26614, "city": "Petrove", "images": []}, {"id": 460892, "min_date": "2020-07-30T23:24:00Z", "max_date": "2020-07-30T23:24:00Z", "count_points": 1, "latitude": 48.19511, "longitude": 35.98789, "city": "Vasyl\u2019kivka", "images": []}, {"id": 460893, "min_date": "2020-07-30T23:24:00Z", "max_date": "2020-07-30T23:24:00Z", "count_points": 2, "latitude": 48.14542, "longitude": 35.77598, "city": "Novomykolayivka", "images": []}, {"id": 460894, "min_date": "2020-07-30T23:24:00Z", "max_date": "2020-07-30T23:24:00Z", "count_points": 4, "latitude": 48.31189, "longitude": 36.68388, "city": "Mezhova", "images": []}, {"id": 460895, "min_date": "2020-07-30T23:24:00Z", "max_date": "2020-07-30T23:24:00Z", "count_points": 1, "latitude": 48.98657, "longitude": 36.99506, "city": "Barvinkove", "images": []}, {"id": 460896, "min_date": "2020-07-30T23:24:00Z", "max_date": "2020-07-30T23:24:00Z", "count_points": 5, "latitude": 48.33339, "longitude": 36.83483, "city": "Mezhova", "images": []}, {"id": 460897, "min_date": "2020-07-30T23:24:00Z", "max_date": "2020-07-31T10:48:00Z", "count_points": 2, "latitude": 48.15473, "longitude": 37.37257, "city": "Selydove", "images": []}, {"id": 460898, "min_date": "2020-07-30T23:24:00Z", "max_date": "2020-07-30T23:24:00Z", "count_points": 1, "latitude": 48.6301, "longitude": 36.62499, "city": "Blyznyuky", "images": []}, {"id": 460899, "min_date": "2020-07-30T23:24:00Z", "max_date": "2020-07-31T23:00:00Z", "count_points": 11, "latitude": 48.44595, "longitude": 39.80414, "city": "Uralo-Kavkaz", "images": []}, {"id": 460900, "min_date": "2020-07-30T23:24:00Z", "max_date": "2020-07-30T23:24:00Z", "count_points": 3, "latitude": 47.93431, "longitude": 39.65089, "city": "Biryukove", "images": []}, {"id": 460901, "min_date": "2020-07-30T23:24:00Z", "max_date": "2020-07-30T23:24:00Z", "count_points": 5, "latitude": 48.8393, "longitude": 36.72245, "city": "Blyznyuky", "images": []}, {"id": 460902, "min_date": "2020-07-30T23:24:00Z", "max_date": "2020-07-30T23:24:00Z", "count_points": 1, "latitude": 48.1512, "longitude": 36.76373, "city": "Mezhova", "images": []}, {"id": 460903, "min_date": "2020-07-30T23:24:00Z", "max_date": "2020-07-31T01:00:00Z", "count_points": 9, "latitude": 48.81318, "longitude": 35.18311, "city": "Hubynykha", "images": []}, {"id": 460904, "min_date": "2020-07-30T23:24:00Z", "max_date": "2020-07-30T23:24:00Z", "count_points": 9, "latitude": 48.77234, "longitude": 35.14925, "city": "Hubynykha", "images": []}, {"id": 460905, "min_date": "2020-07-30T23:24:00Z", "max_date": "2020-08-02T22:24:00Z", "count_points": 3, "latitude": 48.6342, "longitude": 35.82129, "city": "Pavlohrad", "images": []}, {"id": 460906, "min_date": "2020-07-30T23:24:00Z", "max_date": "2020-07-30T23:24:00Z", "count_points": 2, "latitude": 47.27773, "longitude": 36.50175, "city": "Kuybysheve", "images": []}, {"id": 460907, "min_date": "2020-07-30T23:24:00Z", "max_date": "2020-07-30T23:24:00Z", "count_points": 1, "latitude": 48.35162, "longitude": 37.51285, "city": "Myrnohrad", "images": []}, {"id": 460908, "min_date": "2020-07-30T23:24:00Z", "max_date": "2020-07-31T01:00:00Z", "count_points": 5, "latitude": 48.88924, "longitude": 36.8268, "city": "Barvinkove", "images": []}, {"id": 460909, "min_date": "2020-07-30T23:24:00Z", "max_date": "2020-07-30T23:24:00Z", "count_points": 1, "latitude": 48.88113, "longitude": 36.77777, "city": "Oleksandrivka", "images": []}, {"id": 460910, "min_date": "2020-07-30T23:24:00Z", "max_date": "2020-07-30T23:24:00Z", "count_points": 1, "latitude": 48.12872, "longitude": 35.85393, "city": "Novomykolayivka", "images": []}, {"id": 460911, "min_date": "2020-07-30T23:24:00Z", "max_date": "2020-07-30T23:24:00Z", "count_points": 1, "latitude": 48.83333, "longitude": 36.81724, "city": "Oleksandrivka", "images": []}, {"id": 460912, "min_date": "2020-07-30T23:24:00Z", "max_date": "2020-07-30T23:24:00Z", "count_points": 3, "latitude": 48.21983, "longitude": 38.15508, "city": "Yenakiyeve", "images": []}, {"id": 460913, "min_date": "2020-07-30T23:24:00Z", "max_date": "2020-07-30T23:24:00Z", "count_points": 1, "latitude": 48.72767, "longitude": 35.11128, "city": "Spas\u2019ke", "images": []}, {"id": 460914, "min_date": "2020-07-30T23:24:00Z", "max_date": "2020-07-30T23:24:00Z", "count_points": 1, "latitude": 46.80314, "longitude": 35.70539, "city": "Novovasylivka", "images": []}, {"id": 460915, "min_date": "2020-07-30T23:24:00Z", "max_date": "2020-07-31T01:00:00Z", "count_points": 3, "latitude": 48.81726, "longitude": 36.5062, "city": "Blyznyuky", "images": []}, {"id": 460916, "min_date": "2020-07-30T23:24:00Z", "max_date": "2020-07-30T23:24:00Z", "count_points": 1, "latitude": 47.38457, "longitude": 35.3624, "city": "Vasylivka", "images": []}, {"id": 460917, "min_date": "2020-07-30T23:24:00Z", "max_date": "2020-07-30T23:24:00Z", "count_points": 5, "latitude": 48.30701, "longitude": 36.48011, "city": "Petropavlivka", "images": []}, {"id": 460918, "min_date": "2020-07-30T23:24:00Z", "max_date": "2020-07-30T23:24:00Z", "count_points": 1, "latitude": 47.49741, "longitude": 33.49044, "city": "Vysokopillya", "images": []}, {"id": 460919, "min_date": "2020-07-30T23:24:00Z", "max_date": "2020-07-31T10:48:00Z", "count_points": 4, "latitude": 50.22545, "longitude": 34.99513, "city": "Okhtyrka", "images": []}, {"id": 460920, "min_date": "2020-07-30T23:24:00Z", "max_date": "2020-07-31T01:00:00Z", "count_points": 8, "latitude": 48.86916, "longitude": 36.49316, "city": "Blyznyuky", "images": []}, {"id": 460921, "min_date": "2020-07-30T23:24:00Z", "max_date": "2020-07-30T23:24:00Z", "count_points": 1, "latitude": 48.85894, "longitude": 32.37773, "city": "Yelyzavethradka", "images": []}, {"id": 460922, "min_date": "2020-07-30T23:24:00Z", "max_date": "2020-07-30T23:24:00Z", "count_points": 1, "latitude": 50.36373, "longitude": 35.89354, "city": "Zolochiv", "images": []}, {"id": 460923, "min_date": "2020-07-30T23:24:00Z", "max_date": "2020-07-31T10:48:00Z", "count_points": 5, "latitude": 47.78751, "longitude": 36.7457, "city": "Velyka Novosilka", "images": []}, {"id": 460924, "min_date": "2020-07-30T23:24:00Z", "max_date": "2020-07-30T23:24:00Z", "count_points": 3, "latitude": 48.43506, "longitude": 39.58455, "city": "Molodohvardiys\u2019k", "images": []}, {"id": 460925, "min_date": "2020-07-30T23:24:00Z", "max_date": "2020-07-30T23:24:00Z", "count_points": 1, "latitude": 47.5569, "longitude": 36.89943, "city": "Rozivka", "images": []}, {"id": 460926, "min_date": "2020-07-30T23:24:00Z", "max_date": "2020-07-30T23:24:00Z", "count_points": 1, "latitude": 48.08029, "longitude": 38.75969, "city": "Snizhne", "images": []}, {"id": 460927, "min_date": "2020-07-30T23:24:00Z", "max_date": "2020-07-30T23:24:00Z", "count_points": 3, "latitude": 47.14751, "longitude": 37.97365, "city": "Bezimenne", "images": []}, {"id": 460928, "min_date": "2020-07-30T23:24:00Z", "max_date": "2020-07-30T23:24:00Z", "count_points": 1, "latitude": 46.95435, "longitude": 37.12053, "city": "Urzuf", "images": []}, {"id": 460929, "min_date": "2020-07-30T23:24:00Z", "max_date": "2020-07-30T23:24:00Z", "count_points": 1, "latitude": 50.26686, "longitude": 33.13214, "city": "Lokhvytsya", "images": []}, {"id": 460930, "min_date": "2020-07-30T23:24:00Z", "max_date": "2020-07-30T23:24:00Z", "count_points": 1, "latitude": 48.01849, "longitude": 36.6777, "city": "Velyka Novosilka", "images": []}, {"id": 460931, "min_date": "2020-07-30T23:24:00Z", "max_date": "2020-08-01T22:42:00Z", "count_points": 8, "latitude": 49.69741, "longitude": 35.42069, "city": "Kolomak", "images": []}, {"id": 460932, "min_date": "2020-07-30T23:24:00Z", "max_date": "2020-07-30T23:24:00Z", "count_points": 1, "latitude": 48.68262, "longitude": 36.8069, "city": "Oleksandrivka", "images": []}, {"id": 460933, "min_date": "2020-07-30T23:24:00Z", "max_date": "2020-07-30T23:24:00Z", "count_points": 1, "latitude": 48.62098, "longitude": 36.29842, "city": "Petropavlivka", "images": []}, {"id": 460934, "min_date": "2020-07-30T23:24:00Z", "max_date": "2020-07-30T23:24:00Z", "count_points": 2, "latitude": 47.7523, "longitude": 36.73584, "city": "Velyka Novosilka", "images": []}, {"id": 460935, "min_date": "2020-07-30T23:24:00Z", "max_date": "2020-07-30T23:24:00Z", "count_points": 1, "latitude": 48.11975, "longitude": 39.49108, "city": "Klenovyy", "images": []}, {"id": 460936, "min_date": "2020-07-30T23:24:00Z", "max_date": "2020-07-31T01:00:00Z", "count_points": 7, "latitude": 50.29744, "longitude": 37.24162, "city": "Prykolotne", "images": []}, {"id": 460937, "min_date": "2020-07-30T23:24:00Z", "max_date": "2020-07-30T23:24:00Z", "count_points": 1, "latitude": 49.46101, "longitude": 30.54544, "city": "Tarashcha", "images": []}, {"id": 460938, "min_date": "2020-07-30T23:24:00Z", "max_date": "2020-07-30T23:24:00Z", "count_points": 2, "latitude": 47.562, "longitude": 37.32821, "city": "Blahodatne", "images": []}, {"id": 460939, "min_date": "2020-07-30T23:24:00Z", "max_date": "2020-07-30T23:24:00Z", "count_points": 1, "latitude": 48.30315, "longitude": 37.6891, "city": "Shcherbynivka", "images": []}, {"id": 460940, "min_date": "2020-07-30T23:24:00Z", "max_date": "2020-07-30T23:24:00Z", "count_points": 1, "latitude": 47.63901, "longitude": 37.58165, "city": "Volnovakha", "images": []}, {"id": 460941, "min_date": "2020-07-30T23:24:00Z", "max_date": "2020-07-31T09:12:00Z", "count_points": 3, "latitude": 48.48443, "longitude": 33.34973, "city": "Novyy Starodub", "images": []}, {"id": 460942, "min_date": "2020-07-30T23:24:00Z", "max_date": "2020-07-30T23:24:00Z", "count_points": 1, "latitude": 47.48532, "longitude": 37.65396, "city": "Volnovakha", "images": []}, {"id": 460943, "min_date": "2020-07-30T23:24:00Z", "max_date": "2020-07-30T23:24:00Z", "count_points": 1, "latitude": 47.40262, "longitude": 37.24273, "city": "Rozivka", "images": []}, {"id": 460944, "min_date": "2020-07-30T23:24:00Z", "max_date": "2020-07-30T23:24:00Z", "count_points": 1, "latitude": 47.79955, "longitude": 33.80495, "city": "Apostolove", "images": []}, {"id": 460945, "min_date": "2020-07-31T01:00:00Z", "max_date": "2020-07-31T01:00:00Z", "count_points": 1, "latitude": 47.57184, "longitude": 36.47689, "city": "Chapayevka", "images": []}, {"id": 460946, "min_date": "2020-07-31T01:00:00Z", "max_date": "2020-07-31T01:00:00Z", "count_points": 1, "latitude": 50.90429, "longitude": 30.96334, "city": "Oster", "images": []}, {"id": 460947, "min_date": "2020-07-31T01:00:00Z", "max_date": "2020-07-31T01:00:00Z", "count_points": 1, "latitude": 51.05969, "longitude": 31.84635, "city": "Nizhyn", "images": []}, {"id": 460948, "min_date": "2020-07-31T01:00:00Z", "max_date": "2020-07-31T01:00:00Z", "count_points": 1, "latitude": 48.74516, "longitude": 29.23227, "city": "Ladyzhyn", "images": []}, {"id": 460949, "min_date": "2020-07-31T01:00:00Z", "max_date": "2020-07-31T01:00:00Z", "count_points": 1, "latitude": 48.80322, "longitude": 30.0053, "city": "Verkhnyachka", "images": []}, {"id": 460950, "min_date": "2020-07-31T09:06:00Z", "max_date": "2020-07-31T09:06:00Z", "count_points": 2, "latitude": 48.0553, "longitude": 36.2779, "city": "Pokrovs\u2019ke", "images": []}, {"id": 460951, "min_date": "2020-07-31T09:06:00Z", "max_date": "2020-07-31T09:06:00Z", "count_points": 2, "latitude": 45.42245, "longitude": 36.58856, "city": "Glazovka", "images": []}, {"id": 460952, "min_date": "2020-07-31T09:06:00Z", "max_date": "2020-07-31T09:06:00Z", "count_points": 1, "latitude": 47.69794, "longitude": 35.24412, "city": "Kushuhum", "images": []}, {"id": 460953, "min_date": "2020-07-31T09:06:00Z", "max_date": "2020-07-31T09:06:00Z", "count_points": 1, "latitude": 49.60489, "longitude": 38.45145, "city": "Pavlivka", "images": []}, {"id": 460954, "min_date": "2020-07-31T09:06:00Z", "max_date": "2020-07-31T09:06:00Z", "count_points": 1, "latitude": 46.76453, "longitude": 36.04787, "city": "Prymors\u2019k", "images": []}, {"id": 460955, "min_date": "2020-07-31T09:06:00Z", "max_date": "2020-07-31T10:48:00Z", "count_points": 3, "latitude": 45.04007, "longitude": 35.17839, "city": "Pervomayskoye", "images": []}, {"id": 460956, "min_date": "2020-07-31T09:06:00Z", "max_date": "2020-07-31T09:06:00Z", "count_points": 1, "latitude": 49.76503, "longitude": 39.15253, "city": "Novopskov", "images": []}, {"id": 460957, "min_date": "2020-07-31T10:48:00Z", "max_date": "2020-07-31T10:48:00Z", "count_points": 1, "latitude": 47.39405, "longitude": 34.11442, "city": "Novovorontsovka", "images": []}, {"id": 460958, "min_date": "2020-07-31T10:48:00Z", "max_date": "2020-07-31T10:48:00Z", "count_points": 1, "latitude": 48.21382, "longitude": 37.38124, "city": "Selydove", "images": []}, {"id": 460959, "min_date": "2020-07-31T10:48:00Z", "max_date": "2020-07-31T10:48:00Z", "count_points": 5, "latitude": 47.31646, "longitude": 35.79652, "city": "Tokmak", "images": []}, {"id": 460960, "min_date": "2020-07-31T10:48:00Z", "max_date": "2020-07-31T10:48:00Z", "count_points": 1, "latitude": 45.59485, "longitude": 29.58769, "city": "Vylkove", "images": []}, {"id": 460961, "min_date": "2020-07-31T10:48:00Z", "max_date": "2020-07-31T10:48:00Z", "count_points": 1, "latitude": 51.03995, "longitude": 33.92691, "city": "Terny", "images": []}, {"id": 460962, "min_date": "2020-07-31T10:48:00Z", "max_date": "2020-07-31T10:48:00Z", "count_points": 1, "latitude": 47.04887, "longitude": 33.92749, "city": "Velyka Lepetykha", "images": []}, {"id": 460963, "min_date": "2020-07-31T10:48:00Z", "max_date": "2020-07-31T10:48:00Z", "count_points": 2, "latitude": 46.66838, "longitude": 35.43015, "city": "Kostyantynivka", "images": []}, {"id": 460964, "min_date": "2020-07-31T10:48:00Z", "max_date": "2020-07-31T10:48:00Z", "count_points": 1, "latitude": 47.2212, "longitude": 34.43909, "city": "Verkhniy Rohachyk", "images": []}, {"id": 460965, "min_date": "2020-07-31T10:48:00Z", "max_date": "2020-07-31T10:48:00Z", "count_points": 1, "latitude": 50.9269, "longitude": 31.97984, "city": "Talalayivka", "images": []}, {"id": 460966, "min_date": "2020-07-31T10:48:00Z", "max_date": "2020-07-31T10:48:00Z", "count_points": 1, "latitude": 47.8894, "longitude": 36.69315, "city": "Velyka Novosilka", "images": []}, {"id": 460967, "min_date": "2020-07-31T10:48:00Z", "max_date": "2020-07-31T10:48:00Z", "count_points": 1, "latitude": 44.59307, "longitude": 33.60885, "city": "Inkerman", "images": []}, {"id": 460968, "min_date": "2020-07-31T10:48:00Z", "max_date": "2020-07-31T10:48:00Z", "count_points": 1, "latitude": 47.95013, "longitude": 37.28728, "city": "Kurakhovo", "images": []}, {"id": 460969, "min_date": "2020-07-31T10:48:00Z", "max_date": "2020-07-31T10:48:00Z", "count_points": 1, "latitude": 50.79938, "longitude": 33.97554, "city": "Nedryhayliv", "images": []}, {"id": 460970, "min_date": "2020-07-31T10:48:00Z", "max_date": "2020-07-31T10:48:00Z", "count_points": 1, "latitude": 47.32751, "longitude": 34.24514, "city": "Verkhniy Rohachyk", "images": []}, {"id": 460971, "min_date": "2020-07-31T10:48:00Z", "max_date": "2020-07-31T10:48:00Z", "count_points": 1, "latitude": 47.89215, "longitude": 39.76514, "city": "Biryukove", "images": []}, {"id": 460972, "min_date": "2020-07-31T10:48:00Z", "max_date": "2020-07-31T10:48:00Z", "count_points": 1, "latitude": 48.27312, "longitude": 33.85509, "city": "Vyshneve", "images": []}, {"id": 460973, "min_date": "2020-07-31T10:48:00Z", "max_date": "2020-07-31T10:48:00Z", "count_points": 1, "latitude": 47.34468, "longitude": 35.12156, "city": "Mykhaylivka", "images": []}, {"id": 460974, "min_date": "2020-07-31T10:48:00Z", "max_date": "2020-07-31T10:48:00Z", "count_points": 1, "latitude": 47.61163, "longitude": 37.30154, "city": "Blahodatne", "images": []}, {"id": 460975, "min_date": "2020-07-31T10:48:00Z", "max_date": "2020-07-31T10:48:00Z", "count_points": 1, "latitude": 48.23354, "longitude": 34.20314, "city": "Krynychky", "images": []}, {"id": 460976, "min_date": "2020-07-31T10:48:00Z", "max_date": "2020-07-31T10:48:00Z", "count_points": 2, "latitude": 46.94875, "longitude": 36.95857, "city": "Osypenko", "images": []}, {"id": 460977, "min_date": "2020-07-31T10:48:00Z", "max_date": "2020-07-31T10:48:00Z", "count_points": 1, "latitude": 47.14939, "longitude": 34.30001, "city": "Verkhniy Rohachyk", "images": []}, {"id": 460978, "min_date": "2020-07-31T10:48:00Z", "max_date": "2020-07-31T10:48:00Z", "count_points": 1, "latitude": 49.82942, "longitude": 34.34748, "city": "Dykan\u2019ka", "images": []}, {"id": 460979, "min_date": "2020-07-31T10:48:00Z", "max_date": "2020-07-31T10:48:00Z", "count_points": 1, "latitude": 47.27452, "longitude": 34.85023, "city": "Mala Bilozerka", "images": []}, {"id": 460980, "min_date": "2020-07-31T10:48:00Z", "max_date": "2020-07-31T10:48:00Z", "count_points": 1, "latitude": 47.12329, "longitude": 35.85342, "city": "Tokmak", "images": []}, {"id": 460981, "min_date": "2020-07-31T23:00:00Z", "max_date": "2020-07-31T23:00:00Z", "count_points": 1, "latitude": 49.96927, "longitude": 35.26012, "city": "Kolomak", "images": []}, {"id": 460982, "min_date": "2020-07-31T23:00:00Z", "max_date": "2020-08-01T00:42:00Z", "count_points": 4, "latitude": 50.48775, "longitude": 34.73833, "city": "Trostyanets\u2019", "images": []}, {"id": 460983, "min_date": "2020-07-31T23:00:00Z", "max_date": "2020-07-31T23:00:00Z", "count_points": 1, "latitude": 50.97492, "longitude": 34.39979, "city": "Bilopillya", "images": []}, {"id": 460984, "min_date": "2020-07-31T23:06:00Z", "max_date": "2020-08-02T10:12:00Z", "count_points": 5, "latitude": 48.07863, "longitude": 32.49171, "city": "Ustynivka", "images": []}, {"id": 460985, "min_date": "2020-07-31T23:06:00Z", "max_date": "2020-07-31T23:06:00Z", "count_points": 1, "latitude": 48.49688, "longitude": 33.72194, "city": "Piatykhatky", "images": []}, {"id": 460986, "min_date": "2020-08-01T00:42:00Z", "max_date": "2020-08-01T00:42:00Z", "count_points": 1, "latitude": 49.18034, "longitude": 33.45931, "city": "Kremenchuk", "images": []}, {"id": 460987, "min_date": "2020-08-01T00:42:00Z", "max_date": "2020-08-01T00:42:00Z", "count_points": 1, "latitude": 50.42618, "longitude": 33.59076, "city": "Lypova Dolyna", "images": []}, {"id": 460988, "min_date": "2020-08-01T00:42:00Z", "max_date": "2020-08-02T00:24:00Z", "count_points": 2, "latitude": 48.50019, "longitude": 32.99895, "city": "Oleksandriys\u2019ke", "images": []}, {"id": 460989, "min_date": "2020-08-01T00:42:00Z", "max_date": "2020-08-01T00:42:00Z", "count_points": 1, "latitude": 48.18494, "longitude": 30.69767, "city": "Pobugskoye", "images": []}, {"id": 460990, "min_date": "2020-08-01T00:42:00Z", "max_date": "2020-08-01T00:42:00Z", "count_points": 1, "latitude": 48.17204, "longitude": 25.34989, "city": "Berehomet", "images": []}, {"id": 460991, "min_date": "2020-08-01T08:48:00Z", "max_date": "2020-08-01T10:30:00Z", "count_points": 8, "latitude": 48.87035, "longitude": 35.21998, "city": "Hubynykha", "images": []}, {"id": 460992, "min_date": "2020-08-01T10:30:00Z", "max_date": "2020-08-01T10:30:00Z", "count_points": 1, "latitude": 45.29997, "longitude": 34.27619, "city": "Pyatikhatka", "images": []}, {"id": 460993, "min_date": "2020-08-01T10:30:00Z", "max_date": "2020-08-01T10:30:00Z", "count_points": 1, "latitude": 47.55787, "longitude": 36.21313, "city": "Polohy", "images": []}, {"id": 460994, "min_date": "2020-08-01T10:30:00Z", "max_date": "2020-08-01T10:30:00Z", "count_points": 2, "latitude": 50.02697, "longitude": 37.74928, "city": "Dvorichna", "images": []}, {"id": 460995, "min_date": "2020-08-01T10:30:00Z", "max_date": "2020-08-01T10:30:00Z", "count_points": 1, "latitude": 47.67223, "longitude": 35.62162, "city": "Kirove", "images": []}, {"id": 460996, "min_date": "2020-08-01T10:30:00Z", "max_date": "2020-08-01T10:30:00Z", "count_points": 1, "latitude": 47.40942, "longitude": 33.67996, "city": "Vysokopillya", "images": []}, {"id": 460997, "min_date": "2020-08-01T10:30:00Z", "max_date": "2020-08-01T10:30:00Z", "count_points": 1, "latitude": 48.38435, "longitude": 32.70069, "city": "Novhorodka", "images": []}, {"id": 460998, "min_date": "2020-08-01T12:12:00Z", "max_date": "2020-08-01T12:12:00Z", "count_points": 3, "latitude": 48.54002, "longitude": 26.71755, "city": "Kel\u2019mentsi", "images": []}, {"id": 460999, "min_date": "2020-08-01T22:42:00Z", "max_date": "2020-08-02T00:24:00Z", "count_points": 2, "latitude": 47.00237, "longitude": 34.50461, "city": "Nyzhni Sirohozy", "images": []}, {"id": 461000, "min_date": "2020-08-01T22:42:00Z", "max_date": "2020-08-02T10:12:00Z", "count_points": 6, "latitude": 48.58833, "longitude": 36.35057, "city": "Petropavlivka", "images": []}, {"id": 461001, "min_date": "2020-08-01T22:42:00Z", "max_date": "2020-08-01T22:42:00Z", "count_points": 2, "latitude": 47.8545, "longitude": 35.44999, "city": "Vil\u2019nyans\u2019k", "images": []}, {"id": 461002, "min_date": "2020-08-01T22:42:00Z", "max_date": "2020-08-02T10:12:00Z", "count_points": 2, "latitude": 47.80513, "longitude": 35.45472, "city": "Komyshuvakha", "images": []}, {"id": 461003, "min_date": "2020-08-01T22:42:00Z", "max_date": "2020-08-02T00:24:00Z", "count_points": 2, "latitude": 48.33804, "longitude": 34.02937, "city": "Vyshneve", "images": []}, {"id": 461004, "min_date": "2020-08-01T22:42:00Z", "max_date": "2020-08-01T22:42:00Z", "count_points": 1, "latitude": 50.23018, "longitude": 33.3989, "city": "Sencha", "images": []}, {"id": 461005, "min_date": "2020-08-02T00:24:00Z", "max_date": "2020-08-02T00:24:00Z", "count_points": 1, "latitude": 46.70634, "longitude": 34.74708, "city": "Ivanivka", "images": []}, {"id": 461006, "min_date": "2020-08-02T00:24:00Z", "max_date": "2020-08-02T00:24:00Z", "count_points": 1, "latitude": 48.50722, "longitude": 35.5878, "city": "Synel\u2019nykove", "images": []}, {"id": 461007, "min_date": "2020-08-02T00:24:00Z", "max_date": "2020-08-02T00:24:00Z", "count_points": 1, "latitude": 48.93874, "longitude": 31.51549, "city": "Lebedyn", "images": []}, {"id": 461008, "min_date": "2020-08-02T00:24:00Z", "max_date": "2020-08-02T00:24:00Z", "count_points": 1, "latitude": 50.22063, "longitude": 35.09169, "city": "Kyrykivka", "images": []}, {"id": 461009, "min_date": "2020-08-02T00:24:00Z", "max_date": "2020-08-02T00:24:00Z", "count_points": 2, "latitude": 50.89602, "longitude": 26.14198, "city": "Orzhiv", "images": []}, {"id": 461010, "min_date": "2020-08-02T10:12:00Z", "max_date": "2020-08-02T10:12:00Z", "count_points": 3, "latitude": 47.85131, "longitude": 36.00552, "city": "Ternuvate", "images": []}, {"id": 461011, "min_date": "2020-08-02T10:12:00Z", "max_date": "2020-08-02T10:12:00Z", "count_points": 4, "latitude": 47.66629, "longitude": 34.79293, "city": "Vil\u2019ne", "images": []}, {"id": 461012, "min_date": "2020-08-02T10:12:00Z", "max_date": "2020-08-02T10:12:00Z", "count_points": 1, "latitude": 49.21275, "longitude": 38.24868, "city": "Kreminna", "images": []}, {"id": 461013, "min_date": "2020-08-02T10:12:00Z", "max_date": "2020-08-02T10:12:00Z", "count_points": 1, "latitude": 48.52742, "longitude": 35.09327, "city": "Pidhorodne", "images": []}, {"id": 461014, "min_date": "2020-08-02T10:12:00Z", "max_date": "2020-08-02T10:12:00Z", "count_points": 1, "latitude": 48.24417, "longitude": 36.15443, "city": "Vasyl\u2019kivka", "images": []}, {"id": 461015, "min_date": "2020-08-02T10:12:00Z", "max_date": "2020-08-02T10:12:00Z", "count_points": 3, "latitude": 48.79844, "longitude": 35.36585, "city": "Hubynykha", "images": []}, {"id": 461016, "min_date": "2020-08-02T10:12:00Z", "max_date": "2020-08-02T10:12:00Z", "count_points": 1, "latitude": 48.93836, "longitude": 34.92336, "city": "Mahdalynivka", "images": []}, {"id": 461017, "min_date": "2020-08-02T10:12:00Z", "max_date": "2020-08-02T10:12:00Z", "count_points": 4, "latitude": 49.54296, "longitude": 36.1183, "city": "Pervomays\u2019kyy", "images": []}, {"id": 461018, "min_date": "2020-08-02T10:12:00Z", "max_date": "2020-08-02T10:12:00Z", "count_points": 1, "latitude": 47.56976, "longitude": 31.51706, "city": "Voznesensk", "images": []}, {"id": 461019, "min_date": "2020-08-02T10:12:00Z", "max_date": "2020-08-02T10:12:00Z", "count_points": 1, "latitude": 47.99116, "longitude": 29.07818, "city": "Kodyma", "images": []}, {"id": 461020, "min_date": "2020-08-02T10:12:00Z", "max_date": "2020-08-02T10:12:00Z", "count_points": 2, "latitude": 46.86305, "longitude": 35.9786, "city": "Rozivka", "images": []}, {"id": 461021, "min_date": "2020-08-02T10:12:00Z", "max_date": "2020-08-02T10:12:00Z", "count_points": 4, "latitude": 47.20487, "longitude": 34.51081, "city": "Verkhniy Rohachyk", "images": []}, {"id": 461022, "min_date": "2020-08-02T10:12:00Z", "max_date": "2020-08-02T22:24:00Z", "count_points": 3, "latitude": 48.07069, "longitude": 35.4628, "city": "Vil\u2019nyans\u2019k", "images": []}, {"id": 461023, "min_date": "2020-08-02T10:12:00Z", "max_date": "2020-08-02T10:12:00Z", "count_points": 2, "latitude": 46.35914, "longitude": 34.38056, "city": "Novotroyits\u2019ke", "images": []}, {"id": 461024, "min_date": "2020-08-02T10:12:00Z", "max_date": "2020-08-02T10:12:00Z", "count_points": 2, "latitude": 48.51915, "longitude": 36.30653, "city": "Petropavlivka", "images": []}, {"id": 461025, "min_date": "2020-08-02T10:12:00Z", "max_date": "2020-08-02T10:12:00Z", "count_points": 2, "latitude": 47.67283, "longitude": 35.77833, "city": "Kirove", "images": []}, {"id": 461026, "min_date": "2020-08-02T10:12:00Z", "max_date": "2020-08-02T10:12:00Z", "count_points": 2, "latitude": 47.28399, "longitude": 37.99819, "city": "Tel\u2019manove", "images": []}, {"id": 461027, "min_date": "2020-08-02T10:12:00Z", "max_date": "2020-08-02T10:12:00Z", "count_points": 1, "latitude": 47.7401, "longitude": 36.07429, "city": "Ternuvate", "images": []}, {"id": 461028, "min_date": "2020-08-02T10:12:00Z", "max_date": "2020-08-02T10:12:00Z", "count_points": 2, "latitude": 46.92539, "longitude": 32.69333, "city": "Oleksandrivka", "images": []}, {"id": 461029, "min_date": "2020-08-02T10:12:00Z", "max_date": "2020-08-02T10:12:00Z", "count_points": 2, "latitude": 47.39138, "longitude": 31.53536, "city": "Voznesensk", "images": []}, {"id": 461030, "min_date": "2020-08-02T10:12:00Z", "max_date": "2020-08-02T10:12:00Z", "count_points": 1, "latitude": 48.38341, "longitude": 29.25249, "city": "Obodivka", "images": []}, {"id": 461031, "min_date": "2020-08-02T10:12:00Z", "max_date": "2020-08-02T10:12:00Z", "count_points": 1, "latitude": 46.73334, "longitude": 34.96118, "city": "Yakymivka", "images": []}, {"id": 461032, "min_date": "2020-08-02T10:12:00Z", "max_date": "2020-08-02T10:12:00Z", "count_points": 1, "latitude": 48.01029, "longitude": 38.24936, "city": "Zuhres", "images": []}, {"id": 461033, "min_date": "2020-08-02T10:12:00Z", "max_date": "2020-08-02T10:12:00Z", "count_points": 1, "latitude": 47.73062, "longitude": 29.89212, "city": "Ananyiv Pershyi", "images": []}, {"id": 461034, "min_date": "2020-08-02T10:12:00Z", "max_date": "2020-08-02T10:12:00Z", "count_points": 3, "latitude": 49.32994, "longitude": 34.22403, "city": "Novi Sanzhary", "images": []}, {"id": 461035, "min_date": "2020-08-02T10:12:00Z", "max_date": "2020-08-02T10:12:00Z", "count_points": 1, "latitude": 47.33825, "longitude": 34.47411, "city": "Vodyane", "images": []}, {"id": 461036, "min_date": "2020-08-02T10:12:00Z", "max_date": "2020-08-02T10:12:00Z", "count_points": 2, "latitude": 47.69615, "longitude": 36.77132, "city": "Velyka Novosilka", "images": []}, {"id": 461037, "min_date": "2020-08-02T10:12:00Z", "max_date": "2020-08-02T10:12:00Z", "count_points": 1, "latitude": 50.1469, "longitude": 35.09864, "city": "Krasnokuts\u2019k", "images": []}, {"id": 461038, "min_date": "2020-08-02T10:12:00Z", "max_date": "2020-08-02T10:12:00Z", "count_points": 2, "latitude": 48.09141, "longitude": 31.25899, "city": "Lysa Hora", "images": []}, {"id": 461039, "min_date": "2020-08-02T10:12:00Z", "max_date": "2020-08-02T10:12:00Z", "count_points": 1, "latitude": 48.24926, "longitude": 35.42939, "city": "Synel\u2019nykove", "images": []}, {"id": 461040, "min_date": "2020-08-02T11:54:00Z", "max_date": "2020-08-02T11:54:00Z", "count_points": 1, "latitude": 48.69114, "longitude": 28.27014, "city": "Sharhorod", "images": []}, {"id": 461041, "min_date": "2020-08-02T11:54:00Z", "max_date": "2020-08-02T11:54:00Z", "count_points": 1, "latitude": 49.33653, "longitude": 26.05501, "city": "Hrymayliv", "images": []}, {"id": 461042, "min_date": "2020-08-02T11:54:00Z", "max_date": "2020-08-02T11:54:00Z", "count_points": 1, "latitude": 49.02289, "longitude": 26.05259, "city": "Husiatyn", "images": []}, {"id": 461043, "min_date": "2020-08-02T11:54:00Z", "max_date": "2020-08-02T11:54:00Z", "count_points": 1, "latitude": 50.35596, "longitude": 27.14847, "city": "Shepetivka", "images": []}, {"id": 461044, "min_date": "2020-08-02T22:24:00Z", "max_date": "2020-08-02T22:24:00Z", "count_points": 2, "latitude": 49.02274, "longitude": 38.77789, "city": "Novoaydar", "images": []}, {"id": 461045, "min_date": "2020-08-02T22:24:00Z", "max_date": "2020-08-02T22:24:00Z", "count_points": 2, "latitude": 48.30666, "longitude": 37.43425, "city": "Myrnohrad", "images": []}, {"id": 460266, "min_date": "2020-07-27T08:47:00Z", "max_date": "2020-07-27T10:24:00Z", "count_points": 8, "latitude": 50.38355, "longitude": 37.3876, "city": "Prykolotne", "images": []}, {"id": 460267, "min_date": "2020-07-27T08:48:00Z", "max_date": "2020-07-27T08:48:00Z", "count_points": 1, "latitude": 49.451, "longitude": 38.4793, "city": "Bilokurakyne", "images": []}, {"id": 460268, "min_date": "2020-07-27T08:48:00Z", "max_date": "2020-07-29T09:48:00Z", "count_points": 6, "latitude": 49.67199, "longitude": 35.21715, "city": "Chutove", "images": []}, {"id": 460269, "min_date": "2020-07-27T08:48:00Z", "max_date": "2020-07-27T08:48:00Z", "count_points": 1, "latitude": 48.9581, "longitude": 31.2526, "city": "Shpola", "images": []}, {"id": 460270, "min_date": "2020-07-27T08:48:00Z", "max_date": "2020-07-27T08:48:00Z", "count_points": 1, "latitude": 49.4336, "longitude": 37.8425, "city": "Borova", "images": []}, {"id": 460271, "min_date": "2020-07-27T08:48:00Z", "max_date": "2020-07-27T08:48:00Z", "count_points": 1, "latitude": 50.0307, "longitude": 35.3247, "city": "Huty", "images": []}, {"id": 460272, "min_date": "2020-07-27T08:48:00Z", "max_date": "2020-07-27T00:36:00Z", "count_points": 3, "latitude": 49.48184, "longitude": 38.45389, "city": "Bilokurakyne", "images": []}, {"id": 460273, "min_date": "2020-07-27T10:32:00Z", "max_date": "2020-07-27T10:24:00Z", "count_points": 3, "latitude": 47.26141, "longitude": 38.27869, "city": "Syedove", "images": []}, {"id": 460274, "min_date": "2020-07-27T10:33:00Z", "max_date": "2020-07-27T12:06:00Z", "count_points": 15, "latitude": 49.22441, "longitude": 28.04889, "city": "Lityn", "images": []}, {"id": 460275, "min_date": "2020-07-27T10:33:00Z", "max_date": "2020-07-30T23:24:00Z", "count_points": 72, "latitude": 48.49583, "longitude": 38.23647, "city": "Svetlodarsk", "images": []}, {"id": 460276, "min_date": "2020-07-27T10:33:00Z", "max_date": "2020-07-27T10:33:00Z", "count_points": 1, "latitude": 48.9215, "longitude": 34.9487, "city": "Mahdalynivka", "images": []}, {"id": 460277, "min_date": "2020-07-27T10:33:00Z", "max_date": "2020-07-27T12:06:00Z", "count_points": 6, "latitude": 48.18619, "longitude": 29.06274, "city": "Kodyma", "images": []}, {"id": 460278, "min_date": "2020-07-27T10:33:00Z", "max_date": "2020-07-27T10:33:00Z", "count_points": 2, "latitude": 48.69845, "longitude": 31.54585, "city": "Mala Vyska", "images": []}, {"id": 460279, "min_date": "2020-07-27T10:33:00Z", "max_date": "2020-07-27T10:24:00Z", "count_points": 3, "latitude": 49.84582, "longitude": 36.76606, "city": "Kochetok", "images": []}, {"id": 460280, "min_date": "2020-07-27T10:33:00Z", "max_date": "2020-07-27T22:36:00Z", "count_points": 6, "latitude": 49.98243, "longitude": 37.66561, "city": "Dvorichna", "images": []}, {"id": 460281, "min_date": "2020-07-27T18:20:00Z", "max_date": "2020-07-28T00:18:00Z", "count_points": 12, "latitude": 50.26392, "longitude": 37.0715, "city": "Vovchans\u2019k", "images": []}, {"id": 460282, "min_date": "2020-07-27T19:57:00Z", "max_date": "2020-07-29T23:42:00Z", "count_points": 27, "latitude": 48.2975, "longitude": 37.8109, "city": "Shcherbynivka", "images": []}, {"id": 460283, "min_date": "2020-07-27T19:58:00Z", "max_date": "2020-07-27T19:58:00Z", "count_points": 3, "latitude": 49.11953, "longitude": 37.64043, "city": "Svyatogorsk", "images": []}, {"id": 460284, "min_date": "2020-07-27T19:58:00Z", "max_date": "2020-07-29T09:48:00Z", "count_points": 14, "latitude": 50.1989, "longitude": 37.314, "city": "Prykolotne", "images": []}, {"id": 460285, "min_date": "2020-07-27T19:58:00Z", "max_date": "2020-07-27T19:58:00Z", "count_points": 1, "latitude": 48.5574, "longitude": 28.3637, "city": "Tomashpil\u2019", "images": []}, {"id": 460286, "min_date": "2020-07-27T19:58:00Z", "max_date": "2020-07-27T19:58:00Z", "count_points": 1, "latitude": 48.4861, "longitude": 29.4235, "city": "Viytivka", "images": []}, {"id": 460287, "min_date": "2020-07-27T19:58:00Z", "max_date": "2020-07-27T19:58:00Z", "count_points": 1, "latitude": 49.0962, "longitude": 37.6727, "city": "Svyatogorsk", "images": []}, {"id": 460288, "min_date": "2020-07-27T19:58:00Z", "max_date": "2020-07-27T12:06:00Z", "count_points": 3, "latitude": 47.90275, "longitude": 29.81351, "city": "Balta", "images": []}, {"id": 460289, "min_date": "2020-07-27T19:58:00Z", "max_date": "2020-07-27T19:58:00Z", "count_points": 2, "latitude": 48.64195, "longitude": 37.0764, "city": "Novodonets\u2019ke", "images": []}, {"id": 460290, "min_date": "2020-07-28T09:30:00Z", "max_date": "2020-07-28T09:30:00Z", "count_points": 3, "latitude": 51.85117, "longitude": 25.84827, "city": "Kuznetsovs\u2019k", "images": []}, {"id": 460291, "min_date": "2020-07-28T09:31:00Z", "max_date": "2020-07-28T09:31:00Z", "count_points": 1, "latitude": 49.2782, "longitude": 24.1413, "city": "Zhydachiv", "images": []}, {"id": 460292, "min_date": "2020-07-28T09:31:00Z", "max_date": "2020-07-28T09:31:00Z", "count_points": 1, "latitude": 49.79, "longitude": 29.086, "city": "Chornorudka", "images": []}, {"id": 460293, "min_date": "2020-07-28T09:31:00Z", "max_date": "2020-07-28T09:31:00Z", "count_points": 1, "latitude": 49.5193, "longitude": 30.2554, "city": "Stavyshche", "images": []}, {"id": 460294, "min_date": "2020-07-28T09:31:00Z", "max_date": "2020-07-28T11:48:00Z", "count_points": 3, "latitude": 48.76288, "longitude": 28.03855, "city": "Sharhorod", "images": []}, {"id": 460295, "min_date": "2020-07-28T09:31:00Z", "max_date": "2020-07-28T10:06:00Z", "count_points": 3, "latitude": 48.16793, "longitude": 30.19466, "city": "Savran", "images": []}, {"id": 460296, "min_date": "2020-07-28T11:15:00Z", "max_date": "2020-07-28T11:48:00Z", "count_points": 4, "latitude": 47.81659, "longitude": 30.35626, "city": "Lyubashivka", "images": []}, {"id": 460297, "min_date": "2020-07-28T11:15:00Z", "max_date": "2020-07-29T09:48:00Z", "count_points": 7, "latitude": 47.69644, "longitude": 36.04984, "city": "Zaliznychne", "images": []}, {"id": 460298, "min_date": "2020-07-28T11:16:00Z", "max_date": "2020-07-28T11:16:00Z", "count_points": 1, "latitude": 50.4198, "longitude": 28.9417, "city": "Holovyne", "images": []}, {"id": 460299, "min_date": "2020-07-28T11:16:00Z", "max_date": "2020-07-28T11:16:00Z", "count_points": 1, "latitude": 48.535, "longitude": 28.1632, "city": "Chernivtsi", "images": []}, {"id": 460300, "min_date": "2020-07-28T11:16:00Z", "max_date": "2020-07-28T11:16:00Z", "count_points": 1, "latitude": 48.48, "longitude": 28.1034, "city": "Chernivtsi", "images": []}, {"id": 460301, "min_date": "2020-07-28T11:16:00Z", "max_date": "2020-07-28T11:16:00Z", "count_points": 1, "latitude": 48.5809, "longitude": 29.7117, "city": "Teplyk", "images": []}, {"id": 460302, "min_date": "2020-07-28T19:02:00Z", "max_date": "2020-07-28T19:02:00Z", "count_points": 2, "latitude": 48.3498, "longitude": 35.3895, "city": "Synel\u2019nykove", "images": []}, {"id": 460303, "min_date": "2020-07-28T19:03:00Z", "max_date": "2020-07-29T00:00:00Z", "count_points": 7, "latitude": 48.40941, "longitude": 32.74917, "city": "Novhorodka", "images": []}, {"id": 460304, "min_date": "2020-07-28T19:03:00Z", "max_date": "2020-07-30T23:24:00Z", "count_points": 20, "latitude": 48.87067, "longitude": 36.43076, "city": "Lozova", "images": []}, {"id": 460305, "min_date": "2020-07-28T19:03:00Z", "max_date": "2020-07-28T19:03:00Z", "count_points": 1, "latitude": 49.0277, "longitude": 37.3795, "city": "Studenok", "images": []}, {"id": 460306, "min_date": "2020-07-28T19:03:00Z", "max_date": "2020-07-29T09:48:00Z", "count_points": 5, "latitude": 48.43066, "longitude": 34.77462, "city": "Surs\u2019ko-Mykhaylivka", "images": []}, {"id": 460307, "min_date": "2020-07-28T19:03:00Z", "max_date": "2020-07-29T00:00:00Z", "count_points": 3, "latitude": 49.33783, "longitude": 30.16534, "city": "Roskoshnyy", "images": []}, {"id": 460308, "min_date": "2020-07-28T19:03:00Z", "max_date": "2020-07-28T19:03:00Z", "count_points": 1, "latitude": 47.9472, "longitude": 29.4063, "city": "Slobidka", "images": []}, {"id": 460309, "min_date": "2020-07-28T19:03:00Z", "max_date": "2020-07-29T00:00:00Z", "count_points": 9, "latitude": 49.15431, "longitude": 35.54739, "city": "Kehychivka", "images": []}, {"id": 460310, "min_date": "2020-07-28T23:11:00Z", "max_date": "2020-07-29T09:48:00Z", "count_points": 8, "latitude": 49.02828, "longitude": 37.06413, "city": "Barvinkove", "images": []}, {"id": 460311, "min_date": "2020-07-28T23:11:00Z", "max_date": "2020-07-29T23:42:00Z", "count_points": 5, "latitude": 49.04072, "longitude": 37.81993, "city": "Krasnyy Lyman", "images": []}, {"id": 460312, "min_date": "2020-07-29T08:35:00Z", "max_date": "2020-07-29T08:35:00Z", "count_points": 1, "latitude": 50.4287, "longitude": 32.518, "city": "Zhuravka", "images": []}, {"id": 460313, "min_date": "2020-07-29T08:35:00Z", "max_date": "2020-07-29T09:48:00Z", "count_points": 2, "latitude": 50.67836, "longitude": 33.14145, "city": "Talalayivka", "images": []}, {"id": 460314, "min_date": "2020-07-29T08:35:00Z", "max_date": "2020-07-29T08:35:00Z", "count_points": 1, "latitude": 50.9846, "longitude": 33.2529, "city": "Talalayivka", "images": []}, {"id": 460315, "min_date": "2020-07-29T08:35:00Z", "max_date": "2020-07-29T08:35:00Z", "count_points": 1, "latitude": 51.0045, "longitude": 33.1588, "city": "Talalayivka", "images": []}, {"id": 460316, "min_date": "2020-07-29T08:35:00Z", "max_date": "2020-07-29T08:35:00Z", "count_points": 1, "latitude": 50.5816, "longitude": 32.9945, "city": "Sribne", "images": []}, {"id": 460317, "min_date": "2020-07-29T08:36:00Z", "max_date": "2020-07-30T23:24:00Z", "count_points": 159, "latitude": 48.71701, "longitude": 38.20691, "city": "Popasna", "images": []}, {"id": 460318, "min_date": "2020-07-29T08:36:00Z", "max_date": "2020-07-29T11:30:00Z", "count_points": 16, "latitude": 48.93056, "longitude": 36.55716, "city": "Blyznyuky", "images": []}, {"id": 460319, "min_date": "2020-07-29T08:36:00Z", "max_date": "2020-07-29T23:42:00Z", "count_points": 9, "latitude": 48.85405, "longitude": 36.99115, "city": "Barvinkove", "images": []}, {"id": 460320, "min_date": "2020-07-29T08:36:00Z", "max_date": "2020-07-29T08:36:00Z", "count_points": 1, "latitude": 48.4747, "longitude": 39.2537, "city": "Rozkishne", "images": []}, {"id": 460321, "min_date": "2020-07-29T08:36:00Z", "max_date": "2020-07-29T09:48:00Z", "count_points": 8, "latitude": 49.04662, "longitude": 35.06355, "city": "Mahdalynivka", "images": []}, {"id": 460322, "min_date": "2020-07-29T08:36:00Z", "max_date": "2020-07-29T23:42:00Z", "count_points": 7, "latitude": 48.78922, "longitude": 36.9346, "city": "Oleksandrivka", "images": []}, {"id": 460323, "min_date": "2020-07-29T08:36:00Z", "max_date": "2020-07-29T09:48:00Z", "count_points": 4, "latitude": 48.88195, "longitude": 35.45863, "city": "Hubynykha", "images": []}, {"id": 460324, "min_date": "2020-07-29T08:36:00Z", "max_date": "2020-07-29T08:36:00Z", "count_points": 1, "latitude": 49.3636, "longitude": 30.3962, "city": "Kalynove", "images": []}, {"id": 460325, "min_date": "2020-07-29T08:36:00Z", "max_date": "2020-07-29T09:48:00Z", "count_points": 2, "latitude": 48.62488, "longitude": 36.87398, "city": "Oleksandrivka", "images": []}, {"id": 460326, "min_date": "2020-07-29T08:36:00Z", "max_date": "2020-07-29T23:42:00Z", "count_points": 11, "latitude": 48.63173, "longitude": 36.69619, "city": "Oleksandrivka", "images": []}, {"id": 460327, "min_date": "2020-07-29T08:36:00Z", "max_date": "2020-07-29T23:42:00Z", "count_points": 3, "latitude": 48.58627, "longitude": 36.75624, "city": "Oleksandrivka", "images": []}, {"id": 460328, "min_date": "2020-07-29T08:36:00Z", "max_date": "2020-07-29T11:24:00Z", "count_points": 11, "latitude": 48.50779, "longitude": 37.13092, "city": "Dobropillya", "images": []}, {"id": 460329, "min_date": "2020-07-29T08:36:00Z", "max_date": "2020-07-30T11:06:00Z", "count_points": 12, "latitude": 48.51664, "longitude": 36.51474, "city": "Petropavlivka", "images": []}, {"id": 460330, "min_date": "2020-07-29T08:36:00Z", "max_date": "2020-07-29T09:48:00Z", "count_points": 3, "latitude": 48.1275, "longitude": 39.17223, "city": "Millerovo", "images": []}, {"id": 460331, "min_date": "2020-07-29T08:36:00Z", "max_date": "2020-07-29T09:48:00Z", "count_points": 2, "latitude": 47.89372, "longitude": 39.69024, "city": "Biryukove", "images": []}, {"id": 460332, "min_date": "2020-07-29T08:36:00Z", "max_date": "2020-07-29T09:48:00Z", "count_points": 8, "latitude": 48.19352, "longitude": 37.22616, "city": "Selydove", "images": []}, {"id": 460333, "min_date": "2020-07-29T08:36:00Z", "max_date": "2020-07-29T11:24:00Z", "count_points": 9, "latitude": 48.21367, "longitude": 36.80524, "city": "Mezhova", "images": []}, {"id": 460335, "min_date": "2020-07-29T08:36:00Z", "max_date": "2020-07-29T09:48:00Z", "count_points": 3, "latitude": 48.38346, "longitude": 34.37129, "city": "Krynychky", "images": []}, {"id": 460336, "min_date": "2020-07-29T08:36:00Z", "max_date": "2020-07-29T08:36:00Z", "count_points": 1, "latitude": 47.9586, "longitude": 34.6156, "city": "Novopokrovka", "images": []}, {"id": 460337, "min_date": "2020-07-29T08:36:00Z", "max_date": "2020-07-29T11:24:00Z", "count_points": 2, "latitude": 48.15992, "longitude": 32.31185, "city": "Kompaniyivka", "images": []}, {"id": 460338, "min_date": "2020-07-29T08:36:00Z", "max_date": "2020-07-29T11:24:00Z", "count_points": 8, "latitude": 47.76818, "longitude": 33.08332, "city": "Shyroke", "images": []}, {"id": 460339, "min_date": "2020-07-29T08:36:00Z", "max_date": "2020-07-29T08:36:00Z", "count_points": 1, "latitude": 47.3686, "longitude": 33.638, "city": "Vysokopillya", "images": []}, {"id": 460340, "min_date": "2020-07-29T08:36:00Z", "max_date": "2020-07-30T09:30:00Z", "count_points": 19, "latitude": 47.0169, "longitude": 36.35168, "city": "Chernihivka", "images": []}, {"id": 460341, "min_date": "2020-07-29T08:36:00Z", "max_date": "2020-07-29T08:36:00Z", "count_points": 1, "latitude": 46.6644, "longitude": 31.7808, "city": "Parutyne", "images": []}, {"id": 460342, "min_date": "2020-07-29T08:36:00Z", "max_date": "2020-07-30T23:24:00Z", "count_points": 19, "latitude": 48.75271, "longitude": 36.17735, "city": "Yur\u201dyivka", "images": []}, {"id": 460343, "min_date": "2020-07-29T08:36:00Z", "max_date": "2020-07-29T08:36:00Z", "count_points": 3, "latitude": 49.0704, "longitude": 36.82293, "city": "Petrivs\u2019ke", "images": []}, {"id": 460344, "min_date": "2020-07-29T08:36:00Z", "max_date": "2020-07-29T11:30:00Z", "count_points": 10, "latitude": 49.35833, "longitude": 34.11871, "city": "Novi Sanzhary", "images": []}, {"id": 460345, "min_date": "2020-07-29T10:14:00Z", "max_date": "2020-07-29T11:30:00Z", "count_points": 12, "latitude": 48.56087, "longitude": 29.03825, "city": "Tsybulevka", "images": []}, {"id": 460346, "min_date": "2020-07-29T10:20:00Z", "max_date": "2020-07-29T09:48:00Z", "count_points": 5, "latitude": 48.41234, "longitude": 35.39111, "city": "Synel\u2019nykove", "images": []}, {"id": 460347, "min_date": "2020-07-29T10:20:00Z", "max_date": "2020-07-29T11:24:00Z", "count_points": 9, "latitude": 48.39432, "longitude": 37.05248, "city": "Dobropillya", "images": []}, {"id": 460348, "min_date": "2020-07-29T10:20:00Z", "max_date": "2020-08-02T10:12:00Z", "count_points": 3, "latitude": 48.62805, "longitude": 38.70833, "city": "Kirovs\u2019k", "images": []}, {"id": 460349, "min_date": "2020-07-29T10:20:00Z", "max_date": "2020-07-29T11:24:00Z", "count_points": 3, "latitude": 47.39704, "longitude": 32.11435, "city": "Bashtanka", "images": []}, {"id": 460350, "min_date": "2020-07-29T10:20:00Z", "max_date": "2020-07-30T11:06:00Z", "count_points": 6, "latitude": 48.21414, "longitude": 36.45319, "city": "Petropavlivka", "images": []}, {"id": 460351, "min_date": "2020-07-29T10:20:00Z", "max_date": "2020-07-29T11:24:00Z", "count_points": 8, "latitude": 48.30269, "longitude": 37.04618, "city": "Krasnoarmiys\u2019k", "images": []}, {"id": 460352, "min_date": "2020-07-29T10:20:00Z", "max_date": "2020-07-29T11:24:00Z", "count_points": 8, "latitude": 48.45112, "longitude": 38.13659, "city": "Svetlodarsk", "images": []}, {"id": 460353, "min_date": "2020-07-29T10:20:00Z", "max_date": "2020-07-30T23:24:00Z", "count_points": 5, "latitude": 48.16798, "longitude": 36.47244, "city": "Mezhova", "images": []}, {"id": 460354, "min_date": "2020-07-29T10:20:00Z", "max_date": "2020-07-29T09:48:00Z", "count_points": 3, "latitude": 46.93937, "longitude": 31.59816, "city": "Berezanka", "images": []}, {"id": 460355, "min_date": "2020-07-29T10:20:00Z", "max_date": "2020-07-29T10:20:00Z", "count_points": 1, "latitude": 47.6913, "longitude": 36.5474, "city": "Hulyaypole", "images": []}, {"id": 460356, "min_date": "2020-07-29T10:20:00Z", "max_date": "2020-07-29T11:30:00Z", "count_points": 9, "latitude": 48.87433, "longitude": 36.71239, "city": "Blyznyuky", "images": []}, {"id": 460357, "min_date": "2020-07-29T10:20:00Z", "max_date": "2020-07-29T09:48:00Z", "count_points": 4, "latitude": 48.43649, "longitude": 36.74632, "city": "Mezhova", "images": []}, {"id": 460358, "min_date": "2020-07-29T10:20:00Z", "max_date": "2020-07-29T11:24:00Z", "count_points": 11, "latitude": 48.5824, "longitude": 37.94957, "city": "Artemivs\u2019k", "images": []}, {"id": 460359, "min_date": "2020-07-29T10:21:00Z", "max_date": "2020-07-29T09:48:00Z", "count_points": 15, "latitude": 49.17633, "longitude": 36.6609, "city": "Petrivs\u2019ke", "images": []}, {"id": 460360, "min_date": "2020-07-29T10:21:00Z", "max_date": "2020-07-29T10:21:00Z", "count_points": 1, "latitude": 49.592, "longitude": 35.3125, "city": "Varvarivka", "images": []}, {"id": 460361, "min_date": "2020-07-29T10:21:00Z", "max_date": "2020-07-29T10:21:00Z", "count_points": 1, "latitude": 49.5641, "longitude": 35.1574, "city": "Varvarivka", "images": []}, {"id": 460362, "min_date": "2020-07-29T10:21:00Z", "max_date": "2020-07-29T09:48:00Z", "count_points": 2, "latitude": 49.90624, "longitude": 36.81049, "city": "Kochetok", "images": []}, {"id": 460363, "min_date": "2020-07-29T10:21:00Z", "max_date": "2020-07-29T10:21:00Z", "count_points": 1, "latitude": 49.9003, "longitude": 36.4414, "city": "Vvedenka", "images": []}, {"id": 460364, "min_date": "2020-07-29T10:21:00Z", "max_date": "2020-07-29T09:48:00Z", "count_points": 4, "latitude": 49.22731, "longitude": 36.30869, "city": "Krasnopavlivka", "images": []}, {"id": 460365, "min_date": "2020-07-29T10:21:00Z", "max_date": "2020-07-29T10:21:00Z", "count_points": 1, "latitude": 50.592, "longitude": 33.6952, "city": "Lypova Dolyna", "images": []}, {"id": 460366, "min_date": "2020-07-29T10:21:00Z", "max_date": "2020-07-29T09:48:00Z", "count_points": 5, "latitude": 49.20183, "longitude": 35.35329, "city": "Zachepylivka", "images": []}, {"id": 460367, "min_date": "2020-07-29T10:21:00Z", "max_date": "2020-07-29T09:48:00Z", "count_points": 2, "latitude": 49.46223, "longitude": 36.61393, "city": "Komsomol\u2019s\u2019ke", "images": []}, {"id": 460368, "min_date": "2020-07-29T19:45:00Z", "max_date": "2020-07-29T19:45:00Z", "count_points": 3, "latitude": 48.55953, "longitude": 32.59887, "city": "Adzhamka", "images": []}, {"id": 460369, "min_date": "2020-07-29T19:45:00Z", "max_date": "2020-07-29T19:45:00Z", "count_points": 2, "latitude": 46.7651, "longitude": 33.01275, "city": "Kozachi Laheri", "images": []}, {"id": 460370, "min_date": "2020-07-29T19:45:00Z", "max_date": "2020-07-30T11:06:00Z", "count_points": 10, "latitude": 46.76928, "longitude": 31.69763, "city": "Parutyne", "images": []}, {"id": 460371, "min_date": "2020-07-29T19:45:00Z", "max_date": "2020-07-29T23:42:00Z", "count_points": 3, "latitude": 47.44229, "longitude": 36.81274, "city": "Komysh-Zorya", "images": []}, {"id": 460372, "min_date": "2020-07-29T19:45:00Z", "max_date": "2020-07-29T23:42:00Z", "count_points": 7, "latitude": 47.96436, "longitude": 37.01309, "city": "Velyka Novosilka", "images": []}, {"id": 460373, "min_date": "2020-07-29T19:45:00Z", "max_date": "2020-07-29T23:42:00Z", "count_points": 4, "latitude": 48.32209, "longitude": 39.58843, "city": "Krasnodon", "images": []}, {"id": 460374, "min_date": "2020-07-29T19:45:00Z", "max_date": "2020-07-29T23:42:00Z", "count_points": 9, "latitude": 48.2762, "longitude": 37.36807, "city": "Myrnohrad", "images": []}, {"id": 460375, "min_date": "2020-07-29T19:45:00Z", "max_date": "2020-08-02T22:24:00Z", "count_points": 14, "latitude": 48.31376, "longitude": 37.57646, "city": "Shcherbynivka", "images": []}, {"id": 460376, "min_date": "2020-07-29T19:45:00Z", "max_date": "2020-07-30T11:06:00Z", "count_points": 6, "latitude": 48.16056, "longitude": 36.09424, "city": "Vasyl\u2019kivka", "images": []}, {"id": 460377, "min_date": "2020-07-29T19:45:00Z", "max_date": "2020-07-29T19:45:00Z", "count_points": 3, "latitude": 48.1643, "longitude": 35.6225, "city": "Synel\u2019nykove", "images": []}, {"id": 460378, "min_date": "2020-07-29T19:45:00Z", "max_date": "2020-07-30T23:24:00Z", "count_points": 12, "latitude": 48.27691, "longitude": 36.39298, "city": "Petropavlivka", "images": []}, {"id": 460379, "min_date": "2020-07-29T19:45:00Z", "max_date": "2020-07-30T11:06:00Z", "count_points": 27, "latitude": 48.1669, "longitude": 35.30721, "city": "Synel\u2019nykove", "images": []}, {"id": 460380, "min_date": "2020-07-29T19:45:00Z", "max_date": "2020-07-30T11:06:00Z", "count_points": 9, "latitude": 48.34993, "longitude": 36.93451, "city": "Dobropillya", "images": []}, {"id": 460381, "min_date": "2020-07-29T19:45:00Z", "max_date": "2020-07-30T11:06:00Z", "count_points": 7, "latitude": 48.24862, "longitude": 35.70427, "city": "Synel\u2019nykove", "images": []}, {"id": 460382, "min_date": "2020-07-29T19:45:00Z", "max_date": "2020-07-29T23:42:00Z", "count_points": 23, "latitude": 48.52685, "longitude": 37.95435, "city": "Artemivs\u2019k", "images": []}, {"id": 460383, "min_date": "2020-07-29T19:45:00Z", "max_date": "2020-07-29T23:42:00Z", "count_points": 3, "latitude": 47.69462, "longitude": 30.77547, "city": "Mykolayivka", "images": []}, {"id": 460384, "min_date": "2020-07-29T19:45:00Z", "max_date": "2020-07-29T19:45:00Z", "count_points": 1, "latitude": 48.6146, "longitude": 37.681, "city": "Kostyantynivka", "images": []}, {"id": 460385, "min_date": "2020-07-29T19:45:00Z", "max_date": "2020-08-02T22:24:00Z", "count_points": 13, "latitude": 48.45934, "longitude": 35.52461, "city": "Synel\u2019nykove", "images": []}, {"id": 460386, "min_date": "2020-07-29T19:45:00Z", "max_date": "2020-07-30T11:06:00Z", "count_points": 13, "latitude": 48.72236, "longitude": 37.35089, "city": "Krasnotorka", "images": []}, {"id": 460387, "min_date": "2020-07-29T19:45:00Z", "max_date": "2020-07-29T19:45:00Z", "count_points": 1, "latitude": 48.3198, "longitude": 33.4547, "city": "Zhovti Vody", "images": []}, {"id": 460388, "min_date": "2020-07-29T19:45:00Z", "max_date": "2020-07-29T23:42:00Z", "count_points": 20, "latitude": 48.84634, "longitude": 37.81885, "city": "Krasnyy Lyman", "images": []}, {"id": 460389, "min_date": "2020-07-29T19:45:00Z", "max_date": "2020-07-29T19:45:00Z", "count_points": 2, "latitude": 48.30795, "longitude": 33.01255, "city": "Petrove", "images": []}, {"id": 460390, "min_date": "2020-07-29T19:45:00Z", "max_date": "2020-07-30T23:24:00Z", "count_points": 9, "latitude": 48.67381, "longitude": 35.7597, "city": "Pavlohrad", "images": []}, {"id": 460391, "min_date": "2020-07-29T19:45:00Z", "max_date": "2020-07-29T19:45:00Z", "count_points": 1, "latitude": 48.5294, "longitude": 33.7258, "city": "Piatykhatky", "images": []}, {"id": 460392, "min_date": "2020-07-29T19:45:00Z", "max_date": "2020-07-29T23:42:00Z", "count_points": 2, "latitude": 48.64469, "longitude": 34.19358, "city": "Verkhn\u2019odniprovs\u2019k", "images": []}, {"id": 460393, "min_date": "2020-07-29T19:45:00Z", "max_date": "2020-07-29T19:45:00Z", "count_points": 1, "latitude": 48.2729, "longitude": 31.3287, "city": "Pomichna", "images": []}, {"id": 460394, "min_date": "2020-07-29T19:45:00Z", "max_date": "2020-07-29T00:00:00Z", "count_points": 2, "latitude": 48.88599, "longitude": 35.74264, "city": "Sakhnovshchyna", "images": []}, {"id": 460395, "min_date": "2020-07-29T19:45:00Z", "max_date": "2020-07-29T23:42:00Z", "count_points": 7, "latitude": 48.92127, "longitude": 35.71501, "city": "Sakhnovshchyna", "images": []}, {"id": 460396, "min_date": "2020-07-29T19:45:00Z", "max_date": "2020-07-29T23:42:00Z", "count_points": 5, "latitude": 48.55968, "longitude": 32.75788, "city": "Nova Praha", "images": []}, {"id": 460397, "min_date": "2020-07-29T19:45:00Z", "max_date": "2020-07-29T23:42:00Z", "count_points": 18, "latitude": 49.17822, "longitude": 37.66877, "city": "Svyatogorsk", "images": []}, {"id": 460398, "min_date": "2020-07-29T19:45:00Z", "max_date": "2020-07-29T19:45:00Z", "count_points": 1, "latitude": 49.3663, "longitude": 38.9077, "city": "Starobil\u2019s\u2019k", "images": []}, {"id": 460399, "min_date": "2020-07-29T19:45:00Z", "max_date": "2020-07-29T23:42:00Z", "count_points": 25, "latitude": 49.05904, "longitude": 34.93796, "city": "Mahdalynivka", "images": []}, {"id": 460400, "min_date": "2020-07-29T19:45:00Z", "max_date": "2020-07-29T19:45:00Z", "count_points": 2, "latitude": 49.2685, "longitude": 35.798, "city": "Kehychivka", "images": []}, {"id": 460401, "min_date": "2020-07-29T19:46:00Z", "max_date": "2020-08-01T08:48:00Z", "count_points": 12, "latitude": 50.13542, "longitude": 37.0654, "city": "Vovchans\u2019k", "images": []}, {"id": 460402, "min_date": "2020-07-29T19:46:00Z", "max_date": "2020-07-29T19:46:00Z", "count_points": 2, "latitude": 49.3298, "longitude": 33.13365, "city": "Hradyz\u2019k", "images": []}, {"id": 460403, "min_date": "2020-07-29T19:46:00Z", "max_date": "2020-07-29T23:42:00Z", "count_points": 11, "latitude": 49.72468, "longitude": 37.29308, "city": "Shevchenkove", "images": []}, {"id": 460404, "min_date": "2020-07-29T19:46:00Z", "max_date": "2020-07-29T23:42:00Z", "count_points": 6, "latitude": 49.51608, "longitude": 35.7482, "city": "Berezivka", "images": []}, {"id": 460405, "min_date": "2020-07-29T23:54:00Z", "max_date": "2020-07-30T09:30:00Z", "count_points": 6, "latitude": 49.03626, "longitude": 36.99977, "city": "Barvinkove", "images": []}, {"id": 460406, "min_date": "2020-07-29T23:54:00Z", "max_date": "2020-08-02T22:24:00Z", "count_points": 36, "latitude": 48.81971, "longitude": 36.63117, "city": "Blyznyuky", "images": []}, {"id": 460407, "min_date": "2020-07-29T23:54:00Z", "max_date": "2020-08-02T10:12:00Z", "count_points": 11, "latitude": 48.76593, "longitude": 35.22093, "city": "Hubynykha", "images": []}, {"id": 460408, "min_date": "2020-07-29T23:54:00Z", "max_date": "2020-07-30T11:06:00Z", "count_points": 5, "latitude": 48.11257, "longitude": 36.96358, "city": "Krasnoarmiys\u2019k", "images": []}, {"id": 460409, "min_date": "2020-07-29T23:54:00Z", "max_date": "2020-07-30T01:18:00Z", "count_points": 7, "latitude": 49.01873, "longitude": 29.23787, "city": "Illintsi", "images": []}, {"id": 460410, "min_date": "2020-07-29T23:54:00Z", "max_date": "2020-07-29T23:42:00Z", "count_points": 4, "latitude": 48.37426, "longitude": 33.15778, "city": "Petrove", "images": []}, {"id": 460411, "min_date": "2020-07-29T23:54:00Z", "max_date": "2020-07-29T23:42:00Z", "count_points": 6, "latitude": 47.89031, "longitude": 35.81136, "city": "Novomykolayivka", "images": []}, {"id": 460412, "min_date": "2020-07-30T07:41:00Z", "max_date": "2020-07-30T09:30:00Z", "count_points": 6, "latitude": 47.31718, "longitude": 38.10187, "city": "Tel\u2019manove", "images": []}, {"id": 460413, "min_date": "2020-07-30T07:41:00Z", "max_date": "2020-07-29T23:42:00Z", "count_points": 5, "latitude": 47.1625, "longitude": 37.90435, "city": "Bezimenne", "images": []}, {"id": 460414, "min_date": "2020-07-30T09:18:00Z", "max_date": "2020-07-30T09:30:00Z", "count_points": 16, "latitude": 48.5088, "longitude": 38.06497, "city": "Artemivs\u2019k", "images": []}, {"id": 460415, "min_date": "2020-07-30T09:18:00Z", "max_date": "2020-07-30T11:06:00Z", "count_points": 7, "latitude": 48.04372, "longitude": 39.00994, "city": "Kripens\u2019kyy", "images": []}, {"id": 460416, "min_date": "2020-07-30T09:18:00Z", "max_date": "2020-07-30T09:30:00Z", "count_points": 2, "latitude": 48.47189, "longitude": 36.77096, "city": "Mezhova", "images": []}, {"id": 460417, "min_date": "2020-07-30T09:19:00Z", "max_date": "2020-07-30T09:30:00Z", "count_points": 10, "latitude": 48.26365, "longitude": 37.04122, "city": "Krasnoarmiys\u2019k", "images": []}, {"id": 460418, "min_date": "2020-07-30T09:19:00Z", "max_date": "2020-07-30T09:19:00Z", "count_points": 1, "latitude": 49.5887, "longitude": 29.7425, "city": "Skvyra", "images": []}, {"id": 460419, "min_date": "2020-07-30T09:19:00Z", "max_date": "2020-08-01T10:30:00Z", "count_points": 33, "latitude": 48.3739, "longitude": 35.61088, "city": "Synel\u2019nykove", "images": []}, {"id": 460420, "min_date": "2020-07-30T09:19:00Z", "max_date": "2020-07-29T23:42:00Z", "count_points": 5, "latitude": 47.93398, "longitude": 37.42921, "city": "Mareyka", "images": []}, {"id": 460421, "min_date": "2020-07-30T09:19:00Z", "max_date": "2020-07-30T11:06:00Z", "count_points": 11, "latitude": 48.04548, "longitude": 36.88367, "city": "Velyka Novosilka", "images": []}, {"id": 460422, "min_date": "2020-07-30T09:19:00Z", "max_date": "2020-07-30T11:06:00Z", "count_points": 16, "latitude": 47.9413, "longitude": 36.71406, "city": "Velyka Novosilka", "images": []}, {"id": 460423, "min_date": "2020-07-30T09:19:00Z", "max_date": "2020-07-30T09:30:00Z", "count_points": 2, "latitude": 49.38415, "longitude": 29.46764, "city": "Tetiiv", "images": []}, {"id": 460424, "min_date": "2020-07-30T09:19:00Z", "max_date": "2020-07-30T11:06:00Z", "count_points": 20, "latitude": 47.91066, "longitude": 36.63405, "city": "Velyka Novosilka", "images": []}, {"id": 460425, "min_date": "2020-07-30T09:19:00Z", "max_date": "2020-07-30T09:30:00Z", "count_points": 6, "latitude": 48.20112, "longitude": 34.70958, "city": "Surs\u2019ko-Mykhaylivka", "images": []}, {"id": 460426, "min_date": "2020-07-30T09:19:00Z", "max_date": "2020-07-30T09:19:00Z", "count_points": 1, "latitude": 47.3894, "longitude": 37.2765, "city": "Volodars\u2019ke", "images": []}, {"id": 460427, "min_date": "2020-07-30T09:19:00Z", "max_date": "2020-07-30T09:19:00Z", "count_points": 1, "latitude": 47.8734, "longitude": 34.6786, "city": "Tomakivka", "images": []}, {"id": 460428, "min_date": "2020-07-30T09:19:00Z", "max_date": "2020-07-30T09:19:00Z", "count_points": 1, "latitude": 48.4623, "longitude": 29.8683, "city": "Hayvoron", "images": []}, {"id": 460429, "min_date": "2020-07-30T09:19:00Z", "max_date": "2020-07-30T09:30:00Z", "count_points": 15, "latitude": 48.18914, "longitude": 31.0354, "city": "Lysa Hora", "images": []}, {"id": 460430, "min_date": "2020-07-30T09:19:00Z", "max_date": "2020-07-31T01:00:00Z", "count_points": 6, "latitude": 48.46804, "longitude": 29.00541, "city": "Tsybulevka", "images": []}, {"id": 460431, "min_date": "2020-07-30T09:19:00Z", "max_date": "2020-07-30T09:30:00Z", "count_points": 4, "latitude": 48.01669, "longitude": 31.47046, "city": "Arbuzynka", "images": []}, {"id": 460432, "min_date": "2020-07-30T09:19:00Z", "max_date": "2020-07-30T11:06:00Z", "count_points": 4, "latitude": 48.13416, "longitude": 29.07998, "city": "Kodyma", "images": []}, {"id": 460433, "min_date": "2020-07-30T09:19:00Z", "max_date": "2020-07-30T11:06:00Z", "count_points": 7, "latitude": 47.04805, "longitude": 32.58017, "city": "Snihurivka", "images": []}, {"id": 460434, "min_date": "2020-07-30T09:19:00Z", "max_date": "2020-08-02T10:12:00Z", "count_points": 19, "latitude": 46.22403, "longitude": 34.27279, "city": "Novotroyits\u2019ke", "images": []}, {"id": 460435, "min_date": "2020-07-30T09:19:00Z", "max_date": "2020-07-30T09:19:00Z", "count_points": 1, "latitude": 45.7811, "longitude": 34.9512, "city": "Pshenichnoye", "images": []}, {"id": 460436, "min_date": "2020-07-30T09:25:00Z", "max_date": "2020-08-02T22:24:00Z", "count_points": 6, "latitude": 48.36196, "longitude": 37.07563, "city": "Dobropillya", "images": []}, {"id": 460437, "min_date": "2020-07-30T09:25:00Z", "max_date": "2020-07-30T09:25:00Z", "count_points": 1, "latitude": 48.0223, "longitude": 36.8279, "city": "Velyka Novosilka", "images": []}, {"id": 460438, "min_date": "2020-07-30T09:26:00Z", "max_date": "2020-07-30T09:30:00Z", "count_points": 3, "latitude": 48.69139, "longitude": 36.6668, "city": "Blyznyuky", "images": []}, {"id": 460439, "min_date": "2020-07-30T11:03:00Z", "max_date": "2020-07-30T11:06:00Z", "count_points": 28, "latitude": 48.54912, "longitude": 36.44633, "city": "Petropavlivka", "images": []}, {"id": 460440, "min_date": "2020-07-30T11:03:00Z", "max_date": "2020-07-30T11:06:00Z", "count_points": 10, "latitude": 48.80361, "longitude": 36.40963, "city": "Lozova", "images": []}, {"id": 460441, "min_date": "2020-07-30T11:03:00Z", "max_date": "2020-07-30T11:06:00Z", "count_points": 13, "latitude": 49.33997, "longitude": 39.8885, "city": "Milove", "images": []}, {"id": 460442, "min_date": "2020-07-30T11:03:00Z", "max_date": "2020-07-30T11:03:00Z", "count_points": 1, "latitude": 48.5411, "longitude": 29.7582, "city": "Teplyk", "images": []}, {"id": 460443, "min_date": "2020-07-30T11:03:00Z", "max_date": "2020-07-30T11:06:00Z", "count_points": 4, "latitude": 48.33041, "longitude": 37.19232, "city": "Rodyns\u2019ke", "images": []}, {"id": 460444, "min_date": "2020-07-30T11:03:00Z", "max_date": "2020-07-31T23:06:00Z", "count_points": 5, "latitude": 48.08103, "longitude": 33.41687, "city": "Lozuvatka", "images": []}, {"id": 460445, "min_date": "2020-07-30T11:03:00Z", "max_date": "2020-08-01T22:42:00Z", "count_points": 3, "latitude": 48.45581, "longitude": 36.96909, "city": "Dobropillya", "images": []}, {"id": 460446, "min_date": "2020-07-30T11:03:00Z", "max_date": "2020-07-27T00:36:00Z", "count_points": 3, "latitude": 48.44857, "longitude": 39.69899, "city": "Molodohvardiys\u2019k", "images": []}, {"id": 460447, "min_date": "2020-07-30T11:03:00Z", "max_date": "2020-07-30T11:06:00Z", "count_points": 4, "latitude": 46.9852, "longitude": 33.16184, "city": "Dnipryany", "images": []}, {"id": 460448, "min_date": "2020-07-30T11:03:00Z", "max_date": "2020-07-30T11:06:00Z", "count_points": 2, "latitude": 47.27406, "longitude": 33.89324, "city": "Velyka Lepetykha", "images": []}, {"id": 460449, "min_date": "2020-07-30T11:03:00Z", "max_date": "2020-07-30T11:06:00Z", "count_points": 5, "latitude": 47.29255, "longitude": 33.72125, "city": "Dudchany", "images": []}, {"id": 460450, "min_date": "2020-07-30T11:03:00Z", "max_date": "2020-07-30T11:06:00Z", "count_points": 2, "latitude": 47.278, "longitude": 31.59331, "city": "Nova Odesa", "images": []}, {"id": 460451, "min_date": "2020-07-30T11:03:00Z", "max_date": "2020-07-30T11:06:00Z", "count_points": 5, "latitude": 47.97326, "longitude": 36.88267, "city": "Velyka Novosilka", "images": []}, {"id": 460452, "min_date": "2020-07-30T11:03:00Z", "max_date": "2020-07-30T11:06:00Z", "count_points": 2, "latitude": 47.81428, "longitude": 34.46605, "city": "Chervonohryhorivka", "images": []}, {"id": 460453, "min_date": "2020-07-30T11:03:00Z", "max_date": "2020-07-30T11:06:00Z", "count_points": 6, "latitude": 48.00531, "longitude": 35.87592, "city": "Novomykolayivka", "images": []}, {"id": 460454, "min_date": "2020-07-30T11:03:00Z", "max_date": "2020-07-30T11:03:00Z", "count_points": 2, "latitude": 47.8644, "longitude": 33.867, "city": "Sofiyivka", "images": []}, {"id": 460455, "min_date": "2020-07-30T11:03:00Z", "max_date": "2020-07-30T11:03:00Z", "count_points": 1, "latitude": 47.3674, "longitude": 29.622, "city": "Zakharivka", "images": []}, {"id": 460456, "min_date": "2020-07-30T11:03:00Z", "max_date": "2020-07-30T11:03:00Z", "count_points": 1, "latitude": 48.1309, "longitude": 35.3909, "city": "Vil\u2019nyans\u2019k", "images": []}, {"id": 460457, "min_date": "2020-07-30T11:04:00Z", "max_date": "2020-07-30T11:06:00Z", "count_points": 5, "latitude": 49.49811, "longitude": 30.88992, "city": "Bohuslav", "images": []}, {"id": 460458, "min_date": "2020-07-30T11:04:00Z", "max_date": "2020-07-30T11:06:00Z", "count_points": 7, "latitude": 50.20247, "longitude": 35.0471, "city": "Krasnokuts\u2019k", "images": []}, {"id": 460459, "min_date": "2020-07-30T11:04:00Z", "max_date": "2020-07-30T11:04:00Z", "count_points": 1, "latitude": 49.9767, "longitude": 28.3683, "city": "Hryshkivtsi", "images": []}, {"id": 460460, "min_date": "2020-07-30T18:50:00Z", "max_date": "2020-07-30T18:50:00Z", "count_points": 2, "latitude": 46.77665, "longitude": 33.74325, "city": "Kayiry", "images": []}, {"id": 460461, "min_date": "2020-07-30T18:50:00Z", "max_date": "2020-07-31T10:48:00Z", "count_points": 2, "latitude": 47.84152, "longitude": 37.29251, "city": "Kurakhovo", "images": []}, {"id": 460462, "min_date": "2020-07-30T18:50:00Z", "max_date": "2020-07-30T18:50:00Z", "count_points": 1, "latitude": 48.0896, "longitude": 38.2778, "city": "Zuhres", "images": []}, {"id": 460463, "min_date": "2020-07-30T18:50:00Z", "max_date": "2020-07-30T09:30:00Z", "count_points": 2, "latitude": 47.85669, "longitude": 37.12024, "city": "Kurakhovo", "images": []}, {"id": 460464, "min_date": "2020-07-30T18:50:00Z", "max_date": "2020-07-30T18:50:00Z", "count_points": 1, "latitude": 47.149, "longitude": 34.2422, "city": "Verkhniy Rohachyk", "images": []}, {"id": 460465, "min_date": "2020-07-30T18:50:00Z", "max_date": "2020-07-30T23:24:00Z", "count_points": 5, "latitude": 48.48357, "longitude": 39.81655, "city": "Uralo-Kavkaz", "images": []}, {"id": 460466, "min_date": "2020-07-30T18:50:00Z", "max_date": "2020-07-30T18:50:00Z", "count_points": 1, "latitude": 47.5601, "longitude": 35.6136, "city": "Kirove", "images": []}, {"id": 460467, "min_date": "2020-07-30T18:50:00Z", "max_date": "2020-07-30T18:50:00Z", "count_points": 2, "latitude": 48.27865, "longitude": 36.97475, "city": "Krasnoarmiys\u2019k", "images": []}, {"id": 460468, "min_date": "2020-07-30T18:50:00Z", "max_date": "2020-07-30T23:24:00Z", "count_points": 3, "latitude": 48.16717, "longitude": 35.52559, "city": "Synel\u2019nykove", "images": []}, {"id": 460469, "min_date": "2020-07-30T18:50:00Z", "max_date": "2020-07-30T18:50:00Z", "count_points": 1, "latitude": 48.8702, "longitude": 38.3666, "city": "Lysychans\u2019k", "images": []}, {"id": 460470, "min_date": "2020-07-30T18:50:00Z", "max_date": "2020-07-30T23:24:00Z", "count_points": 3, "latitude": 48.84996, "longitude": 35.4823, "city": "Melioratyvne", "images": []}, {"id": 460471, "min_date": "2020-07-30T18:50:00Z", "max_date": "2020-07-30T18:50:00Z", "count_points": 2, "latitude": 48.744, "longitude": 35.04605, "city": "Spas\u2019ke", "images": []}, {"id": 460472, "min_date": "2020-07-30T20:28:00Z", "max_date": "2020-07-30T20:28:00Z", "count_points": 2, "latitude": 46.9479, "longitude": 34.68065, "city": "Vesele", "images": []}, {"id": 460473, "min_date": "2020-07-30T20:28:00Z", "max_date": "2020-07-30T20:28:00Z", "count_points": 1, "latitude": 48.5972, "longitude": 36.3096, "city": "Petropavlivka", "images": []}, {"id": 460474, "min_date": "2020-07-30T20:28:00Z", "max_date": "2020-07-31T10:48:00Z", "count_points": 3, "latitude": 47.30958, "longitude": 33.08366, "city": "Velyka Oleksandrivka", "images": []}, {"id": 460475, "min_date": "2020-07-31T00:36:00Z", "max_date": "2020-07-31T01:00:00Z", "count_points": 9, "latitude": 48.1666, "longitude": 37.06378, "city": "Krasnoarmiys\u2019k", "images": []}, {"id": 460476, "min_date": "2020-07-31T00:36:00Z", "max_date": "2020-07-31T01:00:00Z", "count_points": 14, "latitude": 48.1546, "longitude": 36.9139, "city": "Mezhova", "images": []}, {"id": 460477, "min_date": "2020-07-31T08:24:00Z", "max_date": "2020-08-02T09:50:00Z", "count_points": 6, "latitude": 45.92322, "longitude": 28.79023, "city": "Horodnye", "images": []}, {"id": 460478, "min_date": "2020-07-31T08:24:00Z", "max_date": "2020-07-31T08:24:00Z", "count_points": 2, "latitude": 47.8714, "longitude": 39.5666, "city": "Biryukove", "images": []}, {"id": 460479, "min_date": "2020-07-31T08:24:00Z", "max_date": "2020-07-31T08:24:00Z", "count_points": 1, "latitude": 47.9633, "longitude": 39.7051, "city": "Biryukove", "images": []}, {"id": 460480, "min_date": "2020-07-31T08:24:00Z", "max_date": "2020-07-31T08:24:00Z", "count_points": 1, "latitude": 47.3378, "longitude": 33.5179, "city": "Vysokopillya", "images": []}, {"id": 460481, "min_date": "2020-07-31T08:24:00Z", "max_date": "2020-07-31T10:48:00Z", "count_points": 3, "latitude": 46.77428, "longitude": 34.34933, "city": "Nyzhni Sirohozy", "images": []}, {"id": 460482, "min_date": "2020-07-31T08:24:00Z", "max_date": "2020-07-31T08:24:00Z", "count_points": 1, "latitude": 47.1459, "longitude": 34.3873, "city": "Verkhniy Rohachyk", "images": []}, {"id": 460483, "min_date": "2020-07-31T10:01:00Z", "max_date": "2020-07-31T10:01:00Z", "count_points": 3, "latitude": 50.39283, "longitude": 24.62267, "city": "Radekhiv", "images": []}, {"id": 460484, "min_date": "2020-07-31T10:08:00Z", "max_date": "2020-07-31T10:08:00Z", "count_points": 2, "latitude": 48.1074, "longitude": 36.8881, "city": "Mezhova", "images": []}, {"id": 460485, "min_date": "2020-07-31T10:08:00Z", "max_date": "2020-07-31T10:08:00Z", "count_points": 2, "latitude": 47.26325, "longitude": 33.67525, "city": "Dudchany", "images": []}, {"id": 460486, "min_date": "2020-07-31T10:08:00Z", "max_date": "2020-07-30T23:24:00Z", "count_points": 9, "latitude": 48.2234, "longitude": 35.81412, "city": "Vasyl\u2019kivka", "images": []}, {"id": 460487, "min_date": "2020-07-31T19:33:00Z", "max_date": "2020-07-31T19:33:00Z", "count_points": 1, "latitude": 49.0955, "longitude": 29.6558, "city": "Orativ", "images": []}, {"id": 460488, "min_date": "2020-08-01T09:06:00Z", "max_date": "2020-08-01T09:06:00Z", "count_points": 1, "latitude": 49.0074, "longitude": 37.5563, "city": "Svyatogorsk", "images": []}, {"id": 460489, "min_date": "2020-08-01T09:07:00Z", "max_date": "2020-08-02T10:12:00Z", "count_points": 7, "latitude": 46.36714, "longitude": 34.99754, "city": "Partyzany", "images": []}, {"id": 460490, "min_date": "2020-08-01T09:07:00Z", "max_date": "2020-08-01T09:07:00Z", "count_points": 2, "latitude": 48.43865, "longitude": 29.30815, "city": "Obodivka", "images": []}, {"id": 460491, "min_date": "2020-08-01T09:07:00Z", "max_date": "2020-08-01T10:30:00Z", "count_points": 2, "latitude": 46.39785, "longitude": 35.1412, "city": "Kyrylivka", "images": []}, {"id": 460492, "min_date": "2020-08-01T20:16:00Z", "max_date": "2020-08-01T20:16:00Z", "count_points": 1, "latitude": 48.3991, "longitude": 36.9729, "city": "Dobropillya", "images": []}, {"id": 460493, "min_date": "2020-08-02T08:11:00Z", "max_date": "2020-08-02T22:24:00Z", "count_points": 20, "latitude": 48.55689, "longitude": 38.76903, "city": "Bryanka", "images": []}, {"id": 460494, "min_date": "2020-08-02T08:11:00Z", "max_date": "2020-08-02T08:11:00Z", "count_points": 2, "latitude": 48.67495, "longitude": 37.1566, "city": "Novodonets\u2019ke", "images": []}, {"id": 460495, "min_date": "2020-08-02T08:11:00Z", "max_date": "2020-07-30T23:24:00Z", "count_points": 2, "latitude": 48.3845, "longitude": 37.63362, "city": "Kostyantynivka", "images": []}, {"id": 460496, "min_date": "2020-08-02T08:11:00Z", "max_date": "2020-08-02T10:12:00Z", "count_points": 5, "latitude": 48.26805, "longitude": 36.87733, "city": "Mezhova", "images": []}, {"id": 460497, "min_date": "2020-08-02T08:12:00Z", "max_date": "2020-08-02T08:12:00Z", "count_points": 6, "latitude": 46.90445, "longitude": 34.83893, "city": "Vesele", "images": []}, {"id": 460498, "min_date": "2020-08-02T09:49:00Z", "max_date": "2020-08-02T09:49:00Z", "count_points": 1, "latitude": 51.7234, "longitude": 26.5445, "city": "Dubrovytsya", "images": []}, {"id": 460499, "min_date": "2020-08-02T09:49:00Z", "max_date": "2020-07-27T10:24:00Z", "count_points": 4, "latitude": 48.63621, "longitude": 28.99847, "city": "Tulchyn", "images": []}, {"id": 460500, "min_date": "2020-08-02T09:49:00Z", "max_date": "2020-07-31T10:48:00Z", "count_points": 3, "latitude": 46.94993, "longitude": 34.77244, "city": "Vesele", "images": []}, {"id": 460501, "min_date": "2020-08-02T09:49:00Z", "max_date": "2020-08-02T09:49:00Z", "count_points": 2, "latitude": 46.93735, "longitude": 34.8331, "city": "Vesele", "images": []}, {"id": 460502, "min_date": "2020-08-02T09:49:00Z", "max_date": "2020-07-30T23:24:00Z", "count_points": 4, "latitude": 48.53497, "longitude": 27.9563, "city": "Chernivtsi", "images": []}, {"id": 460503, "min_date": "2020-08-02T09:56:00Z", "max_date": "2020-08-02T10:12:00Z", "count_points": 3, "latitude": 47.53053, "longitude": 35.66301, "city": "Kirove", "images": []}, {"id": 460504, "min_date": "2020-08-02T09:56:00Z", "max_date": "2020-08-02T09:56:00Z", "count_points": 2, "latitude": 48.11335, "longitude": 37.46295, "city": "Selydove", "images": []}, {"id": 460505, "min_date": "2020-08-02T09:56:00Z", "max_date": "2020-08-02T09:56:00Z", "count_points": 1, "latitude": 48.437, "longitude": 37.8215, "city": "Dzerzhyns\u2019k", "images": []}, {"id": 460506, "min_date": "2020-08-02T11:34:00Z", "max_date": "2020-08-02T11:34:00Z", "count_points": 2, "latitude": 47.2568, "longitude": 34.3545, "city": "Verkhniy Rohachyk", "images": []}, {"id": 460507, "min_date": "2020-08-02T11:34:00Z", "max_date": "2020-08-02T11:34:00Z", "count_points": 1, "latitude": 47.2544, "longitude": 34.3981, "city": "Verkhniy Rohachyk", "images": []}, {"id": 460508, "min_date": "2020-08-02T19:21:00Z", "max_date": "2020-08-02T19:21:00Z", "count_points": 2, "latitude": 48.20505, "longitude": 34.2651, "city": "Krynychky", "images": []}, {"id": 460509, "min_date": "2020-08-02T19:21:00Z", "max_date": "2020-08-02T22:24:00Z", "count_points": 5, "latitude": 48.32986, "longitude": 33.74839, "city": "Piatykhatky", "images": []}, {"id": 460510, "min_date": "2020-08-02T19:21:00Z", "max_date": "2020-08-02T19:21:00Z", "count_points": 1, "latitude": 49.1089, "longitude": 36.3821, "city": "Krasnopavlivka", "images": []}, {"id": 460511, "min_date": "2020-08-02T19:21:00Z", "max_date": "2020-08-02T22:24:00Z", "count_points": 4, "latitude": 49.12234, "longitude": 35.35743, "city": "Zachepylivka", "images": []}, {"id": 460512, "min_date": "2020-08-02T19:21:00Z", "max_date": "2020-08-02T19:21:00Z", "count_points": 3, "latitude": 48.38553, "longitude": 37.20097, "city": "Rodyns\u2019ke", "images": []}, {"id": 460513, "min_date": "2020-08-02T19:21:00Z", "max_date": "2020-08-02T19:21:00Z", "count_points": 2, "latitude": 48.36045, "longitude": 35.84875, "city": "Pavlohrad", "images": []}, {"id": 460514, "min_date": "2020-08-02T23:29:00Z", "max_date": "2020-08-02T22:24:00Z", "count_points": 5, "latitude": 48.10779, "longitude": 35.77131, "city": "Novomykolayivka", "images": []}, {"id": 460515, "min_date": "2020-07-27T00:36:00Z", "max_date": "2020-07-27T00:36:00Z", "count_points": 1, "latitude": 49.25823, "longitude": 38.2964, "city": "Svatove", "images": []}, {"id": 460516, "min_date": "2020-07-27T00:36:00Z", "max_date": "2020-07-30T23:24:00Z", "count_points": 4, "latitude": 50.27205, "longitude": 37.3448, "city": "Prykolotne", "images": []}, {"id": 460517, "min_date": "2020-07-27T00:36:00Z", "max_date": "2020-07-27T10:24:00Z", "count_points": 4, "latitude": 48.82919, "longitude": 38.2663, "city": "Bilohorivka", "images": []}, {"id": 460518, "min_date": "2020-07-27T00:36:00Z", "max_date": "2020-07-27T00:36:00Z", "count_points": 2, "latitude": 48.70392, "longitude": 37.92629, "city": "Artemivs\u2019k", "images": []}, {"id": 460519, "min_date": "2020-07-27T00:36:00Z", "max_date": "2020-07-28T10:06:00Z", "count_points": 11, "latitude": 49.3417, "longitude": 35.37388, "city": "Krasnohrad", "images": []}, {"id": 460520, "min_date": "2020-07-27T00:36:00Z", "max_date": "2020-07-27T00:36:00Z", "count_points": 2, "latitude": 49.52099, "longitude": 38.41681, "city": "Nyzhnya Duvanka", "images": []}, {"id": 460521, "min_date": "2020-07-27T00:36:00Z", "max_date": "2020-07-27T00:36:00Z", "count_points": 2, "latitude": 48.11184, "longitude": 39.7987, "city": "Chervonopartyzans\u2019k", "images": []}, {"id": 460522, "min_date": "2020-07-27T00:36:00Z", "max_date": "2020-07-27T00:36:00Z", "count_points": 2, "latitude": 49.66438, "longitude": 38.01421, "city": "Nyzhnya Duvanka", "images": []}, {"id": 460523, "min_date": "2020-07-27T00:36:00Z", "max_date": "2020-07-27T00:36:00Z", "count_points": 1, "latitude": 49.43943, "longitude": 39.46963, "city": "Markivka", "images": []}, {"id": 460524, "min_date": "2020-07-27T00:36:00Z", "max_date": "2020-07-27T00:36:00Z", "count_points": 2, "latitude": 49.22357, "longitude": 35.19227, "city": "Zachepylivka", "images": []}, {"id": 460525, "min_date": "2020-07-27T00:36:00Z", "max_date": "2020-08-02T22:24:00Z", "count_points": 13, "latitude": 48.47738, "longitude": 39.63299, "city": "Molodohvardiys\u2019k", "images": []}, {"id": 460526, "min_date": "2020-07-27T00:36:00Z", "max_date": "2020-07-27T00:36:00Z", "count_points": 1, "latitude": 48.1627, "longitude": 39.23931, "city": "Millerovo", "images": []}, {"id": 460527, "min_date": "2020-07-27T00:36:00Z", "max_date": "2020-07-27T00:36:00Z", "count_points": 1, "latitude": 49.12979, "longitude": 35.17584, "city": "Zachepylivka", "images": []}, {"id": 460528, "min_date": "2020-07-27T00:36:00Z", "max_date": "2020-07-27T00:36:00Z", "count_points": 2, "latitude": 48.21798, "longitude": 38.92089, "city": "Krasnyy Luch", "images": []}, {"id": 460529, "min_date": "2020-07-27T10:24:00Z", "max_date": "2020-07-27T10:24:00Z", "count_points": 1, "latitude": 52.04588, "longitude": 32.63533, "city": "Semenivka", "images": []}, {"id": 460530, "min_date": "2020-07-27T10:24:00Z", "max_date": "2020-07-27T10:24:00Z", "count_points": 1, "latitude": 49.40962, "longitude": 36.01483, "city": "Chapayeve", "images": []}, {"id": 460531, "min_date": "2020-07-27T10:24:00Z", "max_date": "2020-07-27T12:06:00Z", "count_points": 2, "latitude": 45.48632, "longitude": 29.32537, "city": "Shevchenkove", "images": []}, {"id": 460532, "min_date": "2020-07-27T10:24:00Z", "max_date": "2020-07-27T10:24:00Z", "count_points": 1, "latitude": 49.26104, "longitude": 31.02876, "city": "Stebl\u00ebv", "images": []}, {"id": 460533, "min_date": "2020-07-27T10:24:00Z", "max_date": "2020-07-27T10:24:00Z", "count_points": 1, "latitude": 50.10049, "longitude": 27.17619, "city": "Shepetivka", "images": []}, {"id": 460534, "min_date": "2020-07-27T10:24:00Z", "max_date": "2020-07-27T10:24:00Z", "count_points": 1, "latitude": 50.39663, "longitude": 34.58149, "city": "Lebedyn", "images": []}, {"id": 460535, "min_date": "2020-07-27T10:24:00Z", "max_date": "2020-07-27T10:24:00Z", "count_points": 1, "latitude": 49.81698, "longitude": 34.73936, "city": "Oposhnya", "images": []}, {"id": 460536, "min_date": "2020-07-27T10:24:00Z", "max_date": "2020-07-27T10:24:00Z", "count_points": 2, "latitude": 49.65911, "longitude": 35.33009, "city": "Chutove", "images": []}, {"id": 460537, "min_date": "2020-07-27T10:24:00Z", "max_date": "2020-07-27T10:24:00Z", "count_points": 1, "latitude": 48.65255, "longitude": 29.72456, "city": "Teplyk", "images": []}, {"id": 460538, "min_date": "2020-07-27T10:24:00Z", "max_date": "2020-07-27T10:24:00Z", "count_points": 1, "latitude": 48.59335, "longitude": 28.66556, "city": "Vapnyarka", "images": []}, {"id": 460539, "min_date": "2020-07-27T10:24:00Z", "max_date": "2020-07-27T10:24:00Z", "count_points": 1, "latitude": 47.7962, "longitude": 29.29906, "city": "Slobidka", "images": []}, {"id": 460540, "min_date": "2020-07-27T10:24:00Z", "max_date": "2020-07-27T10:24:00Z", "count_points": 1, "latitude": 48.66474, "longitude": 28.58876, "city": "Tomashpil\u2019", "images": []}, {"id": 460541, "min_date": "2020-07-27T10:24:00Z", "max_date": "2020-07-27T10:24:00Z", "count_points": 1, "latitude": 47.66109, "longitude": 33.42387, "city": "Shyroke", "images": []}, {"id": 460542, "min_date": "2020-07-27T10:24:00Z", "max_date": "2020-07-27T10:24:00Z", "count_points": 2, "latitude": 49.39066, "longitude": 30.4796, "city": "Kalynove", "images": []}, {"id": 460543, "min_date": "2020-07-27T10:24:00Z", "max_date": "2020-07-27T10:24:00Z", "count_points": 1, "latitude": 49.36733, "longitude": 29.7444, "city": "Tetiiv", "images": []}, {"id": 460544, "min_date": "2020-07-27T10:24:00Z", "max_date": "2020-07-27T10:24:00Z", "count_points": 1, "latitude": 47.68928, "longitude": 37.57915, "city": "Dokuchayevs\u2019k", "images": []}, {"id": 460545, "min_date": "2020-07-27T10:24:00Z", "max_date": "2020-07-27T10:24:00Z", "count_points": 1, "latitude": 50.00373, "longitude": 35.22821, "city": "Krasnokuts\u2019k", "images": []}, {"id": 460546, "min_date": "2020-07-27T10:24:00Z", "max_date": "2020-07-27T10:24:00Z", "count_points": 1, "latitude": 49.71812, "longitude": 39.17171, "city": "Novopskov", "images": []}, {"id": 460547, "min_date": "2020-07-27T12:06:00Z", "max_date": "2020-07-28T11:48:00Z", "count_points": 10, "latitude": 48.52056, "longitude": 28.96654, "city": "Kryzhopil\u2019", "images": []}, {"id": 460548, "min_date": "2020-07-27T22:36:00Z", "max_date": "2020-08-02T22:24:00Z", "count_points": 3, "latitude": 48.25022, "longitude": 37.29021, "city": "Myrnohrad", "images": []}, {"id": 460549, "min_date": "2020-07-27T22:36:00Z", "max_date": "2020-07-27T22:36:00Z", "count_points": 1, "latitude": 48.08805, "longitude": 38.40109, "city": "Shakhtars\u2019k", "images": []}, {"id": 460550, "min_date": "2020-07-27T22:36:00Z", "max_date": "2020-07-29T00:00:00Z", "count_points": 7, "latitude": 49.18523, "longitude": 35.98507, "city": "Sakhnovshchyna", "images": []}, {"id": 460551, "min_date": "2020-07-27T22:36:00Z", "max_date": "2020-07-27T22:36:00Z", "count_points": 1, "latitude": 48.50187, "longitude": 36.94773, "city": "Novodonets\u2019ke", "images": []}, {"id": 460552, "min_date": "2020-07-27T22:36:00Z", "max_date": "2020-07-27T22:36:00Z", "count_points": 1, "latitude": 48.46279, "longitude": 33.05403, "city": "Novyy Starodub", "images": []}, {"id": 460553, "min_date": "2020-07-27T22:36:00Z", "max_date": "2020-07-28T00:18:00Z", "count_points": 2, "latitude": 49.21319, "longitude": 35.4054, "city": "Zachepylivka", "images": []}, {"id": 460554, "min_date": "2020-07-27T22:36:00Z", "max_date": "2020-07-27T22:36:00Z", "count_points": 4, "latitude": 50.45186, "longitude": 33.84417, "city": "Lypova Dolyna", "images": []}, {"id": 460555, "min_date": "2020-07-27T22:36:00Z", "max_date": "2020-07-29T23:42:00Z", "count_points": 4, "latitude": 48.5622, "longitude": 37.07555, "city": "Dobropillya", "images": []}, {"id": 460556, "min_date": "2020-07-27T22:36:00Z", "max_date": "2020-07-27T22:36:00Z", "count_points": 1, "latitude": 48.19386, "longitude": 37.12578, "city": "Krasnoarmiys\u2019k", "images": []}, {"id": 460557, "min_date": "2020-07-27T22:36:00Z", "max_date": "2020-07-28T10:06:00Z", "count_points": 5, "latitude": 49.3841, "longitude": 35.34757, "city": "Krasnohrad", "images": []}, {"id": 460558, "min_date": "2020-07-27T22:36:00Z", "max_date": "2020-07-28T00:18:00Z", "count_points": 3, "latitude": 48.54031, "longitude": 36.96184, "city": "Novodonets\u2019ke", "images": []}, {"id": 460559, "min_date": "2020-07-27T22:36:00Z", "max_date": "2020-07-27T22:36:00Z", "count_points": 5, "latitude": 48.50158, "longitude": 37.63151, "city": "Kostyantynivka", "images": []}, {"id": 460560, "min_date": "2020-07-27T22:36:00Z", "max_date": "2020-07-27T22:36:00Z", "count_points": 2, "latitude": 48.00405, "longitude": 39.54859, "city": "Sverdlovs\u2019k", "images": []}, {"id": 460561, "min_date": "2020-07-27T22:36:00Z", "max_date": "2020-07-28T00:18:00Z", "count_points": 5, "latitude": 49.98512, "longitude": 37.11007, "city": "Pechenihy", "images": []}, {"id": 460562, "min_date": "2020-07-27T22:36:00Z", "max_date": "2020-07-28T10:06:00Z", "count_points": 3, "latitude": 48.62103, "longitude": 33.69637, "city": "Piatykhatky", "images": []}, {"id": 460563, "min_date": "2020-07-28T00:18:00Z", "max_date": "2020-07-30T11:06:00Z", "count_points": 6, "latitude": 47.59052, "longitude": 37.54463, "city": "Volnovakha", "images": []}, {"id": 460564, "min_date": "2020-07-28T00:18:00Z", "max_date": "2020-07-28T00:18:00Z", "count_points": 1, "latitude": 48.81536, "longitude": 31.88587, "city": "Kapitanivka", "images": []}, {"id": 460565, "min_date": "2020-07-28T00:18:00Z", "max_date": "2020-07-30T23:24:00Z", "count_points": 3, "latitude": 48.54479, "longitude": 33.88066, "city": "Vyshneve", "images": []}, {"id": 460566, "min_date": "2020-07-28T00:18:00Z", "max_date": "2020-07-28T00:18:00Z", "count_points": 2, "latitude": 48.54216, "longitude": 36.84611, "city": "Novodonets\u2019ke", "images": []}, {"id": 460567, "min_date": "2020-07-28T00:18:00Z", "max_date": "2020-07-28T00:18:00Z", "count_points": 2, "latitude": 48.79444, "longitude": 34.91289, "city": "Mahdalynivka", "images": []}, {"id": 460568, "min_date": "2020-07-28T00:18:00Z", "max_date": "2020-07-28T00:18:00Z", "count_points": 1, "latitude": 48.06787, "longitude": 28.93142, "city": "Zagnitkiv", "images": []}, {"id": 460569, "min_date": "2020-07-28T00:18:00Z", "max_date": "2020-07-28T00:18:00Z", "count_points": 3, "latitude": 48.69783, "longitude": 35.20745, "city": "Novomoskovs\u2019k", "images": []}, {"id": 460570, "min_date": "2020-07-28T00:18:00Z", "max_date": "2020-08-02T10:12:00Z", "count_points": 3, "latitude": 48.63534, "longitude": 36.83457, "city": "Oleksandrivka", "images": []}, {"id": 460571, "min_date": "2020-07-28T00:18:00Z", "max_date": "2020-07-28T00:18:00Z", "count_points": 1, "latitude": 48.29366, "longitude": 36.32006, "city": "Petropavlivka", "images": []}, {"id": 460572, "min_date": "2020-07-28T00:18:00Z", "max_date": "2020-07-30T23:24:00Z", "count_points": 2, "latitude": 48.74572, "longitude": 30.1627, "city": "Uman\u2019", "images": []}, {"id": 460573, "min_date": "2020-07-28T00:18:00Z", "max_date": "2020-07-28T00:18:00Z", "count_points": 2, "latitude": 50.87817, "longitude": 34.88469, "city": "Sumy", "images": []}, {"id": 460574, "min_date": "2020-07-28T00:18:00Z", "max_date": "2020-07-28T00:18:00Z", "count_points": 1, "latitude": 48.82973, "longitude": 27.19864, "city": "Nova Ushytsya", "images": []}, {"id": 460575, "min_date": "2020-07-28T00:18:00Z", "max_date": "2020-07-28T00:18:00Z", "count_points": 2, "latitude": 47.51018, "longitude": 37.08158, "city": "Rozivka", "images": []}, {"id": 460576, "min_date": "2020-07-28T00:18:00Z", "max_date": "2020-07-28T00:18:00Z", "count_points": 1, "latitude": 48.50559, "longitude": 39.41454, "city": "Luhansk", "images": []}, {"id": 460577, "min_date": "2020-07-28T00:18:00Z", "max_date": "2020-07-31T01:00:00Z", "count_points": 3, "latitude": 48.64302, "longitude": 29.44158, "city": "Haisyn", "images": []}, {"id": 460578, "min_date": "2020-07-28T00:18:00Z", "max_date": "2020-07-28T00:18:00Z", "count_points": 1, "latitude": 48.04947, "longitude": 32.54364, "city": "Ustynivka", "images": []}, {"id": 460579, "min_date": "2020-07-28T00:18:00Z", "max_date": "2020-07-28T00:18:00Z", "count_points": 1, "latitude": 48.32159, "longitude": 30.49724, "city": "Holovanivs\u2019k", "images": []}, {"id": 460580, "min_date": "2020-07-28T10:06:00Z", "max_date": "2020-07-28T10:06:00Z", "count_points": 3, "latitude": 48.54342, "longitude": 33.76984, "city": "Piatykhatky", "images": []}, {"id": 460581, "min_date": "2020-07-28T10:06:00Z", "max_date": "2020-07-28T10:06:00Z", "count_points": 6, "latitude": 48.84558, "longitude": 35.83508, "city": "Yur\u201dyivka", "images": []}, {"id": 460582, "min_date": "2020-07-28T10:06:00Z", "max_date": "2020-07-28T10:06:00Z", "count_points": 1, "latitude": 48.27876, "longitude": 29.49994, "city": "Bershad", "images": []}, {"id": 460583, "min_date": "2020-07-28T10:06:00Z", "max_date": "2020-07-28T10:06:00Z", "count_points": 1, "latitude": 48.75727, "longitude": 31.5879, "city": "Novomyrhorod", "images": []}, {"id": 460584, "min_date": "2020-07-28T10:06:00Z", "max_date": "2020-07-28T10:06:00Z", "count_points": 1, "latitude": 50.17697, "longitude": 33.16161, "city": "Sencha", "images": []}, {"id": 460585, "min_date": "2020-07-28T10:06:00Z", "max_date": "2020-08-02T10:12:00Z", "count_points": 6, "latitude": 47.60337, "longitude": 37.64332, "city": "Dokuchayevs\u2019k", "images": []}, {"id": 460586, "min_date": "2020-07-28T10:06:00Z", "max_date": "2020-07-28T10:06:00Z", "count_points": 1, "latitude": 49.17967, "longitude": 35.06389, "city": "Zachepylivka", "images": []}, {"id": 460587, "min_date": "2020-07-28T10:06:00Z", "max_date": "2020-07-28T10:06:00Z", "count_points": 1, "latitude": 47.15044, "longitude": 30.35891, "city": "Ivanivka", "images": []}, {"id": 460588, "min_date": "2020-07-28T10:06:00Z", "max_date": "2020-07-28T10:06:00Z", "count_points": 1, "latitude": 47.94091, "longitude": 29.75393, "city": "Balta", "images": []}, {"id": 460589, "min_date": "2020-07-28T10:06:00Z", "max_date": "2020-07-28T10:06:00Z", "count_points": 3, "latitude": 48.27672, "longitude": 30.54809, "city": "Pobugskoye", "images": []}, {"id": 460590, "min_date": "2020-07-28T10:06:00Z", "max_date": "2020-07-28T10:06:00Z", "count_points": 2, "latitude": 48.9447, "longitude": 39.38175, "city": "Shchastya", "images": []}, {"id": 460591, "min_date": "2020-07-28T10:06:00Z", "max_date": "2020-07-28T10:06:00Z", "count_points": 1, "latitude": 47.21813, "longitude": 37.99156, "city": "Bezimenne", "images": []}, {"id": 460592, "min_date": "2020-07-28T10:06:00Z", "max_date": "2020-07-28T10:06:00Z", "count_points": 1, "latitude": 48.88531, "longitude": 35.95066, "city": "Yur\u201dyivka", "images": []}, {"id": 460593, "min_date": "2020-07-28T10:06:00Z", "max_date": "2020-07-28T10:06:00Z", "count_points": 1, "latitude": 46.99108, "longitude": 37.30077, "city": "Yalta", "images": []}, {"id": 460594, "min_date": "2020-07-28T10:06:00Z", "max_date": "2020-07-28T10:06:00Z", "count_points": 1, "latitude": 47.55444, "longitude": 37.11631, "city": "Rozivka", "images": []}, {"id": 460595, "min_date": "2020-07-28T10:06:00Z", "max_date": "2020-07-28T10:06:00Z", "count_points": 1, "latitude": 50.93477, "longitude": 31.89861, "city": "Talalayivka", "images": []}, {"id": 460596, "min_date": "2020-07-28T10:06:00Z", "max_date": "2020-07-28T10:06:00Z", "count_points": 1, "latitude": 49.14383, "longitude": 29.03595, "city": "Lypovets", "images": []}, {"id": 460597, "min_date": "2020-07-28T10:06:00Z", "max_date": "2020-07-28T10:06:00Z", "count_points": 1, "latitude": 49.2416, "longitude": 29.6611, "city": "Tetiiv", "images": []}, {"id": 460598, "min_date": "2020-07-28T10:06:00Z", "max_date": "2020-07-28T10:06:00Z", "count_points": 4, "latitude": 47.24088, "longitude": 37.61028, "city": "Sartana", "images": []}, {"id": 460599, "min_date": "2020-07-28T10:06:00Z", "max_date": "2020-07-28T10:06:00Z", "count_points": 3, "latitude": 47.179, "longitude": 37.60764, "city": "Sartana", "images": []}, {"id": 460600, "min_date": "2020-07-28T10:06:00Z", "max_date": "2020-07-28T10:06:00Z", "count_points": 1, "latitude": 50.25386, "longitude": 34.64348, "city": "Kotel\u2019va", "images": []}, {"id": 460601, "min_date": "2020-07-28T10:06:00Z", "max_date": "2020-07-28T10:06:00Z", "count_points": 2, "latitude": 47.94666, "longitude": 37.10179, "city": "Kurakhovo", "images": []}, {"id": 460602, "min_date": "2020-07-28T10:06:00Z", "max_date": "2020-07-28T10:06:00Z", "count_points": 1, "latitude": 48.08723, "longitude": 28.96292, "city": "Zagnitkiv", "images": []}, {"id": 460603, "min_date": "2020-07-28T10:06:00Z", "max_date": "2020-08-01T08:48:00Z", "count_points": 4, "latitude": 49.09379, "longitude": 35.94953, "city": "Sakhnovshchyna", "images": []}, {"id": 460604, "min_date": "2020-07-28T10:06:00Z", "max_date": "2020-07-28T10:06:00Z", "count_points": 1, "latitude": 48.49273, "longitude": 33.67604, "city": "Piatykhatky", "images": []}, {"id": 460605, "min_date": "2020-07-28T11:48:00Z", "max_date": "2020-07-28T11:48:00Z", "count_points": 2, "latitude": 51.63718, "longitude": 34.07622, "city": "Shalyhyne", "images": []}, {"id": 460606, "min_date": "2020-07-28T11:48:00Z", "max_date": "2020-07-28T11:48:00Z", "count_points": 3, "latitude": 50.94483, "longitude": 33.84185, "city": "Nedryhayliv", "images": []}, {"id": 460607, "min_date": "2020-07-28T11:48:00Z", "max_date": "2020-07-28T11:48:00Z", "count_points": 1, "latitude": 48.62274, "longitude": 27.55583, "city": "Murovani Kurylivtsi", "images": []}, {"id": 460608, "min_date": "2020-07-28T11:48:00Z", "max_date": "2020-07-28T11:48:00Z", "count_points": 1, "latitude": 47.69637, "longitude": 30.46243, "city": "Vradiyivka", "images": []}, {"id": 460609, "min_date": "2020-07-28T11:48:00Z", "max_date": "2020-07-28T11:48:00Z", "count_points": 5, "latitude": 49.43473, "longitude": 30.43525, "city": "Kalynove", "images": []}, {"id": 460610, "min_date": "2020-07-28T22:18:00Z", "max_date": "2020-08-02T22:24:00Z", "count_points": 9, "latitude": 49.17744, "longitude": 37.78157, "city": "Krasnyy Lyman", "images": []}, {"id": 460611, "min_date": "2020-07-29T00:00:00Z", "max_date": "2020-07-30T23:24:00Z", "count_points": 6, "latitude": 48.69387, "longitude": 36.24471, "city": "Lozova", "images": []}, {"id": 460612, "min_date": "2020-07-29T00:00:00Z", "max_date": "2020-07-29T00:00:00Z", "count_points": 1, "latitude": 48.27211, "longitude": 29.34841, "city": "Chechelnyk", "images": []}, {"id": 460613, "min_date": "2020-07-29T00:00:00Z", "max_date": "2020-07-29T00:00:00Z", "count_points": 2, "latitude": 49.24385, "longitude": 35.21271, "city": "Zachepylivka", "images": []},