[{"id": 440689, "min_date": "2020-01-07T11:35:00Z", "max_date": "2020-01-07T11:55:00Z", "count_points": 5, "latitude": 50.64612, "longitude": 24.13544, "city": "Novovolyns\u2019k", "images": []}, {"id": 440691, "min_date": "2020-01-06T10:33:00Z", "max_date": "2020-01-07T10:14:00Z", "count_points": 2, "latitude": 49.53144, "longitude": 37.09991, "city": "Savyntsi", "images": []}, {"id": 440692, "min_date": "2020-01-07T10:13:00Z", "max_date": "2020-01-07T10:13:00Z", "count_points": 1, "latitude": 46.18526, "longitude": 33.3182, "city": "Kalanchak", "images": []}, {"id": 440693, "min_date": "2020-01-07T10:13:00Z", "max_date": "2020-01-07T10:13:00Z", "count_points": 1, "latitude": 48.12277, "longitude": 33.59665, "city": "Zhovti Vody", "images": []}, {"id": 440694, "min_date": "2020-01-08T00:08:00Z", "max_date": "2020-01-08T00:08:00Z", "count_points": 1, "latitude": 47.75612, "longitude": 37.85225, "city": "Dokuchayevs\u2019k", "images": []}, {"id": 440695, "min_date": "2020-01-08T00:08:00Z", "max_date": "2020-01-08T00:08:00Z", "count_points": 1, "latitude": 48.95993, "longitude": 29.21267, "city": "Illintsi", "images": []}, {"id": 440697, "min_date": "2020-01-08T11:35:00Z", "max_date": "2020-01-08T11:35:00Z", "count_points": 1, "latitude": 47.47452, "longitude": 31.98537, "city": "Yelanets\u2019", "images": []}, {"id": 440698, "min_date": "2020-01-08T11:35:00Z", "max_date": "2020-01-08T11:35:00Z", "count_points": 1, "latitude": 47.21534, "longitude": 30.81868, "city": "Berezivka", "images": []}, {"id": 440699, "min_date": "2020-01-08T11:35:00Z", "max_date": "2020-01-08T11:35:00Z", "count_points": 1, "latitude": 45.85427, "longitude": 33.80338, "city": "Ilyinka", "images": []}, {"id": 440700, "min_date": "2020-01-08T11:35:00Z", "max_date": "2020-01-08T11:35:00Z", "count_points": 1, "latitude": 46.75131, "longitude": 32.62971, "city": "Chornobayivka", "images": []}, {"id": 440701, "min_date": "2020-01-11T10:38:00Z", "max_date": "2020-01-11T10:38:00Z", "count_points": 7, "latitude": 45.56046, "longitude": 33.88516, "city": "Voykovo", "images": []}]