[{"id": 440728, "min_date": "2020-01-21T10:01:00Z", "max_date": "2020-01-21T10:52:00Z", "count_points": 5, "latitude": 51.03569, "longitude": 28.16711, "city": "Novi Bilokorovychi", "images": []}, {"id": 440729, "min_date": "2020-01-21T11:47:00Z", "max_date": "2020-01-21T10:52:00Z", "count_points": 4, "latitude": 50.65773, "longitude": 24.4295, "city": "Ivanychi", "images": []}, {"id": 440730, "min_date": "2020-01-21T11:47:00Z", "max_date": "2020-01-21T11:47:00Z", "count_points": 1, "latitude": 51.8616, "longitude": 25.1785, "city": "Kamin-Kashyrskyi", "images": []}, {"id": 440731, "min_date": "2020-01-22T09:07:00Z", "max_date": "2020-01-22T09:07:00Z", "count_points": 1, "latitude": 48.8922, "longitude": 24.7738, "city": "Cherniyiv", "images": []}, {"id": 440732, "min_date": "2020-01-22T09:07:00Z", "max_date": "2020-01-22T09:07:00Z", "count_points": 2, "latitude": 49.3441, "longitude": 24.2477, "city": "Khodoriv", "images": []}, {"id": 440733, "min_date": "2020-01-22T09:07:00Z", "max_date": "2020-01-22T09:07:00Z", "count_points": 1, "latitude": 48.9777, "longitude": 24.2765, "city": "Novytsya", "images": []}, {"id": 440734, "min_date": "2020-01-22T10:51:00Z", "max_date": "2020-01-22T10:51:00Z", "count_points": 1, "latitude": 47.5338, "longitude": 30.4181, "city": "Shyryayeve", "images": []}, {"id": 440735, "min_date": "2020-01-22T10:51:00Z", "max_date": "2020-01-25T11:16:00Z", "count_points": 4, "latitude": 47.73119, "longitude": 29.93779, "city": "Ananyiv Pershyi", "images": []}, {"id": 440736, "min_date": "2020-01-22T10:51:00Z", "max_date": "2020-01-22T10:51:00Z", "count_points": 1, "latitude": 47.653, "longitude": 29.384, "city": "Okny", "images": []}, {"id": 440737, "min_date": "2020-01-22T10:51:00Z", "max_date": "2020-01-22T10:51:00Z", "count_points": 1, "latitude": 46.7592, "longitude": 31.8494, "city": "Parutyne", "images": []}, {"id": 440738, "min_date": "2020-01-22T10:51:00Z", "max_date": "2020-01-22T10:51:00Z", "count_points": 1, "latitude": 47.0377, "longitude": 32.1606, "city": "Mykolayiv", "images": []}, {"id": 440739, "min_date": "2020-01-23T08:12:00Z", "max_date": "2020-01-26T10:57:00Z", "count_points": 39, "latitude": 46.51573, "longitude": 32.45901, "city": "Hola Prystan\u2019", "images": []}, {"id": 440740, "min_date": "2020-01-23T09:50:00Z", "max_date": "2020-01-23T10:13:00Z", "count_points": 5, "latitude": 46.77838, "longitude": 32.79316, "city": "Oleksandrivka", "images": []}, {"id": 440741, "min_date": "2020-01-24T08:54:00Z", "max_date": "2020-01-24T00:08:00Z", "count_points": 4, "latitude": 49.0439, "longitude": 29.40212, "city": "Dashiv", "images": []}, {"id": 440742, "min_date": "2020-01-24T08:54:00Z", "max_date": "2020-01-24T08:54:00Z", "count_points": 2, "latitude": 48.1442, "longitude": 29.9957, "city": "Zavallya", "images": []}, {"id": 440743, "min_date": "2020-01-24T08:55:00Z", "max_date": "2020-01-25T11:16:00Z", "count_points": 33, "latitude": 46.4814, "longitude": 30.1092, "city": "Bilyayivka", "images": []}, {"id": 440744, "min_date": "2020-01-24T10:39:00Z", "max_date": "2020-01-24T09:55:00Z", "count_points": 3, "latitude": 47.86554, "longitude": 33.21998, "city": "Shyroke", "images": []}, {"id": 440745, "min_date": "2020-01-24T10:39:00Z", "max_date": "2020-01-24T10:39:00Z", "count_points": 1, "latitude": 47.4284, "longitude": 29.995, "city": "Zatyshshya", "images": []}, {"id": 440746, "min_date": "2020-01-24T12:17:00Z", "max_date": "2020-01-26T10:58:00Z", "count_points": 12, "latitude": 49.52542, "longitude": 23.67134, "city": "Komarno", "images": []}, {"id": 440747, "min_date": "2020-01-24T12:17:00Z", "max_date": "2020-01-24T11:36:00Z", "count_points": 2, "latitude": 48.89951, "longitude": 24.16746, "city": "Rozhnyativ", "images": []}, {"id": 440748, "min_date": "2020-01-24T20:03:00Z", "max_date": "2020-01-24T23:50:00Z", "count_points": 2, "latitude": 47.22072, "longitude": 30.83839, "city": "Berezivka", "images": []}, {"id": 440749, "min_date": "2020-01-25T09:37:00Z", "max_date": "2020-01-25T09:37:00Z", "count_points": 1, "latitude": 49.103, "longitude": 23.6249, "city": "Verkhnie Synevydne", "images": []}, {"id": 440750, "min_date": "2020-01-25T09:37:00Z", "max_date": "2020-01-25T09:37:00Z", "count_points": 1, "latitude": 49.3632, "longitude": 26.6528, "city": "Narkevychi", "images": []}, {"id": 440751, "min_date": "2020-01-25T09:37:00Z", "max_date": "2020-01-25T09:37:00Z", "count_points": 1, "latitude": 48.265, "longitude": 30.1312, "city": "Blahovishchens\u2019ke", "images": []}, {"id": 440752, "min_date": "2020-01-25T09:38:00Z", "max_date": "2020-01-25T09:38:00Z", "count_points": 1, "latitude": 46.1199, "longitude": 29.1092, "city": "Tarutyne", "images": []}, {"id": 440753, "min_date": "2020-01-25T11:21:00Z", "max_date": "2020-01-25T11:16:00Z", "count_points": 5, "latitude": 45.70306, "longitude": 28.63732, "city": "Bolhrad", "images": []}, {"id": 440754, "min_date": "2020-01-25T11:21:00Z", "max_date": "2020-01-25T11:16:00Z", "count_points": 3, "latitude": 45.5855, "longitude": 28.66005, "city": "Bolhrad", "images": []}, {"id": 440755, "min_date": "2020-01-25T11:21:00Z", "max_date": "2020-01-25T11:16:00Z", "count_points": 3, "latitude": 47.6368, "longitude": 30.27421, "city": "Lyubashivka", "images": []}, {"id": 440756, "min_date": "2020-01-25T11:21:00Z", "max_date": "2020-01-25T11:21:00Z", "count_points": 1, "latitude": 47.6434, "longitude": 29.9243, "city": "Ananyiv Pershyi", "images": []}, {"id": 440757, "min_date": "2020-01-25T11:22:00Z", "max_date": "2020-01-25T11:17:00Z", "count_points": 2, "latitude": 49.46826, "longitude": 26.98826, "city": "Khmelnytskyi", "images": []}, {"id": 440758, "min_date": "2020-01-25T11:22:00Z", "max_date": "2020-01-25T11:16:00Z", "count_points": 3, "latitude": 47.95726, "longitude": 31.78911, "city": "Brats\u2019ke", "images": []}, {"id": 440759, "min_date": "2020-01-25T11:22:00Z", "max_date": "2020-01-25T11:16:00Z", "count_points": 4, "latitude": 48.17001, "longitude": 34.77762, "city": "Solone", "images": []}, {"id": 440760, "min_date": "2020-01-25T11:22:00Z", "max_date": "2020-01-25T11:16:00Z", "count_points": 2, "latitude": 48.73393, "longitude": 31.32288, "city": "Shpola", "images": []}, {"id": 440761, "min_date": "2020-01-25T11:22:00Z", "max_date": "2020-01-25T11:16:00Z", "count_points": 3, "latitude": 48.35802, "longitude": 26.35977, "city": "Klishkivtsi", "images": []}, {"id": 440762, "min_date": "2020-01-25T11:22:00Z", "max_date": "2020-01-25T11:22:00Z", "count_points": 2, "latitude": 48.6662, "longitude": 28.92495, "city": "Tulchyn", "images": []}, {"id": 440763, "min_date": "2020-01-25T11:22:00Z", "max_date": "2020-01-25T11:16:00Z", "count_points": 3, "latitude": 48.98498, "longitude": 29.98176, "city": "Khrystynivka", "images": []}, {"id": 440764, "min_date": "2020-01-25T11:22:00Z", "max_date": "2020-01-25T11:16:00Z", "count_points": 3, "latitude": 48.90364, "longitude": 28.44046, "city": "Tyvriv", "images": []}, {"id": 440765, "min_date": "2020-01-25T11:22:00Z", "max_date": "2020-01-25T11:17:00Z", "count_points": 3, "latitude": 49.16148, "longitude": 27.3399, "city": "Derazhnya", "images": []}, {"id": 440766, "min_date": "2020-01-25T11:22:00Z", "max_date": "2020-01-25T11:17:00Z", "count_points": 3, "latitude": 49.40565, "longitude": 28.66578, "city": "Nova Pryluka", "images": []}, {"id": 440767, "min_date": "2020-01-25T11:22:00Z", "max_date": "2020-01-25T11:17:00Z", "count_points": 3, "latitude": 49.76784, "longitude": 26.9987, "city": "Krasyliv", "images": []}, {"id": 440768, "min_date": "2020-01-25T11:22:00Z", "max_date": "2020-01-25T11:17:00Z", "count_points": 3, "latitude": 49.52433, "longitude": 23.73934, "city": "Medenychi", "images": []}, {"id": 440769, "min_date": "2020-01-25T11:22:00Z", "max_date": "2020-01-25T11:17:00Z", "count_points": 3, "latitude": 49.94749, "longitude": 26.38014, "city": "Lyakhovtsy", "images": []}, {"id": 440770, "min_date": "2020-01-26T08:42:00Z", "max_date": "2020-01-26T08:42:00Z", "count_points": 2, "latitude": 49.29845, "longitude": 33.2334, "city": "Hlobyne", "images": []}, {"id": 440771, "min_date": "2020-01-21T10:50:00Z", "max_date": "2020-01-21T10:50:00Z", "count_points": 1, "latitude": 45.43387, "longitude": 29.08788, "city": "Kiliya", "images": []}, {"id": 440772, "min_date": "2020-01-21T10:50:00Z", "max_date": "2020-01-21T10:50:00Z", "count_points": 1, "latitude": 45.39159, "longitude": 28.88651, "city": "Izmayil", "images": []}, {"id": 440773, "min_date": "2020-01-21T10:50:00Z", "max_date": "2020-01-21T10:50:00Z", "count_points": 1, "latitude": 45.45055, "longitude": 29.54466, "city": "Vylkove", "images": []}, {"id": 440774, "min_date": "2020-01-21T10:50:00Z", "max_date": "2020-01-21T10:50:00Z", "count_points": 1, "latitude": 46.1745, "longitude": 33.25754, "city": "Kalanchak", "images": []}, {"id": 440775, "min_date": "2020-01-21T10:51:00Z", "max_date": "2020-01-21T10:51:00Z", "count_points": 3, "latitude": 48.40749, "longitude": 31.27236, "city": "Dobrovelychkivka", "images": []}, {"id": 440776, "min_date": "2020-01-21T10:51:00Z", "max_date": "2020-01-21T10:51:00Z", "count_points": 2, "latitude": 47.18375, "longitude": 30.22869, "city": "Shyryayeve", "images": []}, {"id": 440777, "min_date": "2020-01-21T10:51:00Z", "max_date": "2020-01-21T10:51:00Z", "count_points": 2, "latitude": 47.44127, "longitude": 30.26095, "city": "Shyryayeve", "images": []}, {"id": 440778, "min_date": "2020-01-21T10:51:00Z", "max_date": "2020-01-21T10:51:00Z", "count_points": 1, "latitude": 46.6977, "longitude": 31.39902, "city": "Rybakivka", "images": []}, {"id": 440779, "min_date": "2020-01-21T10:51:00Z", "max_date": "2020-01-21T10:51:00Z", "count_points": 1, "latitude": 47.01428, "longitude": 29.6737, "city": "Velykoploske", "images": []}, {"id": 440780, "min_date": "2020-01-21T10:51:00Z", "max_date": "2020-01-21T10:51:00Z", "count_points": 1, "latitude": 48.6803, "longitude": 28.87796, "city": "Tulchyn", "images": []}, {"id": 440781, "min_date": "2020-01-21T10:51:00Z", "max_date": "2020-01-21T10:51:00Z", "count_points": 1, "latitude": 49.16425, "longitude": 27.75346, "city": "Bar", "images": []}, {"id": 440782, "min_date": "2020-01-21T10:51:00Z", "max_date": "2020-01-21T10:51:00Z", "count_points": 2, "latitude": 48.70699, "longitude": 28.28679, "city": "Sharhorod", "images": []}, {"id": 440783, "min_date": "2020-01-21T10:51:00Z", "max_date": "2020-01-21T10:51:00Z", "count_points": 1, "latitude": 49.02255, "longitude": 27.65912, "city": "Bar", "images": []}, {"id": 440784, "min_date": "2020-01-21T10:51:00Z", "max_date": "2020-01-21T10:51:00Z", "count_points": 1, "latitude": 47.08609, "longitude": 29.83622, "city": "Velyka Mykhaylivka", "images": []}, {"id": 440785, "min_date": "2020-01-21T10:51:00Z", "max_date": "2020-01-21T10:51:00Z", "count_points": 1, "latitude": 47.43162, "longitude": 30.14307, "city": "Shyryayeve", "images": []}, {"id": 440786, "min_date": "2020-01-21T10:51:00Z", "max_date": "2020-01-21T10:51:00Z", "count_points": 1, "latitude": 48.60422, "longitude": 28.35003, "city": "Tomashpil\u2019", "images": []}, {"id": 440787, "min_date": "2020-01-21T10:51:00Z", "max_date": "2020-01-21T10:51:00Z", "count_points": 1, "latitude": 49.82567, "longitude": 32.65467, "city": "Orzhytsya", "images": []}, {"id": 440788, "min_date": "2020-01-21T10:51:00Z", "max_date": "2020-01-21T10:51:00Z", "count_points": 1, "latitude": 48.46344, "longitude": 31.63413, "city": "Zlynka", "images": []}, {"id": 440789, "min_date": "2020-01-21T10:51:00Z", "max_date": "2020-01-21T10:51:00Z", "count_points": 1, "latitude": 49.17991, "longitude": 30.86815, "city": "Lysyanka", "images": []}, {"id": 440790, "min_date": "2020-01-21T10:51:00Z", "max_date": "2020-01-21T10:51:00Z", "count_points": 1, "latitude": 48.56489, "longitude": 24.68956, "city": "Krasna", "images": []}, {"id": 440791, "min_date": "2020-01-21T10:52:00Z", "max_date": "2020-01-21T10:52:00Z", "count_points": 1, "latitude": 49.58605, "longitude": 26.75034, "city": "Narkevychi", "images": []}, {"id": 440792, "min_date": "2020-01-21T10:52:00Z", "max_date": "2020-01-21T10:52:00Z", "count_points": 1, "latitude": 50.11453, "longitude": 29.66375, "city": "Kornyn", "images": []}, {"id": 440793, "min_date": "2020-01-21T10:52:00Z", "max_date": "2020-01-21T10:52:00Z", "count_points": 1, "latitude": 51.12843, "longitude": 29.75864, "city": "Krasyatychi", "images": []}, {"id": 440794, "min_date": "2020-01-21T10:52:00Z", "max_date": "2020-01-21T10:52:00Z", "count_points": 2, "latitude": 49.37336, "longitude": 26.23537, "city": "Volochysk", "images": []}, {"id": 440795, "min_date": "2020-01-21T10:52:00Z", "max_date": "2020-01-21T10:52:00Z", "count_points": 1, "latitude": 49.36518, "longitude": 25.71169, "city": "Terebovlya", "images": []}, {"id": 440796, "min_date": "2020-01-21T10:52:00Z", "max_date": "2020-01-21T10:52:00Z", "count_points": 1, "latitude": 49.92887, "longitude": 29.50794, "city": "Popilnya", "images": []}, {"id": 440797, "min_date": "2020-01-21T10:52:00Z", "max_date": "2020-01-21T10:52:00Z", "count_points": 1, "latitude": 50.18059, "longitude": 30.18392, "city": "Borova", "images": []}, {"id": 440798, "min_date": "2020-01-21T10:52:00Z", "max_date": "2020-01-21T12:33:00Z", "count_points": 2, "latitude": 49.16601, "longitude": 23.95941, "city": "Morshyn", "images": []}, {"id": 440799, "min_date": "2020-01-21T10:52:00Z", "max_date": "2020-01-21T10:52:00Z", "count_points": 1, "latitude": 50.25524, "longitude": 31.49694, "city": "Korniyivka", "images": []}, {"id": 440800, "min_date": "2020-01-21T10:52:00Z", "max_date": "2020-01-21T10:52:00Z", "count_points": 1, "latitude": 50.5949, "longitude": 25.3782, "city": "Lutsk", "images": []}, {"id": 440801, "min_date": "2020-01-21T10:52:00Z", "max_date": "2020-01-21T10:52:00Z", "count_points": 1, "latitude": 51.14487, "longitude": 26.06753, "city": "Volodymyrets\u2019", "images": []}, {"id": 440802, "min_date": "2020-01-21T10:52:00Z", "max_date": "2020-01-21T10:52:00Z", "count_points": 1, "latitude": 50.67918, "longitude": 25.08539, "city": "Lutsk", "images": []}, {"id": 440803, "min_date": "2020-01-21T10:52:00Z", "max_date": "2020-01-21T10:52:00Z", "count_points": 1, "latitude": 51.30077, "longitude": 26.13438, "city": "Volodymyrets\u2019", "images": []}, {"id": 440804, "min_date": "2020-01-21T10:52:00Z", "max_date": "2020-01-21T10:52:00Z", "count_points": 1, "latitude": 50.69216, "longitude": 29.19743, "city": "Malyn", "images": []}, {"id": 440805, "min_date": "2020-01-21T10:52:00Z", "max_date": "2020-01-21T10:52:00Z", "count_points": 1, "latitude": 49.37141, "longitude": 24.49893, "city": "Rohatyn", "images": []}, {"id": 440806, "min_date": "2020-01-21T10:52:00Z", "max_date": "2020-01-21T10:52:00Z", "count_points": 2, "latitude": 50.65674, "longitude": 28.60248, "city": "Nova Borova", "images": []}, {"id": 440807, "min_date": "2020-01-21T10:52:00Z", "max_date": "2020-01-21T10:52:00Z", "count_points": 1, "latitude": 49.26421, "longitude": 26.94335, "city": "Yarmolyntsi", "images": []}, {"id": 440808, "min_date": "2020-01-21T10:52:00Z", "max_date": "2020-01-21T10:52:00Z", "count_points": 1, "latitude": 50.84104, "longitude": 28.51194, "city": "Korosten\u2019", "images": []}, {"id": 440809, "min_date": "2020-01-21T10:52:00Z", "max_date": "2020-01-21T10:52:00Z", "count_points": 1, "latitude": 50.16882, "longitude": 31.34709, "city": "Pereyaslav-Khmel\u2019nyts\u2019kyy", "images": []}, {"id": 440810, "min_date": "2020-01-21T10:52:00Z", "max_date": "2020-01-21T10:52:00Z", "count_points": 1, "latitude": 50.6067, "longitude": 28.66269, "city": "Nova Borova", "images": []}, {"id": 440811, "min_date": "2020-01-21T10:52:00Z", "max_date": "2020-01-21T10:52:00Z", "count_points": 1, "latitude": 50.42436, "longitude": 25.72932, "city": "Dubno", "images": []}, {"id": 440812, "min_date": "2020-01-21T23:05:00Z", "max_date": "2020-01-22T00:46:00Z", "count_points": 5, "latitude": 49.88785, "longitude": 24.7378, "city": "Krasne", "images": []}, {"id": 440813, "min_date": "2020-01-21T23:05:00Z", "max_date": "2020-01-21T23:05:00Z", "count_points": 2, "latitude": 48.44922, "longitude": 29.20846, "city": "Obodivka", "images": []}, {"id": 440814, "min_date": "2020-01-22T00:46:00Z", "max_date": "2020-01-22T00:46:00Z", "count_points": 1, "latitude": 48.62007, "longitude": 27.7389, "city": "Vendychany", "images": []}, {"id": 440815, "min_date": "2020-01-22T00:46:00Z", "max_date": "2020-01-24T11:36:00Z", "count_points": 2, "latitude": 49.6711, "longitude": 23.24893, "city": "Pnikut", "images": []}, {"id": 440816, "min_date": "2020-01-22T00:46:00Z", "max_date": "2020-01-22T00:46:00Z", "count_points": 3, "latitude": 49.56318, "longitude": 23.60003, "city": "Komarno", "images": []}, {"id": 440817, "min_date": "2020-01-22T10:31:00Z", "max_date": "2020-01-22T10:31:00Z", "count_points": 1, "latitude": 45.95972, "longitude": 34.28085, "city": "Yasnopolyanskoye", "images": []}, {"id": 440818, "min_date": "2020-01-22T10:31:00Z", "max_date": "2020-01-22T10:31:00Z", "count_points": 1, "latitude": 45.63792, "longitude": 33.70049, "city": "Stepnoye", "images": []}, {"id": 440819, "min_date": "2020-01-22T10:32:00Z", "max_date": "2020-01-22T10:32:00Z", "count_points": 1, "latitude": 46.53559, "longitude": 32.55423, "city": "Hola Prystan\u2019", "images": []}, {"id": 440820, "min_date": "2020-01-22T10:32:00Z", "max_date": "2020-01-22T10:32:00Z", "count_points": 1, "latitude": 47.52402, "longitude": 30.19744, "city": "Shyryayeve", "images": []}, {"id": 440821, "min_date": "2020-01-22T10:32:00Z", "max_date": "2020-01-23T10:13:00Z", "count_points": 2, "latitude": 46.22926, "longitude": 32.18223, "city": "Bekhtery", "images": []}, {"id": 440822, "min_date": "2020-01-22T10:32:00Z", "max_date": "2020-01-22T10:32:00Z", "count_points": 1, "latitude": 47.41211, "longitude": 30.55497, "city": "Mykolayivka", "images": []}, {"id": 440823, "min_date": "2020-01-22T10:32:00Z", "max_date": "2020-01-22T10:33:00Z", "count_points": 2, "latitude": 48.41299, "longitude": 26.40652, "city": "Khotyn", "images": []}, {"id": 440824, "min_date": "2020-01-22T10:32:00Z", "max_date": "2020-01-22T10:32:00Z", "count_points": 2, "latitude": 46.35568, "longitude": 29.39378, "city": "Borodino", "images": []}, {"id": 440825, "min_date": "2020-01-22T10:32:00Z", "max_date": "2020-01-22T10:32:00Z", "count_points": 1, "latitude": 47.41467, "longitude": 31.51399, "city": "Voznesensk", "images": []}, {"id": 440826, "min_date": "2020-01-22T10:32:00Z", "max_date": "2020-01-22T10:32:00Z", "count_points": 1, "latitude": 47.18324, "longitude": 31.85976, "city": "Olshanskoye", "images": []}, {"id": 440827, "min_date": "2020-01-22T10:32:00Z", "max_date": "2020-01-22T10:32:00Z", "count_points": 1, "latitude": 45.54978, "longitude": 29.47147, "city": "Shevchenkove", "images": []}, {"id": 440828, "min_date": "2020-01-22T10:32:00Z", "max_date": "2020-01-22T10:32:00Z", "count_points": 1, "latitude": 47.35452, "longitude": 31.63824, "city": "Nova Odesa", "images": []}, {"id": 440829, "min_date": "2020-01-22T10:33:00Z", "max_date": "2020-01-22T10:33:00Z", "count_points": 1, "latitude": 48.84953, "longitude": 24.88733, "city": "Chornoliztsi", "images": []}, {"id": 440830, "min_date": "2020-01-22T10:33:00Z", "max_date": "2020-01-22T10:33:00Z", "count_points": 2, "latitude": 49.11158, "longitude": 25.88604, "city": "Kopychyntsi", "images": []}, {"id": 440831, "min_date": "2020-01-22T12:13:00Z", "max_date": "2020-01-22T12:13:00Z", "count_points": 1, "latitude": 48.20077, "longitude": 26.10785, "city": "Boyany", "images": []}, {"id": 440832, "min_date": "2020-01-22T22:46:00Z", "max_date": "2020-01-22T22:46:00Z", "count_points": 3, "latitude": 47.34509, "longitude": 31.52658, "city": "Nova Odesa", "images": []}, {"id": 440833, "min_date": "2020-01-22T22:46:00Z", "max_date": "2020-01-22T22:46:00Z", "count_points": 1, "latitude": 47.38812, "longitude": 31.58214, "city": "Nova Odesa", "images": []}, {"id": 440834, "min_date": "2020-01-23T00:27:00Z", "max_date": "2020-01-23T00:27:00Z", "count_points": 4, "latitude": 46.48448, "longitude": 30.1838, "city": "Bilyayivka", "images": []}, {"id": 440835, "min_date": "2020-01-23T00:27:00Z", "max_date": "2020-01-23T00:27:00Z", "count_points": 4, "latitude": 48.76859, "longitude": 31.22431, "city": "Yurkivka", "images": []}, {"id": 440836, "min_date": "2020-01-23T10:13:00Z", "max_date": "2020-01-23T10:13:00Z", "count_points": 1, "latitude": 47.41174, "longitude": 29.56732, "city": "Okny", "images": []}, {"id": 440837, "min_date": "2020-01-23T10:14:00Z", "max_date": "2020-01-23T10:14:00Z", "count_points": 1, "latitude": 48.91247, "longitude": 28.31034, "city": "Sutysky", "images": []}, {"id": 440838, "min_date": "2020-01-23T10:14:00Z", "max_date": "2020-01-23T10:14:00Z", "count_points": 1, "latitude": 48.68856, "longitude": 31.43268, "city": "Mala Vyska", "images": []}, {"id": 440839, "min_date": "2020-01-23T10:14:00Z", "max_date": "2020-01-23T10:14:00Z", "count_points": 2, "latitude": 48.64549, "longitude": 30.47039, "city": "Babanka", "images": []}, {"id": 440840, "min_date": "2020-01-23T10:14:00Z", "max_date": "2020-01-23T10:14:00Z", "count_points": 1, "latitude": 48.97341, "longitude": 31.23176, "city": "Yurkivka", "images": []}, {"id": 440841, "min_date": "2020-01-23T10:14:00Z", "max_date": "2020-01-23T10:14:00Z", "count_points": 1, "latitude": 49.53632, "longitude": 31.50688, "city": "Mleyev", "images": []}, {"id": 440842, "min_date": "2020-01-23T11:54:00Z", "max_date": "2020-01-23T11:54:00Z", "count_points": 1, "latitude": 47.88585, "longitude": 31.52655, "city": "Brats\u2019ke", "images": []}, {"id": 440843, "min_date": "2020-01-24T00:09:00Z", "max_date": "2020-01-24T00:09:00Z", "count_points": 1, "latitude": 46.4442, "longitude": 30.1465, "city": "Bilyayivka", "images": []}, {"id": 440844, "min_date": "2020-01-24T00:09:00Z", "max_date": "2020-01-24T00:09:00Z", "count_points": 1, "latitude": 45.64075, "longitude": 29.21025, "city": "Shevchenkove", "images": []}, {"id": 440845, "min_date": "2020-01-24T09:54:00Z", "max_date": "2020-01-24T09:54:00Z", "count_points": 1, "latitude": 45.55145, "longitude": 29.43347, "city": "Shevchenkove", "images": []}, {"id": 440846, "min_date": "2020-01-24T09:55:00Z", "max_date": "2020-01-24T09:55:00Z", "count_points": 1, "latitude": 49.9123, "longitude": 27.76384, "city": "Liubar", "images": []}, {"id": 440847, "min_date": "2020-01-24T09:55:00Z", "max_date": "2020-01-24T09:55:00Z", "count_points": 1, "latitude": 49.52748, "longitude": 27.42926, "city": "Medzhybizh", "images": []}, {"id": 440848, "min_date": "2020-01-24T09:55:00Z", "max_date": "2020-01-24T09:55:00Z", "count_points": 2, "latitude": 47.97769, "longitude": 29.76605, "city": "Balta", "images": []}, {"id": 440849, "min_date": "2020-01-24T09:55:00Z", "max_date": "2020-01-24T09:55:00Z", "count_points": 1, "latitude": 48.07591, "longitude": 30.85416, "city": "Pervomays\u2019k", "images": []}, {"id": 440850, "min_date": "2020-01-24T09:56:00Z", "max_date": "2020-01-24T11:36:00Z", "count_points": 2, "latitude": 51.04675, "longitude": 25.3778, "city": "Lukiv", "images": []}, {"id": 440851, "min_date": "2020-01-24T11:35:00Z", "max_date": "2020-01-24T11:35:00Z", "count_points": 1, "latitude": 48.58478, "longitude": 30.79978, "city": "Novoarkhanhel\u2019s\u2019k", "images": []}, {"id": 440852, "min_date": "2020-01-24T11:35:00Z", "max_date": "2020-01-24T11:35:00Z", "count_points": 1, "latitude": 46.11333, "longitude": 29.65327, "city": "Plakhtiyivka", "images": []}, {"id": 440853, "min_date": "2020-01-24T11:35:00Z", "max_date": "2020-01-24T11:35:00Z", "count_points": 2, "latitude": 47.04394, "longitude": 31.49497, "city": "Berezanka", "images": []}, {"id": 440854, "min_date": "2020-01-24T11:35:00Z", "max_date": "2020-01-24T11:35:00Z", "count_points": 2, "latitude": 46.56797, "longitude": 32.3793, "city": "Bilozerka", "images": []}, {"id": 440855, "min_date": "2020-01-24T11:35:00Z", "max_date": "2020-01-24T11:35:00Z", "count_points": 1, "latitude": 48.08555, "longitude": 31.45257, "city": "Pomichna", "images": []}, {"id": 440856, "min_date": "2020-01-24T11:35:00Z", "max_date": "2020-01-24T11:35:00Z", "count_points": 2, "latitude": 47.89242, "longitude": 30.031, "city": "Ananyiv Pershyi", "images": []}, {"id": 440857, "min_date": "2020-01-24T11:35:00Z", "max_date": "2020-01-24T11:35:00Z", "count_points": 1, "latitude": 48.12631, "longitude": 31.68246, "city": "Rivne", "images": []}, {"id": 440858, "min_date": "2020-01-24T11:35:00Z", "max_date": "2020-01-24T11:35:00Z", "count_points": 2, "latitude": 48.13746, "longitude": 31.03728, "city": "Lysa Hora", "images": []}, {"id": 440859, "min_date": "2020-01-24T11:36:00Z", "max_date": "2020-01-24T11:36:00Z", "count_points": 1, "latitude": 49.18041, "longitude": 29.99912, "city": "Zhashkiv", "images": []}, {"id": 440860, "min_date": "2020-01-24T11:36:00Z", "max_date": "2020-01-24T11:36:00Z", "count_points": 2, "latitude": 49.07162, "longitude": 27.57832, "city": "Bar", "images": []}, {"id": 440861, "min_date": "2020-01-24T11:36:00Z", "max_date": "2020-01-24T11:36:00Z", "count_points": 1, "latitude": 49.29581, "longitude": 27.24765, "city": "Derazhnya", "images": []}, {"id": 440862, "min_date": "2020-01-24T11:36:00Z", "max_date": "2020-01-24T11:36:00Z", "count_points": 1, "latitude": 49.57935, "longitude": 28.66369, "city": "Kalynivka", "images": []}, {"id": 440863, "min_date": "2020-01-24T11:36:00Z", "max_date": "2020-01-24T11:36:00Z", "count_points": 1, "latitude": 49.18941, "longitude": 23.97782, "city": "Morshyn", "images": []}, {"id": 440864, "min_date": "2020-01-24T11:36:00Z", "max_date": "2020-01-24T11:36:00Z", "count_points": 1, "latitude": 49.17322, "longitude": 23.71855, "city": "Ulychne", "images": []}, {"id": 440865, "min_date": "2020-01-24T11:36:00Z", "max_date": "2020-01-24T11:36:00Z", "count_points": 1, "latitude": 48.89869, "longitude": 24.07661, "city": "Spas", "images": []}, {"id": 440866, "min_date": "2020-01-24T11:36:00Z", "max_date": "2020-01-24T11:36:00Z", "count_points": 2, "latitude": 49.8775, "longitude": 28.25615, "city": "Ulaniv", "images": []}, {"id": 440867, "min_date": "2020-01-24T11:36:00Z", "max_date": "2020-01-24T11:36:00Z", "count_points": 1, "latitude": 49.73392, "longitude": 28.38685, "city": "Ulaniv", "images": []}, {"id": 440868, "min_date": "2020-01-24T11:36:00Z", "max_date": "2020-01-24T11:36:00Z", "count_points": 1, "latitude": 50.23621, "longitude": 25.17121, "city": "Radyvyliv", "images": []}, {"id": 440869, "min_date": "2020-01-24T11:36:00Z", "max_date": "2020-01-24T11:36:00Z", "count_points": 1, "latitude": 50.5889, "longitude": 25.01843, "city": "Berestechko", "images": []}, {"id": 440870, "min_date": "2020-01-24T11:36:00Z", "max_date": "2020-01-24T11:36:00Z", "count_points": 1, "latitude": 49.70186, "longitude": 27.49601, "city": "Stara Syniava", "images": []}, {"id": 440871, "min_date": "2020-01-24T11:36:00Z", "max_date": "2020-01-24T11:36:00Z", "count_points": 1, "latitude": 49.83381, "longitude": 29.43862, "city": "Popilnya", "images": []}, {"id": 440872, "min_date": "2020-01-24T11:36:00Z", "max_date": "2020-01-24T11:36:00Z", "count_points": 1, "latitude": 50.14595, "longitude": 28.49998, "city": "Denyshi", "images": []}, {"id": 440873, "min_date": "2020-01-24T11:36:00Z", "max_date": "2020-01-24T11:36:00Z", "count_points": 1, "latitude": 50.06853, "longitude": 28.5602, "city": "Hryshkivtsi", "images": []}, {"id": 440874, "min_date": "2020-01-24T23:49:00Z", "max_date": "2020-01-24T23:49:00Z", "count_points": 2, "latitude": 49.65808, "longitude": 28.13907, "city": "Ulaniv", "images": []}, {"id": 440875, "min_date": "2020-01-24T23:49:00Z", "max_date": "2020-01-25T01:30:00Z", "count_points": 3, "latitude": 49.3967, "longitude": 23.64416, "city": "Rykhtychi", "images": []}, {"id": 440876, "min_date": "2020-01-24T23:49:00Z", "max_date": "2020-01-25T11:17:00Z", "count_points": 2, "latitude": 49.68735, "longitude": 23.71056, "city": "Komarno", "images": []}, {"id": 440877, "min_date": "2020-01-24T23:49:00Z", "max_date": "2020-01-25T01:29:00Z", "count_points": 4, "latitude": 50.22338, "longitude": 23.75735, "city": "Richky", "images": []}, {"id": 440878, "min_date": "2020-01-24T23:49:00Z", "max_date": "2020-01-24T23:49:00Z", "count_points": 1, "latitude": 49.39109, "longitude": 30.59179, "city": "Kalynove", "images": []}, {"id": 440879, "min_date": "2020-01-24T23:49:00Z", "max_date": "2020-01-24T23:49:00Z", "count_points": 2, "latitude": 49.7098, "longitude": 28.86174, "city": "Kozyatyn", "images": []}, {"id": 440880, "min_date": "2020-01-24T23:50:00Z", "max_date": "2020-01-24T23:50:00Z", "count_points": 2, "latitude": 46.20131, "longitude": 30.29932, "city": "Bilhorod-Dnistrovskyi", "images": []}, {"id": 440881, "min_date": "2020-01-25T01:30:00Z", "max_date": "2020-01-25T01:30:00Z", "count_points": 2, "latitude": 48.68787, "longitude": 23.61001, "city": "Synevyrska Poliana", "images": []}, {"id": 440882, "min_date": "2020-01-25T01:30:00Z", "max_date": "2020-01-25T01:30:00Z", "count_points": 1, "latitude": 49.3335, "longitude": 23.33744, "city": "Pidbuzh", "images": []}, {"id": 440883, "min_date": "2020-01-25T11:16:00Z", "max_date": "2020-01-25T11:16:00Z", "count_points": 1, "latitude": 47.73826, "longitude": 29.76105, "city": "Ananyiv Pershyi", "images": []}, {"id": 440884, "min_date": "2020-01-25T11:16:00Z", "max_date": "2020-01-25T11:16:00Z", "count_points": 1, "latitude": 48.07045, "longitude": 31.83122, "city": "Rivne", "images": []}, {"id": 440885, "min_date": "2020-01-25T11:16:00Z", "max_date": "2020-01-25T11:16:00Z", "count_points": 2, "latitude": 48.43072, "longitude": 26.75789, "city": "Kel\u2019mentsi", "images": []}, {"id": 440886, "min_date": "2020-01-25T11:16:00Z", "max_date": "2020-01-25T11:16:00Z", "count_points": 1, "latitude": 47.58919, "longitude": 30.13445, "city": "Shyryayeve", "images": []}, {"id": 440887, "min_date": "2020-01-25T11:16:00Z", "max_date": "2020-01-25T11:16:00Z", "count_points": 2, "latitude": 48.72072, "longitude": 27.43546, "city": "Murovani Kurylivtsi", "images": []}, {"id": 440888, "min_date": "2020-01-25T11:16:00Z", "max_date": "2020-01-25T11:16:00Z", "count_points": 2, "latitude": 47.94797, "longitude": 30.83575, "city": "Pervomays\u2019k", "images": []}, {"id": 440889, "min_date": "2020-01-25T11:16:00Z", "max_date": "2020-01-25T11:16:00Z", "count_points": 1, "latitude": 45.72145, "longitude": 29.45057, "city": "Tatarbunary", "images": []}, {"id": 440890, "min_date": "2020-01-25T11:16:00Z", "max_date": "2020-01-25T11:16:00Z", "count_points": 1, "latitude": 46.46093, "longitude": 30.57143, "city": "Usatove", "images": []}, {"id": 440891, "min_date": "2020-01-25T11:16:00Z", "max_date": "2020-01-25T11:16:00Z", "count_points": 1, "latitude": 46.33872, "longitude": 29.78427, "city": "Kamyshevka Vtoraya", "images": []}, {"id": 440892, "min_date": "2020-01-25T11:16:00Z", "max_date": "2020-01-25T11:16:00Z", "count_points": 1, "latitude": 47.86021, "longitude": 31.8466, "city": "Yelanets\u2019", "images": []}, {"id": 440893, "min_date": "2020-01-25T11:16:00Z", "max_date": "2020-01-25T11:16:00Z", "count_points": 1, "latitude": 46.78363, "longitude": 30.37094, "city": "Ivanivka", "images": []}, {"id": 440894, "min_date": "2020-01-25T11:16:00Z", "max_date": "2020-01-25T11:16:00Z", "count_points": 1, "latitude": 47.76639, "longitude": 33.58301, "city": "Apostolove", "images": []}, {"id": 440895, "min_date": "2020-01-25T11:16:00Z", "max_date": "2020-01-25T11:16:00Z", "count_points": 1, "latitude": 48.15128, "longitude": 26.1244, "city": "Boyany", "images": []}, {"id": 440896, "min_date": "2020-01-25T11:16:00Z", "max_date": "2020-01-25T11:16:00Z", "count_points": 1, "latitude": 48.51002, "longitude": 27.95313, "city": "Chernivtsi", "images": []}, {"id": 440897, "min_date": "2020-01-25T11:16:00Z", "max_date": "2020-01-25T11:16:00Z", "count_points": 1, "latitude": 45.67421, "longitude": 28.58903, "city": "Vynohradivka", "images": []}, {"id": 440898, "min_date": "2020-01-25T11:16:00Z", "max_date": "2020-01-25T11:16:00Z", "count_points": 1, "latitude": 47.7862, "longitude": 35.72173, "city": "Kirove", "images": []}, {"id": 440899, "min_date": "2020-01-25T11:16:00Z", "max_date": "2020-01-25T11:16:00Z", "count_points": 2, "latitude": 47.88112, "longitude": 30.38297, "city": "Kryve Ozero", "images": []}, {"id": 440900, "min_date": "2020-01-25T11:16:00Z", "max_date": "2020-01-25T11:16:00Z", "count_points": 1, "latitude": 48.37098, "longitude": 32.94686, "city": "Nova Praha", "images": []}, {"id": 440901, "min_date": "2020-01-25T11:16:00Z", "max_date": "2020-01-25T11:16:00Z", "count_points": 2, "latitude": 47.10165, "longitude": 30.25563, "city": "Ivanivka", "images": []}, {"id": 440902, "min_date": "2020-01-25T11:16:00Z", "max_date": "2020-01-25T11:16:00Z", "count_points": 1, "latitude": 48.52915, "longitude": 28.02729, "city": "Chernivtsi", "images": []}, {"id": 440903, "min_date": "2020-01-25T11:16:00Z", "max_date": "2020-01-25T11:16:00Z", "count_points": 1, "latitude": 48.62288, "longitude": 35.62379, "city": "Melioratyvne", "images": []}, {"id": 440904, "min_date": "2020-01-25T11:16:00Z", "max_date": "2020-01-25T11:16:00Z", "count_points": 1, "latitude": 48.881, "longitude": 28.71203, "city": "Nemyriv", "images": []}, {"id": 440905, "min_date": "2020-01-25T11:16:00Z", "max_date": "2020-01-25T11:16:00Z", "count_points": 4, "latitude": 47.91068, "longitude": 35.54917, "city": "Vil\u2019nyans\u2019k", "images": []}, {"id": 440906, "min_date": "2020-01-25T11:16:00Z", "max_date": "2020-01-25T11:16:00Z", "count_points": 1, "latitude": 48.63955, "longitude": 26.97023, "city": "Kel\u2019mentsi", "images": []}, {"id": 440907, "min_date": "2020-01-25T11:16:00Z", "max_date": "2020-01-25T11:16:00Z", "count_points": 1, "latitude": 48.36884, "longitude": 28.98891, "city": "Tsybulevka", "images": []}, {"id": 440908, "min_date": "2020-01-25T11:16:00Z", "max_date": "2020-01-25T11:16:00Z", "count_points": 2, "latitude": 48.57174, "longitude": 29.35378, "city": "Trostyanets\u2019", "images": []}, {"id": 440909, "min_date": "2020-01-25T11:17:00Z", "max_date": "2020-01-25T11:17:00Z", "count_points": 1, "latitude": 49.57875, "longitude": 24.55494, "city": "Peremyshlyany", "images": []}, {"id": 440910, "min_date": "2020-01-25T11:17:00Z", "max_date": "2020-01-25T11:17:00Z", "count_points": 2, "latitude": 49.82391, "longitude": 25.3539, "city": "Zaliztsi", "images": []}, {"id": 440911, "min_date": "2020-01-25T11:17:00Z", "max_date": "2020-01-25T11:17:00Z", "count_points": 1, "latitude": 49.15676, "longitude": 30.13669, "city": "Zhashkiv", "images": []}, {"id": 440912, "min_date": "2020-01-25T11:17:00Z", "max_date": "2020-01-25T11:17:00Z", "count_points": 1, "latitude": 49.54787, "longitude": 26.40602, "city": "Bazaliya", "images": []}, {"id": 440913, "min_date": "2020-01-25T11:17:00Z", "max_date": "2020-01-25T11:17:00Z", "count_points": 1, "latitude": 49.56329, "longitude": 28.31709, "city": "Pavlovka", "images": []}, {"id": 440914, "min_date": "2020-01-25T11:17:00Z", "max_date": "2020-01-25T11:17:00Z", "count_points": 1, "latitude": 49.55394, "longitude": 26.908, "city": "Krasyliv", "images": []}, {"id": 440915, "min_date": "2020-01-25T11:17:00Z", "max_date": "2020-01-25T11:17:00Z", "count_points": 1, "latitude": 49.5898, "longitude": 28.21956, "city": "Ulaniv", "images": []}, {"id": 440916, "min_date": "2020-01-25T11:17:00Z", "max_date": "2020-01-25T11:17:00Z", "count_points": 1, "latitude": 49.72647, "longitude": 26.79491, "city": "Antoniny", "images": []}, {"id": 440917, "min_date": "2020-01-25T11:17:00Z", "max_date": "2020-01-25T11:17:00Z", "count_points": 1, "latitude": 49.84275, "longitude": 23.65504, "city": "Horodok", "images": []}, {"id": 440918, "min_date": "2020-01-25T11:17:00Z", "max_date": "2020-01-25T11:17:00Z", "count_points": 1, "latitude": 48.89026, "longitude": 23.88224, "city": "Dolyna", "images": []}, {"id": 440919, "min_date": "2020-01-25T11:17:00Z", "max_date": "2020-01-25T11:17:00Z", "count_points": 2, "latitude": 49.07342, "longitude": 24.33719, "city": "Kalush", "images": []}, {"id": 440920, "min_date": "2020-01-25T11:17:00Z", "max_date": "2020-01-25T11:17:00Z", "count_points": 1, "latitude": 48.96202, "longitude": 23.97084, "city": "Dolyna", "images": []}, {"id": 440921, "min_date": "2020-01-25T11:17:00Z", "max_date": "2020-01-25T11:17:00Z", "count_points": 1, "latitude": 49.04113, "longitude": 23.77988, "city": "Bolekhiv", "images": []}, {"id": 440922, "min_date": "2020-01-25T11:17:00Z", "max_date": "2020-01-25T11:17:00Z", "count_points": 1, "latitude": 49.04277, "longitude": 23.63835, "city": "Verkhnie Synevydne", "images": []}, {"id": 440923, "min_date": "2020-01-25T11:17:00Z", "max_date": "2020-01-25T11:17:00Z", "count_points": 1, "latitude": 48.70063, "longitude": 24.45422, "city": "Solotvyn", "images": []}, {"id": 440924, "min_date": "2020-01-25T11:17:00Z", "max_date": "2020-01-25T11:17:00Z", "count_points": 1, "latitude": 48.72357, "longitude": 24.36171, "city": "Kosmach", "images": []}, {"id": 440925, "min_date": "2020-01-25T11:17:00Z", "max_date": "2020-01-25T11:17:00Z", "count_points": 1, "latitude": 48.77396, "longitude": 26.38354, "city": "Skala-Podil\u2019s\u2019ka", "images": []}, {"id": 440926, "min_date": "2020-01-25T11:17:00Z", "max_date": "2020-01-25T11:17:00Z", "count_points": 1, "latitude": 48.92147, "longitude": 26.08187, "city": "Borshchiv", "images": []}, {"id": 440927, "min_date": "2020-01-25T11:17:00Z", "max_date": "2020-01-25T11:17:00Z", "count_points": 1, "latitude": 48.69833, "longitude": 25.76787, "city": "Zalishchyky", "images": []}, {"id": 440928, "min_date": "2020-01-25T11:17:00Z", "max_date": "2020-01-26T10:58:00Z", "count_points": 2, "latitude": 49.45006, "longitude": 23.77779, "city": "Medenychi", "images": []}, {"id": 440929, "min_date": "2020-01-25T11:17:00Z", "max_date": "2020-01-25T11:17:00Z", "count_points": 1, "latitude": 49.59434, "longitude": 23.91628, "city": "Demnya", "images": []}, {"id": 440930, "min_date": "2020-01-25T11:17:00Z", "max_date": "2020-01-25T11:17:00Z", "count_points": 1, "latitude": 49.45101, "longitude": 23.60261, "city": "Rykhtychi", "images": []}, {"id": 440931, "min_date": "2020-01-25T11:17:00Z", "max_date": "2020-01-25T11:17:00Z", "count_points": 1, "latitude": 49.51028, "longitude": 25.19842, "city": "Kozova", "images": []}, {"id": 440932, "min_date": "2020-01-25T11:17:00Z", "max_date": "2020-01-25T11:17:00Z", "count_points": 1, "latitude": 50.27792, "longitude": 25.15267, "city": "Berestechko", "images": []}, {"id": 440933, "min_date": "2020-01-25T11:17:00Z", "max_date": "2020-01-25T11:17:00Z", "count_points": 1, "latitude": 49.34268, "longitude": 29.43918, "city": "Orativ", "images": []}, {"id": 440934, "min_date": "2020-01-25T11:17:00Z", "max_date": "2020-01-25T11:17:00Z", "count_points": 2, "latitude": 49.17995, "longitude": 29.23227, "city": "Illintsi", "images": []}, {"id": 440935, "min_date": "2020-01-25T11:17:00Z", "max_date": "2020-01-25T11:17:00Z", "count_points": 1, "latitude": 49.31622, "longitude": 23.38241, "city": "Boryslav", "images": []}, {"id": 440936, "min_date": "2020-01-25T11:17:00Z", "max_date": "2020-01-25T11:17:00Z", "count_points": 1, "latitude": 49.60371, "longitude": 23.46615, "city": "Rudky", "images": []}, {"id": 440937, "min_date": "2020-01-25T11:17:00Z", "max_date": "2020-01-25T11:17:00Z", "count_points": 1, "latitude": 49.36079, "longitude": 23.81838, "city": "Medenychi", "images": []}, {"id": 440938, "min_date": "2020-01-25T11:17:00Z", "max_date": "2020-01-25T11:17:00Z", "count_points": 1, "latitude": 49.17697, "longitude": 27.29431, "city": "Vinkivtsi", "images": []}, {"id": 440939, "min_date": "2020-01-25T11:17:00Z", "max_date": "2020-01-25T11:17:00Z", "count_points": 1, "latitude": 49.03799, "longitude": 27.87888, "city": "Kopayhorod", "images": []}, {"id": 440940, "min_date": "2020-01-25T11:17:00Z", "max_date": "2020-01-25T11:17:00Z", "count_points": 1, "latitude": 49.21866, "longitude": 23.09147, "city": "Turka", "images": []}, {"id": 440941, "min_date": "2020-01-25T11:17:00Z", "max_date": "2020-01-25T11:17:00Z", "count_points": 1, "latitude": 49.37, "longitude": 23.32011, "city": "Pidbuzh", "images": []}, {"id": 440942, "min_date": "2020-01-25T11:17:00Z", "max_date": "2020-01-25T11:17:00Z", "count_points": 1, "latitude": 49.37485, "longitude": 24.23995, "city": "Khodoriv", "images": []}, {"id": 440943, "min_date": "2020-01-25T11:17:00Z", "max_date": "2020-01-25T11:17:00Z", "count_points": 1, "latitude": 49.26278, "longitude": 23.76361, "city": "Duliby", "images": []}, {"id": 440944, "min_date": "2020-01-25T11:17:00Z", "max_date": "2020-01-25T11:17:00Z", "count_points": 2, "latitude": 49.11695, "longitude": 28.19794, "city": "Brailiv", "images": []}, {"id": 440945, "min_date": "2020-01-25T11:17:00Z", "max_date": "2020-01-25T11:17:00Z", "count_points": 1, "latitude": 49.51099, "longitude": 22.94877, "city": "Murovane", "images": []}, {"id": 440946, "min_date": "2020-01-25T11:17:00Z", "max_date": "2020-01-25T11:17:00Z", "count_points": 1, "latitude": 49.26329, "longitude": 24.48468, "city": "Burshtyn", "images": []}, {"id": 440947, "min_date": "2020-01-25T23:30:00Z", "max_date": "2020-01-25T23:30:00Z", "count_points": 1, "latitude": 49.2005, "longitude": 23.89649, "city": "Morshyn", "images": []}, {"id": 440948, "min_date": "2020-01-25T23:30:00Z", "max_date": "2020-01-26T01:10:00Z", "count_points": 3, "latitude": 50.81109, "longitude": 31.9716, "city": "Talalayivka", "images": []}, {"id": 440949, "min_date": "2020-01-25T23:31:00Z", "max_date": "2020-01-25T23:31:00Z", "count_points": 1, "latitude": 48.21131, "longitude": 29.23392, "city": "Chechelnyk", "images": []}, {"id": 440950, "min_date": "2020-01-26T10:57:00Z", "max_date": "2020-01-26T10:57:00Z", "count_points": 1, "latitude": 48.80853, "longitude": 36.06699, "city": "Yur\u201dyivka", "images": []}, {"id": 440951, "min_date": "2020-01-26T10:57:00Z", "max_date": "2020-01-26T10:57:00Z", "count_points": 2, "latitude": 48.14127, "longitude": 38.09977, "city": "Nyzhnya Krynka", "images": []}, {"id": 440952, "min_date": "2020-01-26T10:57:00Z", "max_date": "2020-01-26T10:57:00Z", "count_points": 1, "latitude": 47.12952, "longitude": 35.811, "city": "Tokmak", "images": []}, {"id": 440953, "min_date": "2020-01-26T10:57:00Z", "max_date": "2020-01-26T10:57:00Z", "count_points": 3, "latitude": 47.95433, "longitude": 33.8978, "city": "Sofiyivka", "images": []}, {"id": 440954, "min_date": "2020-01-26T10:57:00Z", "max_date": "2020-01-26T10:57:00Z", "count_points": 1, "latitude": 46.637, "longitude": 30.25301, "city": "Teplodar", "images": []}, {"id": 440955, "min_date": "2020-01-26T10:57:00Z", "max_date": "2020-01-26T10:57:00Z", "count_points": 2, "latitude": 45.45947, "longitude": 29.19409, "city": "Kiliya", "images": []}, {"id": 440956, "min_date": "2020-01-26T10:57:00Z", "max_date": "2020-01-26T10:57:00Z", "count_points": 1, "latitude": 46.801, "longitude": 32.82687, "city": "Oleksandrivka", "images": []}, {"id": 440957, "min_date": "2020-01-26T10:57:00Z", "max_date": "2020-01-26T10:57:00Z", "count_points": 1, "latitude": 49.01554, "longitude": 34.5137, "city": "Tsarychanka", "images": []}, {"id": 440958, "min_date": "2020-01-26T10:57:00Z", "max_date": "2020-01-26T10:57:00Z", "count_points": 1, "latitude": 47.84283, "longitude": 33.18134, "city": "Shyroke", "images": []}, {"id": 440959, "min_date": "2020-01-26T10:57:00Z", "max_date": "2020-01-26T10:57:00Z", "count_points": 1, "latitude": 46.20564, "longitude": 29.35277, "city": "Borodino", "images": []}, {"id": 440960, "min_date": "2020-01-26T10:57:00Z", "max_date": "2020-01-26T10:57:00Z", "count_points": 2, "latitude": 47.28762, "longitude": 31.74271, "city": "Nova Odesa", "images": []}, {"id": 440961, "min_date": "2020-01-26T10:57:00Z", "max_date": "2020-01-26T10:57:00Z", "count_points": 1, "latitude": 48.43002, "longitude": 33.52364, "city": "Zhovti Vody", "images": []}, {"id": 440962, "min_date": "2020-01-26T10:57:00Z", "max_date": "2020-01-26T10:57:00Z", "count_points": 1, "latitude": 47.79127, "longitude": 34.36888, "city": "Nikopol", "images": []}, {"id": 440963, "min_date": "2020-01-26T10:57:00Z", "max_date": "2020-01-26T10:57:00Z", "count_points": 1, "latitude": 48.65483, "longitude": 34.13191, "city": "Verkhn\u2019odniprovs\u2019k", "images": []}, {"id": 440964, "min_date": "2020-01-26T10:58:00Z", "max_date": "2020-01-26T10:58:00Z", "count_points": 1, "latitude": 49.22525, "longitude": 24.26153, "city": "Khodoriv", "images": []}, {"id": 440965, "min_date": "2020-01-26T10:58:00Z", "max_date": "2020-01-26T10:58:00Z", "count_points": 3, "latitude": 49.92633, "longitude": 24.43551, "city": "Novyy Yarychiv", "images": []}, {"id": 440966, "min_date": "2020-01-26T10:58:00Z", "max_date": "2020-01-26T10:58:00Z", "count_points": 5, "latitude": 50.76493, "longitude": 31.07479, "city": "Semypolky", "images": []}, {"id": 440967, "min_date": "2020-01-26T10:58:00Z", "max_date": "2020-01-26T10:58:00Z", "count_points": 4, "latitude": 49.74683, "longitude": 32.75408, "city": "Orzhytsya", "images": []}, {"id": 440968, "min_date": "2020-01-26T10:58:00Z", "max_date": "2020-01-26T10:58:00Z", "count_points": 1, "latitude": 48.2214, "longitude": 26.14197, "city": "Boyany", "images": []}, {"id": 440969, "min_date": "2020-01-26T10:58:00Z", "max_date": "2020-01-26T10:58:00Z", "count_points": 1, "latitude": 49.29806, "longitude": 24.06868, "city": "Zhydachiv", "images": []}, {"id": 440970, "min_date": "2020-01-26T10:58:00Z", "max_date": "2020-01-26T10:58:00Z", "count_points": 1, "latitude": 49.77905, "longitude": 36.06406, "city": "Utkivka", "images": []}, {"id": 440971, "min_date": "2020-01-26T10:58:00Z", "max_date": "2020-01-26T10:58:00Z", "count_points": 1, "latitude": 50.82238, "longitude": 30.76115, "city": "Desna", "images": []}, {"id": 440972, "min_date": "2020-01-26T10:58:00Z", "max_date": "2020-01-26T10:58:00Z", "count_points": 1, "latitude": 49.32895, "longitude": 37.28454, "city": "Izyum", "images": []}, {"id": 440973, "min_date": "2020-01-26T10:58:00Z", "max_date": "2020-01-26T10:58:00Z", "count_points": 2, "latitude": 48.86237, "longitude": 23.90772, "city": "Dolyna", "images": []}, {"id": 440974, "min_date": "2020-01-26T10:58:00Z", "max_date": "2020-01-26T10:58:00Z", "count_points": 1, "latitude": 49.17249, "longitude": 24.04052, "city": "Morshyn", "images": []}, {"id": 440975, "min_date": "2020-01-26T10:58:00Z", "max_date": "2020-01-26T10:58:00Z", "count_points": 1, "latitude": 49.2098, "longitude": 24.19297, "city": "Zhydachiv", "images": []}, {"id": 440976, "min_date": "2020-01-26T10:58:00Z", "max_date": "2020-01-26T10:58:00Z", "count_points": 3, "latitude": 49.15579, "longitude": 23.67157, "city": "Ulychne", "images": []}, {"id": 440977, "min_date": "2020-01-26T10:58:00Z", "max_date": "2020-01-26T10:58:00Z", "count_points": 1, "latitude": 49.0134, "longitude": 24.0269, "city": "Dolyna", "images": []}, {"id": 440978, "min_date": "2020-01-26T10:58:00Z", "max_date": "2020-01-26T10:58:00Z", "count_points": 2, "latitude": 48.80281, "longitude": 24.9173, "city": "Chornoliztsi", "images": []}, {"id": 440979, "min_date": "2020-01-26T10:58:00Z", "max_date": "2020-01-26T10:58:00Z", "count_points": 2, "latitude": 48.53025, "longitude": 25.50653, "city": "Stetseva", "images": []}, {"id": 440980, "min_date": "2020-01-26T10:58:00Z", "max_date": "2020-01-26T10:58:00Z", "count_points": 1, "latitude": 49.52231, "longitude": 23.90753, "city": "Rozvadiv", "images": []}, {"id": 440981, "min_date": "2020-01-26T10:58:00Z", "max_date": "2020-01-26T10:58:00Z", "count_points": 1, "latitude": 50.31962, "longitude": 25.24608, "city": "Demydivka", "images": []}, {"id": 440982, "min_date": "2020-01-26T10:58:00Z", "max_date": "2020-01-26T10:58:00Z", "count_points": 2, "latitude": 50.30371, "longitude": 25.05096, "city": "Berestechko", "images": []}, {"id": 440983, "min_date": "2020-01-26T10:58:00Z", "max_date": "2020-01-26T10:58:00Z", "count_points": 1, "latitude": 49.59214, "longitude": 25.1115, "city": "Zboriv", "images": []}, {"id": 440984, "min_date": "2020-01-26T23:11:00Z", "max_date": "2020-01-26T23:11:00Z", "count_points": 1, "latitude": 48.92783, "longitude": 24.05605, "city": "Spas", "images": []}]