[{"id": 458123, "min_date": "2020-06-08T09:43:00Z", "max_date": "2020-06-08T09:43:00Z", "count_points": 1, "latitude": 51.8293, "longitude": 25.7745, "city": "Kuznetsovs\u2019k", "images": []}, {"id": 458124, "min_date": "2020-06-09T08:47:00Z", "max_date": "2020-06-09T08:47:00Z", "count_points": 1, "latitude": 51.6256, "longitude": 33.8511, "city": "Hlukhiv", "images": []}, {"id": 458125, "min_date": "2020-06-09T08:48:00Z", "max_date": "2020-06-09T10:24:00Z", "count_points": 6, "latitude": 49.10349, "longitude": 39.1322, "city": "Novoaydar", "images": [{"image_url": "458125.jpg", "timestamp": "2020-06-09T10:24:00Z"}]}, {"id": 458126, "min_date": "2020-06-09T08:48:00Z", "max_date": "2020-06-10T00:18:00Z", "count_points": 2, "latitude": 49.37281, "longitude": 35.65744, "city": "Berezivka", "images": []}, {"id": 458127, "min_date": "2020-06-09T10:32:00Z", "max_date": "2020-06-09T10:32:00Z", "count_points": 1, "latitude": 46.3184, "longitude": 34.6818, "city": "Partyzany", "images": []}, {"id": 458128, "min_date": "2020-06-10T09:30:00Z", "max_date": "2020-06-10T10:06:00Z", "count_points": 6, "latitude": 51.98832, "longitude": 31.21214, "city": "Dobryanka", "images": []}, {"id": 458129, "min_date": "2020-06-10T11:17:00Z", "max_date": "2020-06-10T11:17:00Z", "count_points": 1, "latitude": 51.4319, "longitude": 28.4592, "city": "Luhyny", "images": []}, {"id": 458130, "min_date": "2020-06-11T08:36:00Z", "max_date": "2020-06-11T08:36:00Z", "count_points": 2, "latitude": 47.9412, "longitude": 38.56815, "city": "Blahodatne", "images": []}, {"id": 458131, "min_date": "2020-06-11T08:36:00Z", "max_date": "2020-06-12T09:30:00Z", "count_points": 4, "latitude": 48.29934, "longitude": 35.56985, "city": "Synel\u2019nykove", "images": []}, {"id": 458132, "min_date": "2020-06-11T08:36:00Z", "max_date": "2020-06-11T08:36:00Z", "count_points": 1, "latitude": 47.2764, "longitude": 35.092, "city": "Tymoshivka", "images": []}, {"id": 458133, "min_date": "2020-06-11T19:45:00Z", "max_date": "2020-06-13T09:06:00Z", "count_points": 8, "latitude": 48.76782, "longitude": 38.82443, "city": "Frunze", "images": []}, {"id": 458134, "min_date": "2020-06-12T09:19:00Z", "max_date": "2020-06-12T09:19:00Z", "count_points": 1, "latitude": 49.483, "longitude": 25.1567, "city": "Kozova", "images": []}, {"id": 458135, "min_date": "2020-06-12T11:04:00Z", "max_date": "2020-06-13T10:48:00Z", "count_points": 6, "latitude": 50.69975, "longitude": 30.19983, "city": "Katyuzhanka", "images": []}, {"id": 458136, "min_date": "2020-06-14T09:06:00Z", "max_date": "2020-06-14T09:06:00Z", "count_points": 1, "latitude": 48.6255, "longitude": 35.2076, "city": "Novomoskovs\u2019k", "images": []}, {"id": 458137, "min_date": "2020-06-08T00:54:00Z", "max_date": "2020-06-08T00:54:00Z", "count_points": 1, "latitude": 49.37066, "longitude": 32.06538, "city": "Cherkasy", "images": []}, {"id": 458138, "min_date": "2020-06-08T10:42:00Z", "max_date": "2020-06-08T10:42:00Z", "count_points": 2, "latitude": 46.41666, "longitude": 32.60576, "city": "Hola Prystan\u2019", "images": []}, {"id": 458139, "min_date": "2020-06-08T10:42:00Z", "max_date": "2020-06-11T11:24:00Z", "count_points": 2, "latitude": 48.61294, "longitude": 37.34983, "city": "Krasnotorka", "images": []}, {"id": 458140, "min_date": "2020-06-08T10:42:00Z", "max_date": "2020-06-08T10:42:00Z", "count_points": 1, "latitude": 46.22404, "longitude": 32.71841, "city": "Krasne", "images": []}, {"id": 458141, "min_date": "2020-06-08T10:42:00Z", "max_date": "2020-06-10T10:06:00Z", "count_points": 2, "latitude": 49.14536, "longitude": 37.6787, "city": "Svyatogorsk", "images": []}, {"id": 458142, "min_date": "2020-06-08T10:42:00Z", "max_date": "2020-06-08T10:42:00Z", "count_points": 1, "latitude": 50.2363, "longitude": 28.73533, "city": "Ozerne", "images": []}, {"id": 458143, "min_date": "2020-06-08T10:42:00Z", "max_date": "2020-06-08T23:00:00Z", "count_points": 2, "latitude": 46.51789, "longitude": 32.95813, "city": "Velyki Kopani", "images": []}, {"id": 458144, "min_date": "2020-06-08T22:54:00Z", "max_date": "2020-06-12T23:24:00Z", "count_points": 2, "latitude": 48.74426, "longitude": 30.16334, "city": "Uman\u2019", "images": []}, {"id": 458145, "min_date": "2020-06-08T22:54:00Z", "max_date": "2020-06-13T23:00:00Z", "count_points": 4, "latitude": 50.22485, "longitude": 33.33343, "city": "Sencha", "images": [{"image_url": "458145.jpg", "timestamp": "2020-06-13T23:00:00Z"}]}, {"id": 458146, "min_date": "2020-06-09T10:24:00Z", "max_date": "2020-06-09T10:24:00Z", "count_points": 1, "latitude": 49.51987, "longitude": 27.77044, "city": "Stara Syniava", "images": []}, {"id": 458147, "min_date": "2020-06-09T10:24:00Z", "max_date": "2020-06-09T10:24:00Z", "count_points": 1, "latitude": 48.02166, "longitude": 39.42471, "city": "Roven\u2019ky", "images": []}, {"id": 458148, "min_date": "2020-06-09T10:24:00Z", "max_date": "2020-06-09T10:24:00Z", "count_points": 1, "latitude": 49.14224, "longitude": 39.07295, "city": "Novoaydar", "images": []}, {"id": 458149, "min_date": "2020-06-09T10:24:00Z", "max_date": "2020-06-09T10:24:00Z", "count_points": 1, "latitude": 48.6364, "longitude": 33.00602, "city": "Oleksandriys\u2019ke", "images": []}, {"id": 458150, "min_date": "2020-06-09T22:36:00Z", "max_date": "2020-06-09T22:36:00Z", "count_points": 1, "latitude": 49.3774, "longitude": 37.7812, "city": "Borova", "images": []}, {"id": 458151, "min_date": "2020-06-10T00:18:00Z", "max_date": "2020-06-10T00:18:00Z", "count_points": 1, "latitude": 47.26901, "longitude": 35.67935, "city": "Tokmak", "images": []}, {"id": 458152, "min_date": "2020-06-10T00:18:00Z", "max_date": "2020-06-10T00:18:00Z", "count_points": 1, "latitude": 47.87892, "longitude": 37.91837, "city": "Novyy Svit", "images": []}, {"id": 458153, "min_date": "2020-06-10T10:06:00Z", "max_date": "2020-06-10T10:06:00Z", "count_points": 1, "latitude": 49.57554, "longitude": 35.23108, "city": "Varvarivka", "images": []}, {"id": 458154, "min_date": "2020-06-10T10:06:00Z", "max_date": "2020-06-10T10:06:00Z", "count_points": 1, "latitude": 50.30034, "longitude": 37.12011, "city": "Vovchans\u2019k", "images": []}, {"id": 458155, "min_date": "2020-06-10T11:48:00Z", "max_date": "2020-06-10T11:48:00Z", "count_points": 1, "latitude": 49.18802, "longitude": 33.46577, "city": "Kremenchuk", "images": []}, {"id": 458156, "min_date": "2020-06-10T22:18:00Z", "max_date": "2020-06-11T00:00:00Z", "count_points": 2, "latitude": 48.17946, "longitude": 37.57877, "city": "Avdiyivka", "images": []}, {"id": 458157, "min_date": "2020-06-11T00:00:00Z", "max_date": "2020-06-11T00:00:00Z", "count_points": 2, "latitude": 48.59958, "longitude": 29.68085, "city": "Teplyk", "images": []}, {"id": 458158, "min_date": "2020-06-11T09:48:00Z", "max_date": "2020-06-11T09:48:00Z", "count_points": 1, "latitude": 48.02042, "longitude": 37.71169, "city": "Donetsk", "images": []}, {"id": 458159, "min_date": "2020-06-11T09:48:00Z", "max_date": "2020-06-11T09:48:00Z", "count_points": 1, "latitude": 46.9621, "longitude": 33.71733, "city": "Kayiry", "images": []}, {"id": 458160, "min_date": "2020-06-11T09:48:00Z", "max_date": "2020-06-11T09:48:00Z", "count_points": 1, "latitude": 48.63991, "longitude": 34.53999, "city": "Auly", "images": []}, {"id": 458161, "min_date": "2020-06-11T09:48:00Z", "max_date": "2020-06-11T09:48:00Z", "count_points": 1, "latitude": 50.33638, "longitude": 27.87179, "city": "Bykivka", "images": []}, {"id": 458162, "min_date": "2020-06-11T11:24:00Z", "max_date": "2020-06-11T11:24:00Z", "count_points": 2, "latitude": 48.88011, "longitude": 27.77096, "city": "Kopayhorod", "images": []}, {"id": 458163, "min_date": "2020-06-11T11:24:00Z", "max_date": "2020-06-11T11:24:00Z", "count_points": 1, "latitude": 48.64502, "longitude": 29.49365, "city": "Haisyn", "images": []}, {"id": 458164, "min_date": "2020-06-11T11:24:00Z", "max_date": "2020-06-14T10:30:00Z", "count_points": 3, "latitude": 48.4045, "longitude": 38.22198, "city": "Svetlodarsk", "images": []}, {"id": 458165, "min_date": "2020-06-11T11:30:00Z", "max_date": "2020-06-11T11:30:00Z", "count_points": 1, "latitude": 50.31725, "longitude": 31.38464, "city": "Baryshivka", "images": []}, {"id": 458166, "min_date": "2020-06-11T11:30:00Z", "max_date": "2020-06-11T11:30:00Z", "count_points": 1, "latitude": 51.23995, "longitude": 30.81529, "city": "Slavutych", "images": []}, {"id": 458167, "min_date": "2020-06-11T11:30:00Z", "max_date": "2020-06-11T11:30:00Z", "count_points": 1, "latitude": 49.86856, "longitude": 33.78424, "city": "Velyka Bahachka", "images": []}, {"id": 458168, "min_date": "2020-06-11T11:30:00Z", "max_date": "2020-06-11T11:30:00Z", "count_points": 2, "latitude": 49.81948, "longitude": 33.37837, "city": "Khorol", "images": []}, {"id": 458169, "min_date": "2020-06-11T23:42:00Z", "max_date": "2020-06-11T23:42:00Z", "count_points": 1, "latitude": 49.5094, "longitude": 32.8365, "city": "Orzhytsya", "images": []}, {"id": 458170, "min_date": "2020-06-11T23:42:00Z", "max_date": "2020-06-11T23:42:00Z", "count_points": 1, "latitude": 48.78007, "longitude": 37.57268, "city": "Kramators\u2019k", "images": []}, {"id": 458171, "min_date": "2020-06-11T23:42:00Z", "max_date": "2020-06-11T23:42:00Z", "count_points": 1, "latitude": 49.85585, "longitude": 36.13526, "city": "Vysokyy", "images": []}, {"id": 458172, "min_date": "2020-06-11T23:42:00Z", "max_date": "2020-06-11T23:42:00Z", "count_points": 1, "latitude": 49.21903, "longitude": 31.76237, "city": "Smila", "images": []}, {"id": 458173, "min_date": "2020-06-12T01:18:00Z", "max_date": "2020-06-12T01:18:00Z", "count_points": 2, "latitude": 50.02534, "longitude": 23.36244, "city": "Verblyany", "images": []}, {"id": 458174, "min_date": "2020-06-12T11:06:00Z", "max_date": "2020-06-12T11:06:00Z", "count_points": 1, "latitude": 51.40187, "longitude": 27.83358, "city": "Olevs\u2019k", "images": []}, {"id": 458175, "min_date": "2020-06-12T11:06:00Z", "max_date": "2020-06-12T11:06:00Z", "count_points": 1, "latitude": 50.39555, "longitude": 27.7778, "city": "Baranivka", "images": []}, {"id": 458176, "min_date": "2020-06-12T23:24:00Z", "max_date": "2020-06-12T23:24:00Z", "count_points": 1, "latitude": 48.82281, "longitude": 32.5051, "city": "Yelyzavethradka", "images": []}, {"id": 458177, "min_date": "2020-06-12T23:24:00Z", "max_date": "2020-06-13T01:00:00Z", "count_points": 2, "latitude": 49.23769, "longitude": 28.30888, "city": "Vinnytsia", "images": []}, {"id": 458178, "min_date": "2020-06-12T23:24:00Z", "max_date": "2020-06-12T23:24:00Z", "count_points": 4, "latitude": 47.777, "longitude": 33.32603, "city": "Shyroke", "images": []}, {"id": 458179, "min_date": "2020-06-13T09:06:00Z", "max_date": "2020-06-13T09:06:00Z", "count_points": 1, "latitude": 49.53393, "longitude": 37.0867, "city": "Savyntsi", "images": []}, {"id": 458180, "min_date": "2020-06-13T10:48:00Z", "max_date": "2020-06-13T10:48:00Z", "count_points": 1, "latitude": 48.7139, "longitude": 38.60397, "city": "Toshkivka", "images": []}, {"id": 458181, "min_date": "2020-06-13T10:48:00Z", "max_date": "2020-06-13T10:48:00Z", "count_points": 2, "latitude": 50.04013, "longitude": 29.92097, "city": "Fastiv", "images": []}, {"id": 458182, "min_date": "2020-06-13T10:48:00Z", "max_date": "2020-06-13T10:48:00Z", "count_points": 1, "latitude": 50.10835, "longitude": 27.54052, "city": "Polonne", "images": []}, {"id": 458183, "min_date": "2020-06-13T10:48:00Z", "max_date": "2020-06-13T10:48:00Z", "count_points": 1, "latitude": 50.63856, "longitude": 26.68969, "city": "Hoshcha", "images": []}, {"id": 458184, "min_date": "2020-06-14T00:42:00Z", "max_date": "2020-06-14T00:42:00Z", "count_points": 1, "latitude": 50.0777, "longitude": 29.96573, "city": "Fastiv", "images": []}, {"id": 458185, "min_date": "2020-06-14T10:30:00Z", "max_date": "2020-06-14T10:30:00Z", "count_points": 1, "latitude": 46.51979, "longitude": 35.12322, "city": "Yakymivka", "images": []}, {"id": 458186, "min_date": "2020-06-14T22:42:00Z", "max_date": "2020-06-14T22:42:00Z", "count_points": 1, "latitude": 50.20687, "longitude": 31.58157, "city": "Pereyaslav-Khmel\u2019nyts\u2019kyy", "images": []}]