[{"id": 470510, "min_date": "2020-12-07T09:06:00Z", "max_date": "2020-12-07T09:42:00Z", "count_points": 3, "latitude": 51.37531, "longitude": 28.73934, "city": "Ovruch", "images": []}, {"id": 470511, "min_date": "2020-12-07T09:06:00Z", "max_date": "2020-12-07T11:24:00Z", "count_points": 5, "latitude": 51.47801, "longitude": 29.04541, "city": "Pershotravneve", "images": []}, {"id": 470512, "min_date": "2020-12-07T09:06:00Z", "max_date": "2020-12-07T09:42:00Z", "count_points": 2, "latitude": 47.78741, "longitude": 34.81025, "city": "Tomakivka", "images": []}, {"id": 470513, "min_date": "2020-12-07T10:51:00Z", "max_date": "2020-12-09T09:54:00Z", "count_points": 4, "latitude": 48.00012, "longitude": 36.97315, "city": "Velyka Novosilka", "images": [{"image_url": "470513.jpg", "timestamp": "2020-12-09T09:54:00Z"}]}, {"id": 470514, "min_date": "2020-12-08T09:55:00Z", "max_date": "2020-12-08T09:55:00Z", "count_points": 1, "latitude": 47.5109, "longitude": 37.1218, "city": "Rozivka", "images": []}, {"id": 470515, "min_date": "2020-12-08T09:56:00Z", "max_date": "2020-12-08T10:12:00Z", "count_points": 3, "latitude": 48.08269, "longitude": 36.87962, "city": "Mezhova", "images": []}, {"id": 470516, "min_date": "2020-12-09T08:54:00Z", "max_date": "2020-12-09T10:42:00Z", "count_points": 7, "latitude": 47.74324, "longitude": 36.51721, "city": "Hulyaypole", "images": [{"image_url": "470516.jpg", "timestamp": "2020-12-09T10:42:00Z"}]}, {"id": 470517, "min_date": "2020-12-09T08:54:00Z", "max_date": "2020-12-09T08:54:00Z", "count_points": 1, "latitude": 48.0157, "longitude": 37.42, "city": "Mareyka", "images": []}, {"id": 470518, "min_date": "2020-12-09T10:38:00Z", "max_date": "2020-12-09T10:42:00Z", "count_points": 3, "latitude": 47.86731, "longitude": 36.8233, "city": "Velyka Novosilka", "images": []}, {"id": 470519, "min_date": "2020-12-09T10:38:00Z", "max_date": "2020-12-09T10:42:00Z", "count_points": 2, "latitude": 48.00464, "longitude": 37.34455, "city": "Kurakhovo", "images": []}, {"id": 470520, "min_date": "2020-12-09T10:39:00Z", "max_date": "2020-12-09T10:42:00Z", "count_points": 3, "latitude": 48.80721, "longitude": 36.07374, "city": "Yur\u201dyivka", "images": []}, {"id": 470521, "min_date": "2020-12-09T10:39:00Z", "max_date": "2020-12-09T10:42:00Z", "count_points": 4, "latitude": 48.70728, "longitude": 34.99872, "city": "Spas\u2019ke", "images": []}, {"id": 470522, "min_date": "2020-12-09T10:39:00Z", "max_date": "2020-12-09T10:42:00Z", "count_points": 4, "latitude": 48.70402, "longitude": 36.2923, "city": "Lozova", "images": []}, {"id": 470523, "min_date": "2020-12-09T10:40:00Z", "max_date": "2020-12-09T10:42:00Z", "count_points": 12, "latitude": 51.56287, "longitude": 27.02522, "city": "Rokytne", "images": [{"image_url": "470523.jpg", "timestamp": "2020-12-09T10:42:00Z"}]}, {"id": 470524, "min_date": "2020-12-11T08:41:00Z", "max_date": "2020-12-11T08:41:00Z", "count_points": 1, "latitude": 49.2452, "longitude": 34.8496, "city": "Hupalivka", "images": []}, {"id": 470525, "min_date": "2020-12-11T08:41:00Z", "max_date": "2020-12-11T10:06:00Z", "count_points": 4, "latitude": 49.16588, "longitude": 35.77994, "city": "Sakhnovshchyna", "images": []}, {"id": 470526, "min_date": "2020-12-11T10:26:00Z", "max_date": "2020-12-11T10:06:00Z", "count_points": 7, "latitude": 48.19437, "longitude": 36.95743, "city": "Mezhova", "images": []}, {"id": 470527, "min_date": "2020-12-11T10:26:00Z", "max_date": "2020-12-11T10:06:00Z", "count_points": 3, "latitude": 48.00334, "longitude": 37.10227, "city": "Kurakhovo", "images": []}, {"id": 470528, "min_date": "2020-12-11T10:27:00Z", "max_date": "2020-12-11T10:27:00Z", "count_points": 1, "latitude": 50.1574, "longitude": 35.5718, "city": "Bohodukhiv", "images": []}, {"id": 470529, "min_date": "2020-12-07T10:30:00Z", "max_date": "2020-12-07T11:24:00Z", "count_points": 3, "latitude": 50.69008, "longitude": 28.37281, "city": "Khoroshiv", "images": []}, {"id": 470530, "min_date": "2020-12-07T10:30:00Z", "max_date": "2020-12-07T10:30:00Z", "count_points": 1, "latitude": 51.60382, "longitude": 27.5625, "city": "Olevs\u2019k", "images": []}, {"id": 470531, "min_date": "2020-12-07T10:30:00Z", "max_date": "2020-12-07T10:30:00Z", "count_points": 1, "latitude": 49.7799, "longitude": 26.77808, "city": "Antoniny", "images": []}, {"id": 470532, "min_date": "2020-12-07T10:30:00Z", "max_date": "2020-12-09T09:54:00Z", "count_points": 4, "latitude": 49.33814, "longitude": 34.58174, "city": "Poltava", "images": []}, {"id": 470533, "min_date": "2020-12-07T10:30:00Z", "max_date": "2020-12-07T10:30:00Z", "count_points": 1, "latitude": 48.97391, "longitude": 35.90128, "city": "Sakhnovshchyna", "images": []}, {"id": 470534, "min_date": "2020-12-07T10:30:00Z", "max_date": "2020-12-07T10:30:00Z", "count_points": 1, "latitude": 48.10508, "longitude": 35.84214, "city": "Novomykolayivka", "images": []}, {"id": 470535, "min_date": "2020-12-07T10:30:00Z", "max_date": "2020-12-07T10:30:00Z", "count_points": 1, "latitude": 50.18279, "longitude": 26.78347, "city": "Izyaslav", "images": []}, {"id": 470536, "min_date": "2020-12-07T10:30:00Z", "max_date": "2020-12-07T11:18:00Z", "count_points": 5, "latitude": 48.07582, "longitude": 36.57086, "city": "Mezhova", "images": []}, {"id": 470537, "min_date": "2020-12-07T10:30:00Z", "max_date": "2020-12-07T10:30:00Z", "count_points": 1, "latitude": 48.39155, "longitude": 38.66863, "city": "Zoryns\u2019k", "images": []}, {"id": 470538, "min_date": "2020-12-07T10:30:00Z", "max_date": "2020-12-07T10:30:00Z", "count_points": 1, "latitude": 51.46829, "longitude": 29.11, "city": "Pershotravneve", "images": []}, {"id": 470539, "min_date": "2020-12-07T10:30:00Z", "max_date": "2020-12-07T10:30:00Z", "count_points": 1, "latitude": 50.88722, "longitude": 29.73725, "city": "Ivankiv", "images": []}, {"id": 470540, "min_date": "2020-12-07T10:30:00Z", "max_date": "2020-12-07T10:30:00Z", "count_points": 1, "latitude": 48.98345, "longitude": 38.08168, "city": "Serebryanka", "images": []}, {"id": 470541, "min_date": "2020-12-07T22:42:00Z", "max_date": "2020-12-07T22:42:00Z", "count_points": 1, "latitude": 45.11637, "longitude": 34.04073, "city": "Krasnaya Zor\u2019ka", "images": []}, {"id": 470542, "min_date": "2020-12-08T10:12:00Z", "max_date": "2020-12-08T11:00:00Z", "count_points": 4, "latitude": 49.99838, "longitude": 34.27316, "city": "Zin\u2019kiv", "images": []}, {"id": 470543, "min_date": "2020-12-08T10:12:00Z", "max_date": "2020-12-08T10:12:00Z", "count_points": 1, "latitude": 48.9048, "longitude": 37.014, "city": "Barvinkove", "images": []}, {"id": 470544, "min_date": "2020-12-08T10:12:00Z", "max_date": "2020-12-08T10:12:00Z", "count_points": 1, "latitude": 47.99035, "longitude": 37.30643, "city": "Kurakhovo", "images": []}, {"id": 470545, "min_date": "2020-12-08T10:12:00Z", "max_date": "2020-12-08T10:12:00Z", "count_points": 2, "latitude": 48.82761, "longitude": 37.47107, "city": "Kramators\u2019k", "images": []}, {"id": 470546, "min_date": "2020-12-08T10:12:00Z", "max_date": "2020-12-08T09:24:00Z", "count_points": 3, "latitude": 48.62922, "longitude": 35.23714, "city": "Novomoskovs\u2019k", "images": []}, {"id": 470547, "min_date": "2020-12-08T10:12:00Z", "max_date": "2020-12-08T10:12:00Z", "count_points": 1, "latitude": 50.31003, "longitude": 34.95331, "city": "Okhtyrka", "images": []}, {"id": 470548, "min_date": "2020-12-08T10:12:00Z", "max_date": "2020-12-08T10:12:00Z", "count_points": 1, "latitude": 49.09174, "longitude": 34.86967, "city": "Hupalivka", "images": []}, {"id": 470549, "min_date": "2020-12-08T10:12:00Z", "max_date": "2020-12-08T11:00:00Z", "count_points": 4, "latitude": 49.17627, "longitude": 37.15624, "city": "Izyum", "images": [{"image_url": "470549.jpg", "timestamp": "2020-12-08T11:00:00Z"}]}, {"id": 470550, "min_date": "2020-12-08T10:12:00Z", "max_date": "2020-12-08T10:12:00Z", "count_points": 1, "latitude": 46.72876, "longitude": 36.03169, "city": "Novovasylivka", "images": []}, {"id": 470551, "min_date": "2020-12-08T10:12:00Z", "max_date": "2020-12-08T10:12:00Z", "count_points": 1, "latitude": 48.19799, "longitude": 35.91394, "city": "Vasyl\u2019kivka", "images": []}, {"id": 470552, "min_date": "2020-12-08T10:12:00Z", "max_date": "2020-12-08T10:12:00Z", "count_points": 1, "latitude": 48.03876, "longitude": 34.62414, "city": "Novopokrovka", "images": []}, {"id": 470553, "min_date": "2020-12-08T10:12:00Z", "max_date": "2020-12-08T10:12:00Z", "count_points": 1, "latitude": 47.96246, "longitude": 38.04378, "city": "Mospyne", "images": []}, {"id": 470554, "min_date": "2020-12-08T10:12:00Z", "max_date": "2020-12-08T10:12:00Z", "count_points": 1, "latitude": 48.17516, "longitude": 35.03491, "city": "Solone", "images": []}, {"id": 470555, "min_date": "2020-12-08T10:12:00Z", "max_date": "2020-12-08T10:12:00Z", "count_points": 1, "latitude": 47.96351, "longitude": 34.50149, "city": "Novopokrovka", "images": []}, {"id": 470556, "min_date": "2020-12-08T22:24:00Z", "max_date": "2020-12-09T00:06:00Z", "count_points": 4, "latitude": 48.41282, "longitude": 36.36747, "city": "Petropavlivka", "images": []}, {"id": 470557, "min_date": "2020-12-09T09:54:00Z", "max_date": "2020-12-11T10:54:00Z", "count_points": 2, "latitude": 48.01306, "longitude": 37.52733, "city": "Mareyka", "images": []}, {"id": 470558, "min_date": "2020-12-09T09:54:00Z", "max_date": "2020-12-09T09:54:00Z", "count_points": 1, "latitude": 48.3651, "longitude": 36.57723, "city": "Petropavlivka", "images": []}, {"id": 470559, "min_date": "2020-12-09T09:54:00Z", "max_date": "2020-12-09T10:42:00Z", "count_points": 6, "latitude": 49.68974, "longitude": 34.76161, "city": "Poltava", "images": []}, {"id": 470560, "min_date": "2020-12-09T09:54:00Z", "max_date": "2020-12-09T09:54:00Z", "count_points": 2, "latitude": 48.57785, "longitude": 35.54536, "city": "Melioratyvne", "images": []}, {"id": 470561, "min_date": "2020-12-09T09:54:00Z", "max_date": "2020-12-09T09:54:00Z", "count_points": 1, "latitude": 48.87512, "longitude": 35.30923, "city": "Hubynykha", "images": []}, {"id": 470562, "min_date": "2020-12-09T09:54:00Z", "max_date": "2020-12-09T09:54:00Z", "count_points": 1, "latitude": 48.15759, "longitude": 38.17666, "city": "Nyzhnya Krynka", "images": []}, {"id": 470563, "min_date": "2020-12-09T09:54:00Z", "max_date": "2020-12-09T10:42:00Z", "count_points": 2, "latitude": 51.81476, "longitude": 32.51252, "city": "Kholmy", "images": []}, {"id": 470564, "min_date": "2020-12-09T09:54:00Z", "max_date": "2020-12-09T09:54:00Z", "count_points": 1, "latitude": 47.7653, "longitude": 37.68682, "city": "Dokuchayevs\u2019k", "images": []}, {"id": 470565, "min_date": "2020-12-09T09:54:00Z", "max_date": "2020-12-09T09:54:00Z", "count_points": 1, "latitude": 47.68713, "longitude": 35.33695, "city": "Malokaterynivka", "images": []}, {"id": 470566, "min_date": "2020-12-09T11:30:00Z", "max_date": "2020-12-09T11:30:00Z", "count_points": 2, "latitude": 48.36741, "longitude": 36.81766, "city": "Mezhova", "images": []}, {"id": 470567, "min_date": "2020-12-09T11:36:00Z", "max_date": "2020-12-09T11:36:00Z", "count_points": 2, "latitude": 49.67589, "longitude": 35.0192, "city": "Chutove", "images": []}, {"id": 470568, "min_date": "2020-12-09T11:36:00Z", "max_date": "2020-12-09T11:36:00Z", "count_points": 1, "latitude": 49.59587, "longitude": 36.44425, "city": "Lyman", "images": []}, {"id": 470569, "min_date": "2020-12-09T11:36:00Z", "max_date": "2020-12-09T11:36:00Z", "count_points": 1, "latitude": 49.11039, "longitude": 35.1146, "city": "Zachepylivka", "images": []}, {"id": 470570, "min_date": "2020-12-09T23:48:00Z", "max_date": "2020-12-10T00:36:00Z", "count_points": 2, "latitude": 48.00934, "longitude": 37.19262, "city": "Kurakhovo", "images": []}, {"id": 470571, "min_date": "2020-12-09T23:48:00Z", "max_date": "2020-12-09T23:48:00Z", "count_points": 1, "latitude": 47.96472, "longitude": 37.10259, "city": "Kurakhovo", "images": []}, {"id": 470572, "min_date": "2020-12-10T23:30:00Z", "max_date": "2020-12-11T00:18:00Z", "count_points": 5, "latitude": 49.55198, "longitude": 34.30139, "city": "Novi Sanzhary", "images": []}, {"id": 470573, "min_date": "2020-12-11T09:12:00Z", "max_date": "2020-12-11T09:12:00Z", "count_points": 1, "latitude": 48.60759, "longitude": 35.07927, "city": "Pidhorodne", "images": []}, {"id": 470574, "min_date": "2020-12-11T09:18:00Z", "max_date": "2020-12-11T10:06:00Z", "count_points": 2, "latitude": 50.06099, "longitude": 35.57405, "city": "Bohodukhiv", "images": []}, {"id": 470575, "min_date": "2020-12-11T10:54:00Z", "max_date": "2020-12-11T10:54:00Z", "count_points": 3, "latitude": 46.96927, "longitude": 36.58827, "city": "Osypenko", "images": []}, {"id": 470576, "min_date": "2020-12-11T10:54:00Z", "max_date": "2020-12-11T10:54:00Z", "count_points": 1, "latitude": 48.66798, "longitude": 34.14355, "city": "Verkhn\u2019odniprovs\u2019k", "images": []}, {"id": 470577, "min_date": "2020-12-11T10:54:00Z", "max_date": "2020-12-11T10:54:00Z", "count_points": 1, "latitude": 48.1988, "longitude": 34.49905, "city": "Novopokrovka", "images": []}, {"id": 470578, "min_date": "2020-12-11T10:54:00Z", "max_date": "2020-12-11T10:54:00Z", "count_points": 1, "latitude": 47.15563, "longitude": 37.66368, "city": "Sartana", "images": []}, {"id": 470579, "min_date": "2020-12-11T10:54:00Z", "max_date": "2020-12-11T10:54:00Z", "count_points": 1, "latitude": 48.82693, "longitude": 34.94975, "city": "Mahdalynivka", "images": []}, {"id": 470580, "min_date": "2020-12-11T10:54:00Z", "max_date": "2020-12-11T10:54:00Z", "count_points": 1, "latitude": 48.82449, "longitude": 37.38244, "city": "Kramators\u2019k", "images": []}, {"id": 470581, "min_date": "2020-12-07T01:36:00Z", "max_date": "2020-12-07T01:36:00Z", "count_points": 1, "latitude": 51.55069, "longitude": 24.38647, "city": "Stara Vyzhivka", "images": []}, {"id": 470582, "min_date": "2020-12-07T09:42:00Z", "max_date": "2020-12-07T09:42:00Z", "count_points": 1, "latitude": 47.66092, "longitude": 38.39582, "city": "Amvrosiyivka", "images": []}, {"id": 470583, "min_date": "2020-12-07T09:42:00Z", "max_date": "2020-12-07T09:42:00Z", "count_points": 1, "latitude": 49.10065, "longitude": 39.6003, "city": "Bilovodsk", "images": []}, {"id": 470584, "min_date": "2020-12-07T09:42:00Z", "max_date": "2020-12-07T09:42:00Z", "count_points": 1, "latitude": 48.89343, "longitude": 37.1548, "city": "Barvinkove", "images": []}, {"id": 470585, "min_date": "2020-12-07T09:42:00Z", "max_date": "2020-12-07T09:42:00Z", "count_points": 1, "latitude": 48.84115, "longitude": 37.28557, "city": "Barvinkove", "images": []}, {"id": 470586, "min_date": "2020-12-07T09:42:00Z", "max_date": "2020-12-07T09:42:00Z", "count_points": 1, "latitude": 49.99105, "longitude": 36.04293, "city": "Solonytsivka", "images": []}, {"id": 470587, "min_date": "2020-12-07T09:42:00Z", "max_date": "2020-12-07T09:42:00Z", "count_points": 1, "latitude": 47.59547, "longitude": 36.20073, "city": "Zaliznychne", "images": []}, {"id": 470588, "min_date": "2020-12-07T09:42:00Z", "max_date": "2020-12-07T09:42:00Z", "count_points": 1, "latitude": 49.44553, "longitude": 31.6215, "city": "Mleyev", "images": []}, {"id": 470589, "min_date": "2020-12-07T11:18:00Z", "max_date": "2020-12-07T11:18:00Z", "count_points": 2, "latitude": 47.69379, "longitude": 36.27209, "city": "Hulyaypole", "images": []}, {"id": 470590, "min_date": "2020-12-07T11:24:00Z", "max_date": "2020-12-07T11:24:00Z", "count_points": 2, "latitude": 50.24106, "longitude": 37.29973, "city": "Prykolotne", "images": []}, {"id": 470591, "min_date": "2020-12-07T11:24:00Z", "max_date": "2020-12-07T11:24:00Z", "count_points": 1, "latitude": 50.79438, "longitude": 28.89323, "city": "Chopovychi", "images": []}, {"id": 470592, "min_date": "2020-12-08T09:24:00Z", "max_date": "2020-12-08T09:24:00Z", "count_points": 1, "latitude": 47.92373, "longitude": 35.75363, "city": "Novomykolayivka", "images": []}, {"id": 470593, "min_date": "2020-12-08T11:00:00Z", "max_date": "2020-12-08T11:00:00Z", "count_points": 1, "latitude": 47.85257, "longitude": 34.47566, "city": "Chervonohryhorivka", "images": []}, {"id": 470594, "min_date": "2020-12-08T11:00:00Z", "max_date": "2020-12-08T11:00:00Z", "count_points": 6, "latitude": 47.75707, "longitude": 35.31036, "city": "Kushuhum", "images": []}, {"id": 470595, "min_date": "2020-12-08T11:00:00Z", "max_date": "2020-12-08T11:00:00Z", "count_points": 1, "latitude": 48.00666, "longitude": 36.84688, "city": "Velyka Novosilka", "images": []}, {"id": 470596, "min_date": "2020-12-08T11:00:00Z", "max_date": "2020-12-08T11:00:00Z", "count_points": 1, "latitude": 49.03001, "longitude": 34.47274, "city": "Tsarychanka", "images": []}, {"id": 470597, "min_date": "2020-12-09T00:54:00Z", "max_date": "2020-12-09T00:54:00Z", "count_points": 1, "latitude": 48.4527, "longitude": 23.25669, "city": "Kushnytsya", "images": []}, {"id": 470598, "min_date": "2020-12-09T09:00:00Z", "max_date": "2020-12-09T09:00:00Z", "count_points": 2, "latitude": 47.14088, "longitude": 37.33259, "city": "Volodars\u2019ke", "images": []}, {"id": 470599, "min_date": "2020-12-09T10:42:00Z", "max_date": "2020-12-09T10:42:00Z", "count_points": 1, "latitude": 49.96709, "longitude": 34.93331, "city": "Kotel\u2019va", "images": []}, {"id": 470600, "min_date": "2020-12-09T10:42:00Z", "max_date": "2020-12-09T10:42:00Z", "count_points": 2, "latitude": 51.7852, "longitude": 26.08561, "city": "Zarichne", "images": []}, {"id": 470601, "min_date": "2020-12-09T10:42:00Z", "max_date": "2020-12-09T10:42:00Z", "count_points": 1, "latitude": 49.18553, "longitude": 34.28872, "city": "Kobelyaky", "images": []}, {"id": 470602, "min_date": "2020-12-09T10:42:00Z", "max_date": "2020-12-09T10:42:00Z", "count_points": 1, "latitude": 47.76426, "longitude": 38.5764, "city": "Amvrosiyivka", "images": []}, {"id": 470603, "min_date": "2020-12-09T10:42:00Z", "max_date": "2020-12-09T10:42:00Z", "count_points": 1, "latitude": 47.96692, "longitude": 35.46255, "city": "Vil\u2019nyans\u2019k", "images": []}, {"id": 470604, "min_date": "2020-12-09T10:42:00Z", "max_date": "2020-12-09T10:42:00Z", "count_points": 1, "latitude": 48.43076, "longitude": 35.1342, "city": "Kaydaki", "images": []}, {"id": 470605, "min_date": "2020-12-09T10:42:00Z", "max_date": "2020-12-09T10:42:00Z", "count_points": 1, "latitude": 50.16768, "longitude": 35.93644, "city": "Zolochiv", "images": []}, {"id": 470606, "min_date": "2020-12-09T10:42:00Z", "max_date": "2020-12-09T10:42:00Z", "count_points": 1, "latitude": 48.0237, "longitude": 38.14388, "city": "Khartsyz\u2019k", "images": []}, {"id": 470607, "min_date": "2020-12-10T10:24:00Z", "max_date": "2020-12-10T10:24:00Z", "count_points": 2, "latitude": 47.91711, "longitude": 39.38411, "city": "Roven\u2019ky", "images": []}, {"id": 470608, "min_date": "2020-12-10T10:24:00Z", "max_date": "2020-12-10T10:24:00Z", "count_points": 1, "latitude": 48.0903, "longitude": 38.27449, "city": "Zuhres", "images": []}, {"id": 470609, "min_date": "2020-12-10T10:24:00Z", "max_date": "2020-12-10T10:24:00Z", "count_points": 1, "latitude": 48.53052, "longitude": 38.36385, "city": "Popasna", "images": []}, {"id": 470610, "min_date": "2020-12-10T10:24:00Z", "max_date": "2020-12-10T10:24:00Z", "count_points": 1, "latitude": 47.8275, "longitude": 38.01656, "city": "Novyy Svit", "images": []}, {"id": 470611, "min_date": "2020-12-11T10:06:00Z", "max_date": "2020-12-11T10:06:00Z", "count_points": 1, "latitude": 48.75521, "longitude": 34.78781, "city": "Petrykivka", "images": []}, {"id": 470612, "min_date": "2020-12-11T10:06:00Z", "max_date": "2020-12-11T10:06:00Z", "count_points": 2, "latitude": 48.30186, "longitude": 36.3742, "city": "Petropavlivka", "images": []}, {"id": 470613, "min_date": "2020-12-11T10:06:00Z", "max_date": "2020-12-11T10:06:00Z", "count_points": 1, "latitude": 47.51648, "longitude": 36.01339, "city": "Mala Tokmachka", "images": []}, {"id": 470614, "min_date": "2020-12-11T10:06:00Z", "max_date": "2020-12-11T10:06:00Z", "count_points": 1, "latitude": 50.14557, "longitude": 34.01739, "city": "Velyki Sorochyntsi", "images": []}, {"id": 470615, "min_date": "2020-12-11T10:06:00Z", "max_date": "2020-12-11T10:06:00Z", "count_points": 1, "latitude": 47.12343, "longitude": 37.55346, "city": "Mariupol", "images": []}, {"id": 470616, "min_date": "2020-12-11T10:06:00Z", "max_date": "2020-12-11T10:06:00Z", "count_points": 1, "latitude": 48.62967, "longitude": 35.76394, "city": "Pavlohrad", "images": []}, {"id": 470617, "min_date": "2020-12-11T10:06:00Z", "max_date": "2020-12-11T10:06:00Z", "count_points": 1, "latitude": 48.99515, "longitude": 34.53286, "city": "Tsarychanka", "images": []}, {"id": 470618, "min_date": "2020-12-11T10:06:00Z", "max_date": "2020-12-11T10:06:00Z", "count_points": 1, "latitude": 48.4332, "longitude": 36.60828, "city": "Petropavlivka", "images": []}]