[{"id": 473934, "min_date": "2021-04-10T09:29:00Z", "max_date": "2021-04-11T11:59:00Z", "count_points": 4, "latitude": 50.44351, "longitude": 24.10198, "city": "Belz", "images": [{"image_url": "473934.jpg", "timestamp": "2021-04-11T11:59:00Z"}, {"image_url": "473934.jpg", "timestamp": "2021-04-11T11:59:00Z"}]}, {"id": 473935, "min_date": "2021-04-11T10:12:00Z", "max_date": "2021-04-11T10:36:00Z", "count_points": 3, "latitude": 49.55054, "longitude": 22.6962, "city": "Dobromyl\u2019", "images": []}, {"id": 473936, "min_date": "2021-04-11T10:12:00Z", "max_date": "2021-04-11T10:12:00Z", "count_points": 2, "latitude": 50.71875, "longitude": 24.1276, "city": "Novovolyns\u2019k", "images": []}, {"id": 473937, "min_date": "2021-04-05T11:42:00Z", "max_date": "2021-04-05T11:42:00Z", "count_points": 1, "latitude": 50.66219, "longitude": 24.10254, "city": "Novovolyns\u2019k", "images": []}, {"id": 473938, "min_date": "2021-04-05T10:48:00Z", "max_date": "2021-04-05T10:48:00Z", "count_points": 1, "latitude": 50.3825, "longitude": 23.93416, "city": "Belz", "images": []}, {"id": 473939, "min_date": "2021-04-05T09:12:00Z", "max_date": "2021-04-05T09:12:00Z", "count_points": 1, "latitude": 50.80053, "longitude": 31.51726, "city": "Kobyzhcha", "images": []}, {"id": 473940, "min_date": "2021-04-05T09:12:00Z", "max_date": "2021-04-11T09:48:00Z", "count_points": 7, "latitude": 51.18406, "longitude": 33.1348, "city": "Konotop", "images": []}, {"id": 473941, "min_date": "2021-04-05T09:12:00Z", "max_date": "2021-04-05T09:12:00Z", "count_points": 1, "latitude": 51.09478, "longitude": 31.88504, "city": "Nizhyn", "images": []}, {"id": 473942, "min_date": "2021-04-05T09:12:00Z", "max_date": "2021-04-10T10:06:00Z", "count_points": 5, "latitude": 50.18155, "longitude": 36.42411, "city": "Kulynychi", "images": []}, {"id": 473943, "min_date": "2021-04-05T10:48:00Z", "max_date": "2021-04-05T10:48:00Z", "count_points": 1, "latitude": 49.49578, "longitude": 23.68754, "city": "Medenychi", "images": []}, {"id": 473944, "min_date": "2021-04-05T10:48:00Z", "max_date": "2021-04-05T10:48:00Z", "count_points": 1, "latitude": 49.05566, "longitude": 28.97841, "city": "Nemyriv", "images": []}, {"id": 473945, "min_date": "2021-04-05T10:48:00Z", "max_date": "2021-04-05T10:48:00Z", "count_points": 1, "latitude": 48.99765, "longitude": 28.8392, "city": "Nemyriv", "images": []}, {"id": 473946, "min_date": "2021-04-05T10:48:00Z", "max_date": "2021-04-05T10:58:00Z", "count_points": 2, "latitude": 51.5109, "longitude": 26.28194, "city": "Volodymyrets\u2019", "images": []}, {"id": 473947, "min_date": "2021-04-05T10:48:00Z", "max_date": "2021-04-05T10:48:00Z", "count_points": 1, "latitude": 49.29228, "longitude": 24.80895, "city": "Bilshivtsi", "images": []}, {"id": 473948, "min_date": "2021-04-05T10:48:00Z", "max_date": "2021-04-05T10:58:00Z", "count_points": 5, "latitude": 48.98009, "longitude": 24.37223, "city": "Kalush", "images": []}, {"id": 473949, "min_date": "2021-04-05T10:48:00Z", "max_date": "2021-04-10T11:48:00Z", "count_points": 4, "latitude": 50.00085, "longitude": 27.54501, "city": "Novoselytsya", "images": []}, {"id": 473950, "min_date": "2021-04-05T10:48:00Z", "max_date": "2021-04-11T10:12:00Z", "count_points": 27, "latitude": 49.43935, "longitude": 23.56066, "city": "Rykhtychi", "images": []}, {"id": 473951, "min_date": "2021-04-05T10:48:00Z", "max_date": "2021-04-11T10:36:00Z", "count_points": 2, "latitude": 48.22302, "longitude": 26.08568, "city": "Boyany", "images": []}, {"id": 473952, "min_date": "2021-04-05T10:48:00Z", "max_date": "2021-04-05T10:48:00Z", "count_points": 1, "latitude": 48.82713, "longitude": 27.30315, "city": "Nova Ushytsya", "images": []}, {"id": 473953, "min_date": "2021-04-05T10:48:00Z", "max_date": "2021-04-05T09:11:00Z", "count_points": 2, "latitude": 49.24747, "longitude": 26.38748, "city": "Zakupne", "images": []}, {"id": 473954, "min_date": "2021-04-05T10:48:00Z", "max_date": "2021-04-05T10:58:00Z", "count_points": 2, "latitude": 49.38957, "longitude": 25.66714, "city": "Mikulintsy", "images": []}, {"id": 473955, "min_date": "2021-04-05T10:48:00Z", "max_date": "2021-04-05T10:48:00Z", "count_points": 1, "latitude": 49.20713, "longitude": 26.72288, "city": "Yarmolyntsi", "images": []}, {"id": 473956, "min_date": "2021-04-05T10:48:00Z", "max_date": "2021-04-11T11:24:00Z", "count_points": 4, "latitude": 48.57623, "longitude": 25.33614, "city": "Chernyatyn", "images": []}, {"id": 473957, "min_date": "2021-04-05T10:48:00Z", "max_date": "2021-04-10T10:54:00Z", "count_points": 2, "latitude": 48.89517, "longitude": 26.38741, "city": "Chemerivtsi", "images": []}, {"id": 473958, "min_date": "2021-04-05T10:48:00Z", "max_date": "2021-04-05T10:48:00Z", "count_points": 1, "latitude": 50.84129, "longitude": 24.2823, "city": "Volodymyr-Volynskyi", "images": []}, {"id": 473959, "min_date": "2021-04-05T10:48:00Z", "max_date": "2021-04-10T10:06:00Z", "count_points": 8, "latitude": 49.85404, "longitude": 23.64817, "city": "Horodok", "images": []}, {"id": 473960, "min_date": "2021-04-05T10:48:00Z", "max_date": "2021-04-05T10:57:00Z", "count_points": 22, "latitude": 48.58991, "longitude": 25.40976, "city": "Chernyatyn", "images": []}, {"id": 473961, "min_date": "2021-04-05T10:48:00Z", "max_date": "2021-04-11T10:36:00Z", "count_points": 2, "latitude": 49.7719, "longitude": 27.07055, "city": "Starokostiantyniv", "images": []}, {"id": 473962, "min_date": "2021-04-05T10:48:00Z", "max_date": "2021-04-05T11:42:00Z", "count_points": 3, "latitude": 48.37616, "longitude": 26.16008, "city": "Boyany", "images": []}, {"id": 473963, "min_date": "2021-04-05T10:48:00Z", "max_date": "2021-04-10T09:30:00Z", "count_points": 3, "latitude": 48.68922, "longitude": 27.23301, "city": "Nova Ushytsya", "images": []}, {"id": 473964, "min_date": "2021-04-05T10:48:00Z", "max_date": "2021-04-11T09:48:00Z", "count_points": 3, "latitude": 49.67068, "longitude": 34.30221, "city": "Poltava", "images": []}, {"id": 473965, "min_date": "2021-04-05T10:48:00Z", "max_date": "2021-04-05T10:48:00Z", "count_points": 1, "latitude": 49.3093, "longitude": 23.81994, "city": "Stryi", "images": []}, {"id": 473966, "min_date": "2021-04-05T10:48:00Z", "max_date": "2021-04-05T10:58:00Z", "count_points": 4, "latitude": 50.39664, "longitude": 25.73934, "city": "Dubno", "images": []}, {"id": 473967, "min_date": "2021-04-05T10:48:00Z", "max_date": "2021-04-05T10:58:00Z", "count_points": 4, "latitude": 50.83384, "longitude": 24.45818, "city": "Volodymyr-Volynskyi", "images": []}, {"id": 473968, "min_date": "2021-04-05T10:48:00Z", "max_date": "2021-04-05T10:48:00Z", "count_points": 1, "latitude": 52.18055, "longitude": 32.70908, "city": "Semenivka", "images": []}, {"id": 473969, "min_date": "2021-04-05T10:48:00Z", "max_date": "2021-04-05T10:48:00Z", "count_points": 1, "latitude": 50.76765, "longitude": 24.59086, "city": "Lokachi", "images": []}, {"id": 473970, "min_date": "2021-04-05T10:48:00Z", "max_date": "2021-04-10T11:16:00Z", "count_points": 12, "latitude": 49.31649, "longitude": 24.53805, "city": "Burshtyn", "images": []}, {"id": 473971, "min_date": "2021-04-05T10:48:00Z", "max_date": "2021-04-11T11:24:00Z", "count_points": 10, "latitude": 49.07911, "longitude": 23.88355, "city": "Bolekhiv", "images": [{"image_url": "473971.jpg", "timestamp": "2021-04-11T11:24:00Z"}]}, {"id": 473972, "min_date": "2021-04-05T10:48:00Z", "max_date": "2021-04-11T11:24:00Z", "count_points": 2, "latitude": 49.0178, "longitude": 24.0297, "city": "Dolyna", "images": []}, {"id": 473973, "min_date": "2021-04-05T10:48:00Z", "max_date": "2021-04-05T10:48:00Z", "count_points": 1, "latitude": 49.56279, "longitude": 23.61074, "city": "Komarno", "images": []}, {"id": 473974, "min_date": "2021-04-05T10:48:00Z", "max_date": "2021-04-05T11:42:00Z", "count_points": 2, "latitude": 49.16166, "longitude": 24.52719, "city": "Burshtyn", "images": []}, {"id": 473975, "min_date": "2021-04-05T10:48:00Z", "max_date": "2021-04-05T09:11:00Z", "count_points": 2, "latitude": 51.62326, "longitude": 25.69278, "city": "Kuznetsovs\u2019k", "images": []}, {"id": 473976, "min_date": "2021-04-05T10:48:00Z", "max_date": "2021-04-05T10:00:00Z", "count_points": 2, "latitude": 51.74226, "longitude": 25.03123, "city": "Kamin-Kashyrskyi", "images": []}, {"id": 473977, "min_date": "2021-04-05T10:48:00Z", "max_date": "2021-04-05T10:58:00Z", "count_points": 15, "latitude": 49.53018, "longitude": 23.73329, "city": "Komarno", "images": []}, {"id": 473978, "min_date": "2021-04-05T10:48:00Z", "max_date": "2021-04-05T10:48:00Z", "count_points": 1, "latitude": 48.42804, "longitude": 22.26112, "city": "Chop", "images": []}, {"id": 473979, "min_date": "2021-04-05T10:48:00Z", "max_date": "2021-04-05T10:58:00Z", "count_points": 4, "latitude": 51.39421, "longitude": 24.81511, "city": "Nuyno", "images": []}, {"id": 473980, "min_date": "2021-04-05T10:48:00Z", "max_date": "2021-04-10T09:30:00Z", "count_points": 6, "latitude": 48.56742, "longitude": 24.97905, "city": "Kolomyia", "images": []}, {"id": 473981, "min_date": "2021-04-05T10:48:00Z", "max_date": "2021-04-05T10:48:00Z", "count_points": 2, "latitude": 51.83228, "longitude": 26.2894, "city": "Zarichne", "images": []}, {"id": 473982, "min_date": "2021-04-05T10:48:00Z", "max_date": "2021-04-09T10:25:00Z", "count_points": 14, "latitude": 49.03867, "longitude": 24.25051, "city": "Broshniv-Osada", "images": []}, {"id": 473983, "min_date": "2021-04-05T10:48:00Z", "max_date": "2021-04-10T11:16:00Z", "count_points": 7, "latitude": 51.4533, "longitude": 32.63332, "city": "Sosnytsya", "images": []}, {"id": 473984, "min_date": "2021-04-05T10:48:00Z", "max_date": "2021-04-05T10:00:00Z", "count_points": 3, "latitude": 48.57631, "longitude": 26.97899, "city": "Kel\u2019mentsi", "images": []}, {"id": 473985, "min_date": "2021-04-05T10:48:00Z", "max_date": "2021-04-05T10:48:00Z", "count_points": 1, "latitude": 48.92001, "longitude": 24.21262, "city": "Svarychiv", "images": []}, {"id": 473986, "min_date": "2021-04-05T10:48:00Z", "max_date": "2021-04-05T09:12:00Z", "count_points": 4, "latitude": 48.50618, "longitude": 22.85985, "city": "Chynadiyovo", "images": []}, {"id": 473987, "min_date": "2021-04-05T10:48:00Z", "max_date": "2021-04-05T10:48:00Z", "count_points": 1, "latitude": 51.53875, "longitude": 33.64022, "city": "Krolevets\u2019", "images": []}, {"id": 473988, "min_date": "2021-04-05T10:48:00Z", "max_date": "2021-04-05T10:48:00Z", "count_points": 1, "latitude": 52.01379, "longitude": 31.58862, "city": "Horodnya", "images": []}, {"id": 473989, "min_date": "2021-04-05T10:48:00Z", "max_date": "2021-04-10T11:16:00Z", "count_points": 13, "latitude": 49.28628, "longitude": 23.99812, "city": "Stryi", "images": [{"image_url": "473989.jpg", "timestamp": "2021-04-10T11:16:00Z"}]}, {"id": 473990, "min_date": "2021-04-05T10:48:00Z", "max_date": "2021-04-05T10:48:00Z", "count_points": 2, "latitude": 49.54181, "longitude": 22.75091, "city": "Dobromyl\u2019", "images": []}, {"id": 473991, "min_date": "2021-04-05T10:48:00Z", "max_date": "2021-04-05T10:00:00Z", "count_points": 4, "latitude": 48.9237, "longitude": 24.77727, "city": "Tysmenytsya", "images": []}, {"id": 473992, "min_date": "2021-04-05T10:48:00Z", "max_date": "2021-04-05T10:48:00Z", "count_points": 1, "latitude": 48.68813, "longitude": 22.66241, "city": "Poroshkovo", "images": []}, {"id": 473993, "min_date": "2021-04-05T10:48:00Z", "max_date": "2021-04-05T10:58:00Z", "count_points": 2, "latitude": 51.12108, "longitude": 24.9937, "city": "Ho\u0142oby", "images": []}, {"id": 473994, "min_date": "2021-04-05T10:48:00Z", "max_date": "2021-04-10T11:16:00Z", "count_points": 16, "latitude": 50.48724, "longitude": 24.39271, "city": "Sokal\u2019", "images": []}, {"id": 473995, "min_date": "2021-04-05T10:48:00Z", "max_date": "2021-04-05T10:57:00Z", "count_points": 8, "latitude": 48.6594, "longitude": 26.347, "city": "Zhvanets", "images": []}, {"id": 473996, "min_date": "2021-04-05T10:48:00Z", "max_date": "2021-04-05T10:48:00Z", "count_points": 1, "latitude": 48.48582, "longitude": 25.06106, "city": "Kolomyia", "images": []}, {"id": 473997, "min_date": "2021-04-05T10:48:00Z", "max_date": "2021-04-05T10:48:00Z", "count_points": 1, "latitude": 50.8583, "longitude": 24.90478, "city": "Ho\u0142oby", "images": []}, {"id": 473998, "min_date": "2021-04-05T10:48:00Z", "max_date": "2021-04-05T10:48:00Z", "count_points": 1, "latitude": 50.80092, "longitude": 34.37097, "city": "Lebedyn", "images": []}, {"id": 473999, "min_date": "2021-04-05T10:48:00Z", "max_date": "2021-04-11T11:59:00Z", "count_points": 4, "latitude": 50.82115, "longitude": 25.30259, "city": "Lutsk", "images": []}, {"id": 474000, "min_date": "2021-04-05T10:48:00Z", "max_date": "2021-04-05T10:48:00Z", "count_points": 1, "latitude": 50.61061, "longitude": 25.28249, "city": "Lutsk", "images": []}, {"id": 474001, "min_date": "2021-04-05T10:48:00Z", "max_date": "2021-04-05T11:42:00Z", "count_points": 2, "latitude": 48.70153, "longitude": 24.40292, "city": "Solotvyn", "images": []}, {"id": 474002, "min_date": "2021-04-05T10:48:00Z", "max_date": "2021-04-11T09:48:00Z", "count_points": 5, "latitude": 49.25264, "longitude": 24.46031, "city": "Burshtyn", "images": []}, {"id": 474003, "min_date": "2021-04-05T10:48:00Z", "max_date": "2021-04-10T11:48:00Z", "count_points": 4, "latitude": 50.0219, "longitude": 33.16759, "city": "Romodan", "images": []}, {"id": 474004, "min_date": "2021-04-05T10:48:00Z", "max_date": "2021-04-05T10:48:00Z", "count_points": 1, "latitude": 49.66398, "longitude": 25.30881, "city": "Ozerna", "images": []}, {"id": 474005, "min_date": "2021-04-05T10:48:00Z", "max_date": "2021-04-10T09:30:00Z", "count_points": 14, "latitude": 49.84128, "longitude": 24.11871, "city": "Dublyany", "images": []}, {"id": 474006, "min_date": "2021-04-05T10:48:00Z", "max_date": "2021-04-10T11:16:00Z", "count_points": 7, "latitude": 49.52783, "longitude": 24.21679, "city": "Bibrka", "images": []}, {"id": 474007, "min_date": "2021-04-05T10:48:00Z", "max_date": "2021-04-05T10:48:00Z", "count_points": 1, "latitude": 48.83749, "longitude": 26.6299, "city": "Makiv", "images": []}, {"id": 474008, "min_date": "2021-04-05T10:48:00Z", "max_date": "2021-04-05T10:48:00Z", "count_points": 2, "latitude": 50.86512, "longitude": 26.49779, "city": "Kostopil\u2019", "images": []}, {"id": 474009, "min_date": "2021-04-05T10:48:00Z", "max_date": "2021-04-10T09:18:00Z", "count_points": 3, "latitude": 50.88768, "longitude": 34.49194, "city": "Lebedyn", "images": []}, {"id": 474010, "min_date": "2021-04-05T10:48:00Z", "max_date": "2021-04-05T10:48:00Z", "count_points": 1, "latitude": 48.88455, "longitude": 26.89707, "city": "Dunaivtsi", "images": []}, {"id": 474011, "min_date": "2021-04-05T10:48:00Z", "max_date": "2021-04-05T10:48:00Z", "count_points": 1, "latitude": 49.85644, "longitude": 23.1271, "city": "Mostyska", "images": []}, {"id": 474012, "min_date": "2021-04-05T10:48:00Z", "max_date": "2021-04-11T11:30:00Z", "count_points": 4, "latitude": 51.44806, "longitude": 26.12637, "city": "Volodymyrets\u2019", "images": []}, {"id": 474013, "min_date": "2021-04-05T10:48:00Z", "max_date": "2021-04-11T10:12:00Z", "count_points": 11, "latitude": 49.7254, "longitude": 23.50117, "city": "Rodatychi", "images": []}, {"id": 474014, "min_date": "2021-04-05T10:48:00Z", "max_date": "2021-04-05T10:58:00Z", "count_points": 2, "latitude": 48.87123, "longitude": 24.86329, "city": "Tysmenytsya", "images": []}, {"id": 474015, "min_date": "2021-04-05T10:48:00Z", "max_date": "2021-04-05T10:58:00Z", "count_points": 2, "latitude": 49.5739, "longitude": 23.56995, "city": "Rudky", "images": []}, {"id": 474016, "min_date": "2021-04-05T10:48:00Z", "max_date": "2021-04-05T11:42:00Z", "count_points": 2, "latitude": 49.68987, "longitude": 25.04127, "city": "Zboriv", "images": []}, {"id": 474017, "min_date": "2021-04-05T10:48:00Z", "max_date": "2021-04-05T09:11:00Z", "count_points": 7, "latitude": 49.2118, "longitude": 24.86991, "city": "Bilshivtsi", "images": []}, {"id": 474018, "min_date": "2021-04-05T10:48:00Z", "max_date": "2021-04-05T10:48:00Z", "count_points": 1, "latitude": 49.43281, "longitude": 23.82609, "city": "Medenychi", "images": []}, {"id": 474019, "min_date": "2021-04-05T10:48:00Z", "max_date": "2021-04-11T08:34:00Z", "count_points": 2, "latitude": 49.36544, "longitude": 26.22513, "city": "Volochysk", "images": []}, {"id": 474020, "min_date": "2021-04-05T10:48:00Z", "max_date": "2021-04-05T10:58:00Z", "count_points": 10, "latitude": 49.28808, "longitude": 24.86992, "city": "Bilshivtsi", "images": []}, {"id": 474021, "min_date": "2021-04-05T12:30:00Z", "max_date": "2021-04-10T11:16:00Z", "count_points": 9, "latitude": 49.59755, "longitude": 23.48657, "city": "Rudky", "images": []}, {"id": 474022, "min_date": "2021-04-05T23:00:00Z", "max_date": "2021-04-05T23:54:00Z", "count_points": 5, "latitude": 51.80187, "longitude": 34.1665, "city": "Chervone", "images": []}, {"id": 474023, "min_date": "2021-04-05T23:00:00Z", "max_date": "2021-04-11T22:48:00Z", "count_points": 3, "latitude": 50.30287, "longitude": 33.84503, "city": "Hadyach", "images": []}, {"id": 474024, "min_date": "2021-04-05T23:00:00Z", "max_date": "2021-04-05T20:21:00Z", "count_points": 9, "latitude": 49.90292, "longitude": 31.1977, "city": "Rzhyshchiv", "images": []}, {"id": 474025, "min_date": "2021-04-05T23:00:00Z", "max_date": "2021-04-05T23:54:00Z", "count_points": 3, "latitude": 49.50713, "longitude": 37.41931, "city": "Borova", "images": []}, {"id": 474026, "min_date": "2021-04-05T23:00:00Z", "max_date": "2021-04-11T00:00:00Z", "count_points": 5, "latitude": 49.49421, "longitude": 36.74378, "city": "Balakliya", "images": []}, {"id": 474027, "min_date": "2021-04-05T23:00:00Z", "max_date": "2021-04-05T23:54:00Z", "count_points": 6, "latitude": 51.03471, "longitude": 30.88043, "city": "Oster", "images": []}, {"id": 474028, "min_date": "2021-04-05T23:00:00Z", "max_date": "2021-04-06T11:18:00Z", "count_points": 4, "latitude": 50.54632, "longitude": 32.17944, "city": "Lisovi Sorochyntsi", "images": []}, {"id": 474029, "min_date": "2021-04-06T00:42:00Z", "max_date": "2021-04-06T10:30:00Z", "count_points": 2, "latitude": 51.37982, "longitude": 32.08821, "city": "Mena", "images": []}, {"id": 474030, "min_date": "2021-04-06T00:42:00Z", "max_date": "2021-04-06T00:42:00Z", "count_points": 1, "latitude": 48.50741, "longitude": 26.99328, "city": "Kel\u2019mentsi", "images": []}, {"id": 474031, "min_date": "2021-04-06T08:48:00Z", "max_date": "2021-04-06T09:42:00Z", "count_points": 3, "latitude": 49.04701, "longitude": 37.95485, "city": "Krasnyy Lyman", "images": []}, {"id": 474032, "min_date": "2021-04-06T08:48:00Z", "max_date": "2021-04-06T08:48:00Z", "count_points": 2, "latitude": 49.61983, "longitude": 37.12453, "city": "Shevchenkove", "images": []}, {"id": 474033, "min_date": "2021-04-06T08:54:00Z", "max_date": "2021-04-06T10:03:00Z", "count_points": 7, "latitude": 50.68493, "longitude": 34.14695, "city": "Nedryhayliv", "images": []}, {"id": 474034, "min_date": "2021-04-06T08:54:00Z", "max_date": "2021-04-06T08:54:00Z", "count_points": 1, "latitude": 50.86959, "longitude": 34.54308, "city": "Nyzy", "images": []}, {"id": 474035, "min_date": "2021-04-06T10:30:00Z", "max_date": "2021-04-06T10:30:00Z", "count_points": 2, "latitude": 51.33637, "longitude": 32.89958, "city": "Baturyn", "images": []}, {"id": 474036, "min_date": "2021-04-06T10:30:00Z", "max_date": "2021-04-06T10:30:00Z", "count_points": 1, "latitude": 49.66801, "longitude": 31.86764, "city": "Zolotonosha", "images": []}, {"id": 474037, "min_date": "2021-04-06T10:30:00Z", "max_date": "2021-04-05T23:54:00Z", "count_points": 4, "latitude": 51.66934, "longitude": 32.44109, "city": "Sosnytsya", "images": []}, {"id": 474038, "min_date": "2021-04-06T10:30:00Z", "max_date": "2021-04-06T10:30:00Z", "count_points": 1, "latitude": 51.66106, "longitude": 32.2821, "city": "Koryukivka", "images": []}, {"id": 474039, "min_date": "2021-04-06T10:30:00Z", "max_date": "2021-04-11T10:21:00Z", "count_points": 22, "latitude": 50.69961, "longitude": 31.24134, "city": "Bobrovytsya", "images": []}, {"id": 474040, "min_date": "2021-04-06T10:30:00Z", "max_date": "2021-04-06T10:30:00Z", "count_points": 1, "latitude": 49.09701, "longitude": 28.3866, "city": "Sutysky", "images": []}, {"id": 474041, "min_date": "2021-04-06T10:30:00Z", "max_date": "2021-04-06T10:30:00Z", "count_points": 1, "latitude": 49.13576, "longitude": 28.7821, "city": "Voronovytsya", "images": []}, {"id": 474042, "min_date": "2021-04-06T10:30:00Z", "max_date": "2021-04-06T10:30:00Z", "count_points": 1, "latitude": 47.54948, "longitude": 34.23632, "city": "Chortomlyk", "images": []}, {"id": 474043, "min_date": "2021-04-06T10:30:00Z", "max_date": "2021-04-06T10:30:00Z", "count_points": 1, "latitude": 49.60385, "longitude": 32.84819, "city": "Orzhytsya", "images": []}, {"id": 474044, "min_date": "2021-04-06T10:30:00Z", "max_date": "2021-04-07T09:24:00Z", "count_points": 5, "latitude": 49.45184, "longitude": 32.85738, "city": "Hradyz\u2019k", "images": []}, {"id": 474045, "min_date": "2021-04-06T10:30:00Z", "max_date": "2021-04-06T10:30:00Z", "count_points": 1, "latitude": 51.383, "longitude": 31.60249, "city": "Kulykivka", "images": []}, {"id": 474046, "min_date": "2021-04-06T10:30:00Z", "max_date": "2021-04-11T09:48:00Z", "count_points": 6, "latitude": 51.34175, "longitude": 31.9059, "city": "Berezna", "images": []}, {"id": 474047, "min_date": "2021-04-06T10:30:00Z", "max_date": "2021-04-06T10:30:00Z", "count_points": 1, "latitude": 50.2583, "longitude": 31.73081, "city": "Yahotyn", "images": []}, {"id": 474048, "min_date": "2021-04-06T10:30:00Z", "max_date": "2021-04-06T11:18:00Z", "count_points": 6, "latitude": 48.56285, "longitude": 29.95603, "city": "Teplyk", "images": []}, {"id": 474049, "min_date": "2021-04-06T10:30:00Z", "max_date": "2021-04-06T10:30:00Z", "count_points": 1, "latitude": 50.27338, "longitude": 33.471, "city": "Sencha", "images": []}, {"id": 474050, "min_date": "2021-04-06T10:30:00Z", "max_date": "2021-04-11T10:36:00Z", "count_points": 2, "latitude": 50.1877, "longitude": 33.37035, "city": "Sencha", "images": []}, {"id": 474051, "min_date": "2021-04-06T10:30:00Z", "max_date": "2021-04-06T10:30:00Z", "count_points": 1, "latitude": 49.66781, "longitude": 32.34731, "city": "Chornobay", "images": []}, {"id": 474052, "min_date": "2021-04-06T10:30:00Z", "max_date": "2021-04-06T10:30:00Z", "count_points": 1, "latitude": 50.49992, "longitude": 33.72337, "city": "Lypova Dolyna", "images": []}, {"id": 474053, "min_date": "2021-04-06T10:30:00Z", "max_date": "2021-04-06T10:30:00Z", "count_points": 1, "latitude": 48.27799, "longitude": 29.05084, "city": "Torkanivka", "images": []}, {"id": 474054, "min_date": "2021-04-06T10:30:00Z", "max_date": "2021-04-06T10:30:00Z", "count_points": 1, "latitude": 46.51373, "longitude": 32.65382, "city": "Tsyurupyns\u2019k", "images": []}, {"id": 474055, "min_date": "2021-04-06T10:30:00Z", "max_date": "2021-04-06T10:30:00Z", "count_points": 2, "latitude": 50.0284, "longitude": 30.59157, "city": "Obukhiv", "images": []}, {"id": 474056, "min_date": "2021-04-06T10:30:00Z", "max_date": "2021-04-06T10:30:00Z", "count_points": 1, "latitude": 50.2617, "longitude": 31.00396, "city": "Boryspil\u2019", "images": []}, {"id": 474057, "min_date": "2021-04-06T10:30:00Z", "max_date": "2021-04-11T08:34:00Z", "count_points": 5, "latitude": 51.57293, "longitude": 33.75204, "city": "Hlukhiv", "images": []}, {"id": 474058, "min_date": "2021-04-06T10:30:00Z", "max_date": "2021-04-06T09:42:00Z", "count_points": 3, "latitude": 50.86662, "longitude": 35.22376, "city": "Krasnopillya", "images": []}, {"id": 474059, "min_date": "2021-04-06T10:30:00Z", "max_date": "2021-04-06T10:30:00Z", "count_points": 1, "latitude": 49.94094, "longitude": 32.8584, "city": "Lubny", "images": []}, {"id": 474060, "min_date": "2021-04-06T10:30:00Z", "max_date": "2021-04-06T10:30:00Z", "count_points": 1, "latitude": 51.56884, "longitude": 33.35727, "city": "Krolevets\u2019", "images": []}, {"id": 474061, "min_date": "2021-04-06T10:30:00Z", "max_date": "2021-04-06T10:30:00Z", "count_points": 1, "latitude": 50.89381, "longitude": 33.68924, "city": "Nedryhayliv", "images": []}, {"id": 474062, "min_date": "2021-04-06T10:30:00Z", "max_date": "2021-04-11T09:48:00Z", "count_points": 3, "latitude": 51.29145, "longitude": 31.38928, "city": "Olyshivka", "images": []}, {"id": 474063, "min_date": "2021-04-06T10:30:00Z", "max_date": "2021-04-06T10:30:00Z", "count_points": 1, "latitude": 51.23283, "longitude": 31.32495, "city": "Olyshivka", "images": []}, {"id": 474064, "min_date": "2021-04-06T10:30:00Z", "max_date": "2021-04-06T10:30:00Z", "count_points": 1, "latitude": 50.97532, "longitude": 33.51353, "city": "Romny", "images": []}, {"id": 474065, "min_date": "2021-04-06T10:30:00Z", "max_date": "2021-04-06T09:42:00Z", "count_points": 4, "latitude": 50.77034, "longitude": 33.55684, "city": "Romny", "images": []}, {"id": 474066, "min_date": "2021-04-06T10:30:00Z", "max_date": "2021-04-06T10:30:00Z", "count_points": 2, "latitude": 51.23206, "longitude": 34.20618, "city": "Vorozhba", "images": []}, {"id": 474067, "min_date": "2021-04-06T10:30:00Z", "max_date": "2021-04-10T10:54:00Z", "count_points": 2, "latitude": 51.18604, "longitude": 34.23281, "city": "Vorozhba", "images": []}, {"id": 474068, "min_date": "2021-04-06T10:30:00Z", "max_date": "2021-04-06T09:42:00Z", "count_points": 3, "latitude": 48.58211, "longitude": 29.77449, "city": "Teplyk", "images": []}, {"id": 474069, "min_date": "2021-04-06T10:30:00Z", "max_date": "2021-04-06T10:30:00Z", "count_points": 2, "latitude": 50.29543, "longitude": 29.03228, "city": "Korostyshiv", "images": []}, {"id": 474070, "min_date": "2021-04-06T10:30:00Z", "max_date": "2021-04-06T09:42:00Z", "count_points": 2, "latitude": 49.64717, "longitude": 31.5023, "city": "Kaniv", "images": []}, {"id": 474071, "min_date": "2021-04-06T10:30:00Z", "max_date": "2021-04-06T10:30:00Z", "count_points": 2, "latitude": 49.94844, "longitude": 30.25806, "city": "Uzyn", "images": []}, {"id": 474072, "min_date": "2021-04-06T10:30:00Z", "max_date": "2021-04-06T10:30:00Z", "count_points": 1, "latitude": 50.99126, "longitude": 31.53726, "city": "Nosivka", "images": []}, {"id": 474073, "min_date": "2021-04-06T10:30:00Z", "max_date": "2021-04-06T10:30:00Z", "count_points": 5, "latitude": 46.20071, "longitude": 33.10967, "city": "Kalanchak", "images": []}, {"id": 474074, "min_date": "2021-04-06T10:30:00Z", "max_date": "2021-04-06T10:30:00Z", "count_points": 1, "latitude": 51.06686, "longitude": 31.9357, "city": "Nizhyn", "images": []}, {"id": 474075, "min_date": "2021-04-06T10:30:00Z", "max_date": "2021-04-06T10:30:00Z", "count_points": 1, "latitude": 50.86385, "longitude": 31.86786, "city": "Talalayivka", "images": []}, {"id": 474076, "min_date": "2021-04-06T10:30:00Z", "max_date": "2021-04-06T10:30:00Z", "count_points": 1, "latitude": 50.72394, "longitude": 32.05141, "city": "Talalayivka", "images": []}, {"id": 474077, "min_date": "2021-04-06T10:30:00Z", "max_date": "2021-04-06T10:30:00Z", "count_points": 1, "latitude": 50.29203, "longitude": 29.52973, "city": "Brusyliv", "images": []}, {"id": 474078, "min_date": "2021-04-06T10:30:00Z", "max_date": "2021-04-06T11:24:00Z", "count_points": 6, "latitude": 51.88436, "longitude": 33.97324, "city": "Chervone", "images": []}, {"id": 474079, "min_date": "2021-04-06T10:30:00Z", "max_date": "2021-04-10T10:06:00Z", "count_points": 3, "latitude": 49.28068, "longitude": 38.29922, "city": "Svatove", "images": []}, {"id": 474080, "min_date": "2021-04-06T10:30:00Z", "max_date": "2021-04-06T10:30:00Z", "count_points": 6, "latitude": 49.29727, "longitude": 38.45921, "city": "Rubizhne", "images": []}, {"id": 474081, "min_date": "2021-04-06T10:30:00Z", "max_date": "2021-04-06T10:30:00Z", "count_points": 1, "latitude": 48.37901, "longitude": 34.64708, "city": "Surs\u2019ko-Mykhaylivka", "images": []}, {"id": 474082, "min_date": "2021-04-06T10:30:00Z", "max_date": "2021-04-06T10:30:00Z", "count_points": 2, "latitude": 51.7558, "longitude": 31.71429, "city": "Horodnya", "images": []}, {"id": 474083, "min_date": "2021-04-06T22:42:00Z", "max_date": "2021-04-06T22:42:00Z", "count_points": 1, "latitude": 49.3256, "longitude": 35.02156, "city": "Karlivka", "images": []}, {"id": 474084, "min_date": "2021-04-06T22:42:00Z", "max_date": "2021-04-06T23:36:00Z", "count_points": 6, "latitude": 51.31608, "longitude": 33.20408, "city": "Konotop", "images": []}, {"id": 474085, "min_date": "2021-04-06T22:42:00Z", "max_date": "2021-04-06T22:42:00Z", "count_points": 1, "latitude": 51.7027, "longitude": 33.87711, "city": "Hlukhiv", "images": []}, {"id": 474086, "min_date": "2021-04-06T22:42:00Z", "max_date": "2021-04-10T11:16:00Z", "count_points": 3, "latitude": 50.84123, "longitude": 32.60225, "city": "Ichnya", "images": []}, {"id": 474087, "min_date": "2021-04-07T00:24:00Z", "max_date": "2021-04-06T19:26:00Z", "count_points": 5, "latitude": 49.70194, "longitude": 32.72232, "city": "Orzhytsya", "images": []}, {"id": 474088, "min_date": "2021-04-07T00:24:00Z", "max_date": "2021-04-06T23:36:00Z", "count_points": 3, "latitude": 51.35607, "longitude": 33.11457, "city": "Konotop", "images": []}, {"id": 474089, "min_date": "2021-04-07T00:24:00Z", "max_date": "2021-04-11T11:24:00Z", "count_points": 4, "latitude": 50.10966, "longitude": 30.71974, "city": "Ukrainka", "images": []}, {"id": 474090, "min_date": "2021-04-07T10:12:00Z", "max_date": "2021-04-11T00:00:00Z", "count_points": 10, "latitude": 49.53104, "longitude": 32.72548, "city": "Orzhytsya", "images": []}, {"id": 474091, "min_date": "2021-04-07T10:12:00Z", "max_date": "2021-04-07T10:12:00Z", "count_points": 1, "latitude": 47.2481, "longitude": 35.81187, "city": "Tokmak", "images": []}, {"id": 474092, "min_date": "2021-04-07T10:12:00Z", "max_date": "2021-04-07T10:12:00Z", "count_points": 1, "latitude": 48.58042, "longitude": 37.60279, "city": "Druzhkivka", "images": []}, {"id": 474093, "min_date": "2021-04-07T10:12:00Z", "max_date": "2021-04-07T08:59:00Z", "count_points": 4, "latitude": 48.84815, "longitude": 32.55537, "city": "Yelyzavethradka", "images": []}, {"id": 474094, "min_date": "2021-04-07T10:12:00Z", "max_date": "2021-04-07T08:59:00Z", "count_points": 7, "latitude": 48.98376, "longitude": 33.05193, "city": "Svitlovods\u2019k", "images": [{"image_url": "474094.jpg", "timestamp": "2021-04-07T08:59:00Z"}]}, {"id": 474095, "min_date": "2021-04-07T10:12:00Z", "max_date": "2021-04-07T10:12:00Z", "count_points": 2, "latitude": 51.16578, "longitude": 24.55561, "city": "Turiys\u2019k", "images": []}, {"id": 474096, "min_date": "2021-04-07T11:54:00Z", "max_date": "2021-04-11T11:30:00Z", "count_points": 6, "latitude": 51.88942, "longitude": 26.08835, "city": "Zarichne", "images": []}, {"id": 474097, "min_date": "2021-04-08T00:06:00Z", "max_date": "2021-04-07T20:09:00Z", "count_points": 9, "latitude": 49.75819, "longitude": 26.78285, "city": "Antoniny", "images": []}, {"id": 474098, "min_date": "2021-04-08T01:48:00Z", "max_date": "2021-04-08T01:48:00Z", "count_points": 1, "latitude": 48.0169, "longitude": 23.86884, "city": "Serednye Vodyane", "images": []}, {"id": 474099, "min_date": "2021-04-08T09:54:00Z", "max_date": "2021-04-08T09:54:00Z", "count_points": 1, "latitude": 48.25827, "longitude": 37.3565, "city": "Myrnohrad", "images": []}, {"id": 474100, "min_date": "2021-04-08T09:54:00Z", "max_date": "2021-04-08T09:00:00Z", "count_points": 2, "latitude": 48.76276, "longitude": 37.84363, "city": "Chasiv Yar", "images": []}, {"id": 474101, "min_date": "2021-04-08T09:54:00Z", "max_date": "2021-04-08T09:54:00Z", "count_points": 2, "latitude": 49.85263, "longitude": 32.94425, "city": "Lubny", "images": []}, {"id": 474102, "min_date": "2021-04-08T09:54:00Z", "max_date": "2021-04-08T09:54:00Z", "count_points": 1, "latitude": 49.14658, "longitude": 26.59493, "city": "Horodok", "images": []}, {"id": 474103, "min_date": "2021-04-08T11:36:00Z", "max_date": "2021-04-08T11:28:00Z", "count_points": 7, "latitude": 49.13345, "longitude": 25.60694, "city": "Druzhba", "images": []}, {"id": 474104, "min_date": "2021-04-08T11:36:00Z", "max_date": "2021-04-08T11:36:00Z", "count_points": 1, "latitude": 49.3945, "longitude": 25.85299, "city": "Skalat", "images": []}, {"id": 474105, "min_date": "2021-04-08T11:36:00Z", "max_date": "2021-04-08T11:36:00Z", "count_points": 2, "latitude": 48.71672, "longitude": 25.17094, "city": "Obertyn", "images": []}, {"id": 474106, "min_date": "2021-04-08T11:36:00Z", "max_date": "2021-04-08T11:36:00Z", "count_points": 1, "latitude": 48.71398, "longitude": 31.94398, "city": "Kapitanivka", "images": []}, {"id": 474107, "min_date": "2021-04-08T23:48:00Z", "max_date": "2021-04-08T23:48:00Z", "count_points": 1, "latitude": 50.57538, "longitude": 30.55108, "city": "Vyshhorod", "images": []}, {"id": 474108, "min_date": "2021-04-09T09:36:00Z", "max_date": "2021-04-09T10:24:00Z", "count_points": 5, "latitude": 48.67012, "longitude": 34.65836, "city": "Petrykivka", "images": []}, {"id": 474109, "min_date": "2021-04-09T09:36:00Z", "max_date": "2021-04-09T09:36:00Z", "count_points": 1, "latitude": 49.66031, "longitude": 36.25152, "city": "Zmiyiv", "images": []}, {"id": 474110, "min_date": "2021-04-09T09:36:00Z", "max_date": "2021-04-09T09:36:00Z", "count_points": 1, "latitude": 48.69083, "longitude": 35.22907, "city": "Novomoskovs\u2019k", "images": []}, {"id": 474111, "min_date": "2021-04-09T09:36:00Z", "max_date": "2021-04-11T10:21:00Z", "count_points": 7, "latitude": 49.86331, "longitude": 36.26026, "city": "Khorosheve", "images": [{"image_url": "474111.jpg", "timestamp": "2021-04-11T10:21:00Z"}]}, {"id": 474112, "min_date": "2021-04-09T09:36:00Z", "max_date": "2021-04-09T09:36:00Z", "count_points": 1, "latitude": 48.2982, "longitude": 34.10194, "city": "Vyshneve", "images": []}, {"id": 474113, "min_date": "2021-04-09T09:36:00Z", "max_date": "2021-04-09T09:36:00Z", "count_points": 2, "latitude": 49.62769, "longitude": 24.95345, "city": "Pomoriany", "images": []}, {"id": 474114, "min_date": "2021-04-09T09:36:00Z", "max_date": "2021-04-09T09:36:00Z", "count_points": 1, "latitude": 49.81836, "longitude": 38.87679, "city": "Lozno-Oleksandrivka", "images": []}, {"id": 474115, "min_date": "2021-04-09T09:36:00Z", "max_date": "2021-04-09T10:24:00Z", "count_points": 3, "latitude": 48.73899, "longitude": 24.73543, "city": "Tysmenychany", "images": []}, {"id": 474116, "min_date": "2021-04-09T11:12:00Z", "max_date": "2021-04-09T12:06:00Z", "count_points": 3, "latitude": 48.53555, "longitude": 25.68878, "city": "Verenchanka", "images": []}, {"id": 474117, "min_date": "2021-04-09T11:12:00Z", "max_date": "2021-04-09T11:12:00Z", "count_points": 3, "latitude": 48.1506, "longitude": 23.35513, "city": "Khust", "images": []}, {"id": 474118, "min_date": "2021-04-09T11:12:00Z", "max_date": "2021-04-11T10:12:00Z", "count_points": 6, "latitude": 49.30783, "longitude": 23.4108, "city": "Boryslav", "images": [{"image_url": "474118.jpg", "timestamp": "2021-04-11T10:12:00Z"}]}, {"id": 474119, "min_date": "2021-04-09T11:12:00Z", "max_date": "2021-04-09T11:12:00Z", "count_points": 1, "latitude": 48.17529, "longitude": 34.76414, "city": "Surs\u2019ko-Mykhaylivka", "images": []}, {"id": 474120, "min_date": "2021-04-09T11:12:00Z", "max_date": "2021-04-09T12:06:00Z", "count_points": 4, "latitude": 48.97773, "longitude": 24.18093, "city": "Broshniv-Osada", "images": [{"image_url": "474120.jpg", "timestamp": "2021-04-09T12:06:00Z"}]}, {"id": 474121, "min_date": "2021-04-09T11:12:00Z", "max_date": "2021-04-09T11:12:00Z", "count_points": 1, "latitude": 48.36446, "longitude": 22.29886, "city": "Batiovo", "images": []}, {"id": 474122, "min_date": "2021-04-09T11:12:00Z", "max_date": "2021-04-09T11:12:00Z", "count_points": 2, "latitude": 49.02526, "longitude": 24.60073, "city": "Yamnytsya", "images": []}, {"id": 474123, "min_date": "2021-04-09T11:12:00Z", "max_date": "2021-04-10T11:16:00Z", "count_points": 15, "latitude": 48.77976, "longitude": 25.09284, "city": "Obertyn", "images": []}, {"id": 474124, "min_date": "2021-04-09T11:12:00Z", "max_date": "2021-04-09T12:06:00Z", "count_points": 3, "latitude": 48.86558, "longitude": 25.20352, "city": "Zolotyy Potik", "images": []}, {"id": 474125, "min_date": "2021-04-09T11:12:00Z", "max_date": "2021-04-05T10:00:00Z", "count_points": 3, "latitude": 45.48034, "longitude": 29.53088, "city": "Vylkove", "images": []}, {"id": 474126, "min_date": "2021-04-09T11:12:00Z", "max_date": "2021-04-09T12:06:00Z", "count_points": 2, "latitude": 48.97849, "longitude": 24.33039, "city": "Novytsya", "images": []}, {"id": 474127, "min_date": "2021-04-09T11:12:00Z", "max_date": "2021-04-09T12:06:00Z", "count_points": 2, "latitude": 48.84326, "longitude": 24.93687, "city": "Chornoliztsi", "images": []}, {"id": 474128, "min_date": "2021-04-09T11:12:00Z", "max_date": "2021-04-09T11:12:00Z", "count_points": 1, "latitude": 49.3092, "longitude": 26.21441, "city": "Hrymayliv", "images": []}, {"id": 474129, "min_date": "2021-04-09T11:12:00Z", "max_date": "2021-04-09T11:12:00Z", "count_points": 2, "latitude": 48.40196, "longitude": 25.17048, "city": "Khymchyn", "images": []}, {"id": 474130, "min_date": "2021-04-09T11:12:00Z", "max_date": "2021-04-09T11:12:00Z", "count_points": 2, "latitude": 48.92621, "longitude": 24.10725, "city": "Rozhnyativ", "images": []}, {"id": 474131, "min_date": "2021-04-09T11:12:00Z", "max_date": "2021-04-09T11:12:00Z", "count_points": 1, "latitude": 48.98479, "longitude": 25.80053, "city": "Chortkiv", "images": []}, {"id": 474132, "min_date": "2021-04-09T11:12:00Z", "max_date": "2021-04-09T11:12:00Z", "count_points": 1, "latitude": 48.9728, "longitude": 25.45705, "city": "Druzhba", "images": []}, {"id": 474133, "min_date": "2021-04-09T11:12:00Z", "max_date": "2021-04-09T11:12:00Z", "count_points": 1, "latitude": 48.14995, "longitude": 33.12626, "city": "Lozuvatka", "images": []}, {"id": 474134, "min_date": "2021-04-09T11:12:00Z", "max_date": "2021-04-09T11:12:00Z", "count_points": 2, "latitude": 49.19202, "longitude": 24.26356, "city": "Broshniv-Osada", "images": []}, {"id": 474135, "min_date": "2021-04-09T11:12:00Z", "max_date": "2021-04-09T11:12:00Z", "count_points": 2, "latitude": 45.12439, "longitude": 35.32305, "city": "Blizhneye", "images": []}, {"id": 474136, "min_date": "2021-04-09T11:12:00Z", "max_date": "2021-04-10T11:16:00Z", "count_points": 3, "latitude": 49.25227, "longitude": 24.72924, "city": "Bilshivtsi", "images": []}, {"id": 474137, "min_date": "2021-04-09T11:12:00Z", "max_date": "2021-04-09T11:12:00Z", "count_points": 1, "latitude": 48.48344, "longitude": 24.7193, "city": "Bili Oslavy", "images": []}, {"id": 474138, "min_date": "2021-04-09T11:12:00Z", "max_date": "2021-04-10T09:30:00Z", "count_points": 9, "latitude": 48.54797, "longitude": 25.50028, "city": "Stetseva", "images": []}, {"id": 474139, "min_date": "2021-04-09T11:12:00Z", "max_date": "2021-04-11T11:24:00Z", "count_points": 4, "latitude": 48.55667, "longitude": 25.64854, "city": "Verenchanka", "images": []}, {"id": 474140, "min_date": "2021-04-09T11:12:00Z", "max_date": "2021-04-09T12:06:00Z", "count_points": 6, "latitude": 48.38626, "longitude": 26.32366, "city": "Klishkivtsi", "images": []}, {"id": 474141, "min_date": "2021-04-09T11:12:00Z", "max_date": "2021-04-10T11:16:00Z", "count_points": 9, "latitude": 48.65335, "longitude": 24.84291, "city": "Otyniya", "images": []}, {"id": 474142, "min_date": "2021-04-09T11:18:00Z", "max_date": "2021-04-09T11:18:00Z", "count_points": 1, "latitude": 49.92728, "longitude": 24.51308, "city": "Krasne", "images": []}, {"id": 474143, "min_date": "2021-04-09T11:18:00Z", "max_date": "2021-04-09T11:18:00Z", "count_points": 1, "latitude": 51.64071, "longitude": 24.8626, "city": "Rakiv Lis", "images": []}, {"id": 474144, "min_date": "2021-04-09T11:18:00Z", "max_date": "2021-04-09T11:18:00Z", "count_points": 2, "latitude": 50.07682, "longitude": 23.5091, "city": "Verblyany", "images": []}, {"id": 474145, "min_date": "2021-04-09T11:18:00Z", "max_date": "2021-04-09T11:18:00Z", "count_points": 1, "latitude": 49.50351, "longitude": 23.26003, "city": "Ralivka", "images": []}, {"id": 474146, "min_date": "2021-04-09T11:18:00Z", "max_date": "2021-04-11T09:48:00Z", "count_points": 3, "latitude": 50.78783, "longitude": 34.80771, "city": "Nyzy", "images": []}, {"id": 474147, "min_date": "2021-04-09T11:18:00Z", "max_date": "2021-04-09T11:18:00Z", "count_points": 1, "latitude": 50.28857, "longitude": 33.62724, "city": "Komyshnya", "images": []}, {"id": 474148, "min_date": "2021-04-09T11:18:00Z", "max_date": "2021-04-11T10:21:00Z", "count_points": 10, "latitude": 51.45488, "longitude": 31.70753, "city": "Kulykivka", "images": []}, {"id": 474149, "min_date": "2021-04-09T11:18:00Z", "max_date": "2021-04-09T11:18:00Z", "count_points": 2, "latitude": 51.65304, "longitude": 33.9762, "city": "Hlukhiv", "images": []}, {"id": 474150, "min_date": "2021-04-09T11:18:00Z", "max_date": "2021-04-09T11:18:00Z", "count_points": 1, "latitude": 51.33939, "longitude": 33.85168, "city": "Putyvl\u2019", "images": []}, {"id": 474151, "min_date": "2021-04-09T11:18:00Z", "max_date": "2021-04-10T11:16:00Z", "count_points": 10, "latitude": 49.79419, "longitude": 26.95765, "city": "Antoniny", "images": [{"image_url": "474151.jpg", "timestamp": "2021-04-10T11:16:00Z"}]}, {"id": 474152, "min_date": "2021-04-09T23:30:00Z", "max_date": "2021-04-11T10:12:00Z", "count_points": 13, "latitude": 50.73073, "longitude": 24.38974, "city": "Ivanychi", "images": [{"image_url": "474152.jpg", "timestamp": "2021-04-11T10:12:00Z"}]}, {"id": 474153, "min_date": "2021-04-09T23:30:00Z", "max_date": "2021-04-11T00:00:00Z", "count_points": 5, "latitude": 50.47646, "longitude": 33.52932, "city": "Romny", "images": []}, {"id": 474154, "min_date": "2021-04-09T23:30:00Z", "max_date": "2021-04-10T11:16:00Z", "count_points": 2, "latitude": 51.68374, "longitude": 31.62257, "city": "Sedniv", "images": []}, {"id": 474155, "min_date": "2021-04-09T23:30:00Z", "max_date": "2021-04-09T23:30:00Z", "count_points": 1, "latitude": 44.86761, "longitude": 33.76211, "city": "Kashtany", "images": []}, {"id": 474156, "min_date": "2021-04-10T01:12:00Z", "max_date": "2021-04-10T00:18:00Z", "count_points": 2, "latitude": 49.62153, "longitude": 22.83483, "city": "Dobromyl\u2019", "images": []}, {"id": 474157, "min_date": "2021-04-10T09:12:00Z", "max_date": "2021-04-10T09:12:00Z", "count_points": 1, "latitude": 47.55943, "longitude": 37.21514, "city": "Rozivka", "images": []}, {"id": 474158, "min_date": "2021-04-10T09:18:00Z", "max_date": "2021-04-10T09:18:00Z", "count_points": 2, "latitude": 49.29715, "longitude": 35.86866, "city": "Chapayeve", "images": []}, {"id": 474159, "min_date": "2021-04-10T09:18:00Z", "max_date": "2021-04-10T09:18:00Z", "count_points": 2, "latitude": 49.33066, "longitude": 38.29427, "city": "Svatove", "images": []}, {"id": 474160, "min_date": "2021-04-10T09:18:00Z", "max_date": "2021-04-10T10:06:00Z", "count_points": 4, "latitude": 50.22106, "longitude": 35.40449, "city": "Huty", "images": []}, {"id": 474161, "min_date": "2021-04-10T09:18:00Z", "max_date": "2021-04-11T11:30:00Z", "count_points": 2, "latitude": 51.17336, "longitude": 31.30045, "city": "Olyshivka", "images": []}, {"id": 474162, "min_date": "2021-04-10T09:18:00Z", "max_date": "2021-04-10T10:06:00Z", "count_points": 3, "latitude": 49.94723, "longitude": 36.44774, "city": "Kulynychi", "images": []}, {"id": 474163, "min_date": "2021-04-10T09:18:00Z", "max_date": "2021-04-10T09:29:00Z", "count_points": 21, "latitude": 50.43064, "longitude": 34.48318, "city": "Lebedyn", "images": []}, {"id": 474164, "min_date": "2021-04-10T09:18:00Z", "max_date": "2021-04-10T09:29:00Z", "count_points": 3, "latitude": 49.73047, "longitude": 38.50702, "city": "Pavlivka", "images": []}, {"id": 474165, "min_date": "2021-04-10T09:18:00Z", "max_date": "2021-04-10T09:18:00Z", "count_points": 1, "latitude": 49.27205, "longitude": 36.34843, "city": "Krasnopavlivka", "images": []}, {"id": 474166, "min_date": "2021-04-10T09:18:00Z", "max_date": "2021-04-10T09:18:00Z", "count_points": 1, "latitude": 48.92019, "longitude": 35.14651, "city": "Hubynykha", "images": []}, {"id": 474167, "min_date": "2021-04-10T09:18:00Z", "max_date": "2021-04-10T10:06:00Z", "count_points": 3, "latitude": 49.56133, "longitude": 35.62026, "city": "Berezivka", "images": []}, {"id": 474168, "min_date": "2021-04-10T09:18:00Z", "max_date": "2021-04-10T11:16:00Z", "count_points": 15, "latitude": 50.0239, "longitude": 36.9343, "city": "Staryy Saltiv", "images": []}, {"id": 474169, "min_date": "2021-04-10T09:18:00Z", "max_date": "2021-04-10T09:29:00Z", "count_points": 4, "latitude": 50.39911, "longitude": 32.12304, "city": "Chernyakhivka", "images": []}, {"id": 474170, "min_date": "2021-04-10T09:18:00Z", "max_date": "2021-04-10T11:48:00Z", "count_points": 3, "latitude": 49.7718, "longitude": 28.32631, "city": "Ulaniv", "images": []}, {"id": 474171, "min_date": "2021-04-10T09:18:00Z", "max_date": "2021-04-10T10:06:00Z", "count_points": 6, "latitude": 49.40133, "longitude": 39.0381, "city": "Novopskov", "images": []}, {"id": 474172, "min_date": "2021-04-10T09:18:00Z", "max_date": "2021-04-10T09:18:00Z", "count_points": 1, "latitude": 49.71691, "longitude": 37.00546, "city": "Shevchenkove", "images": []}, {"id": 474173, "min_date": "2021-04-10T09:18:00Z", "max_date": "2021-04-10T11:16:00Z", "count_points": 6, "latitude": 49.1842, "longitude": 33.52072, "city": "Kremenchuk", "images": []}, {"id": 474174, "min_date": "2021-04-10T09:18:00Z", "max_date": "2021-04-11T10:21:00Z", "count_points": 38, "latitude": 51.9504, "longitude": 33.22885, "city": "Novhorod-Sivers\u2019kyy", "images": []}, {"id": 474175, "min_date": "2021-04-10T09:18:00Z", "max_date": "2021-04-10T09:29:00Z", "count_points": 15, "latitude": 51.45675, "longitude": 33.80272, "city": "Putyvl\u2019", "images": []}, {"id": 474176, "min_date": "2021-04-10T09:18:00Z", "max_date": "2021-04-10T09:18:00Z", "count_points": 1, "latitude": 49.35012, "longitude": 38.95401, "city": "Starobil\u2019s\u2019k", "images": []}, {"id": 474177, "min_date": "2021-04-10T09:18:00Z", "max_date": "2021-04-10T09:18:00Z", "count_points": 2, "latitude": 49.39117, "longitude": 35.45481, "city": "Krasnohrad", "images": []}, {"id": 474178, "min_date": "2021-04-10T09:18:00Z", "max_date": "2021-04-10T09:29:00Z", "count_points": 3, "latitude": 51.92393, "longitude": 31.75877, "city": "Horodnya", "images": []}, {"id": 474179, "min_date": "2021-04-10T09:18:00Z", "max_date": "2021-04-10T09:29:00Z", "count_points": 5, "latitude": 50.61709, "longitude": 27.70945, "city": "Novohrad-Volynskyi", "images": [{"image_url": "474179.jpg", "timestamp": "2021-04-10T09:29:00Z"}]}, {"id": 474180, "min_date": "2021-04-10T09:18:00Z", "max_date": "2021-04-10T10:06:00Z", "count_points": 3, "latitude": 49.97765, "longitude": 37.11122, "city": "Pechenihy", "images": []}, {"id": 474181, "min_date": "2021-04-10T09:18:00Z", "max_date": "2021-04-10T09:18:00Z", "count_points": 1, "latitude": 48.32285, "longitude": 35.47033, "city": "Synel\u2019nykove", "images": []}, {"id": 474182, "min_date": "2021-04-10T09:18:00Z", "max_date": "2021-04-10T10:06:00Z", "count_points": 3, "latitude": 50.05791, "longitude": 31.91249, "city": "Chernyakhivka", "images": []}, {"id": 474183, "min_date": "2021-04-10T09:18:00Z", "max_date": "2021-04-10T09:18:00Z", "count_points": 2, "latitude": 49.21775, "longitude": 39.46694, "city": "Bilovodsk", "images": []}, {"id": 474184, "min_date": "2021-04-10T09:18:00Z", "max_date": "2021-04-10T10:54:00Z", "count_points": 4, "latitude": 51.17484, "longitude": 33.44909, "city": "Sloboda", "images": []}, {"id": 474185, "min_date": "2021-04-10T09:18:00Z", "max_date": "2021-04-10T10:06:00Z", "count_points": 2, "latitude": 49.61534, "longitude": 35.26541, "city": "Varvarivka", "images": []}, {"id": 474186, "min_date": "2021-04-10T09:18:00Z", "max_date": "2021-04-10T10:06:00Z", "count_points": 3, "latitude": 48.66754, "longitude": 35.91453, "city": "Yur\u201dyivka", "images": []}, {"id": 474187, "min_date": "2021-04-10T09:18:00Z", "max_date": "2021-04-10T09:18:00Z", "count_points": 1, "latitude": 49.4636, "longitude": 36.18665, "city": "Pervomays\u2019kyy", "images": []}, {"id": 474188, "min_date": "2021-04-10T09:18:00Z", "max_date": "2021-04-10T11:16:00Z", "count_points": 12, "latitude": 51.81171, "longitude": 34.23577, "city": "Chervone", "images": []}, {"id": 474189, "min_date": "2021-04-10T09:18:00Z", "max_date": "2021-04-10T10:06:00Z", "count_points": 8, "latitude": 50.80571, "longitude": 33.84781, "city": "Nedryhayliv", "images": []}, {"id": 474190, "min_date": "2021-04-10T09:18:00Z", "max_date": "2021-04-10T19:01:00Z", "count_points": 20, "latitude": 49.80156, "longitude": 39.12897, "city": "Novopskov", "images": []}, {"id": 474191, "min_date": "2021-04-10T09:18:00Z", "max_date": "2021-04-10T10:06:00Z", "count_points": 2, "latitude": 49.19208, "longitude": 38.30503, "city": "Kreminna", "images": []}, {"id": 474192, "min_date": "2021-04-10T10:54:00Z", "max_date": "2021-04-10T10:54:00Z", "count_points": 1, "latitude": 51.31099, "longitude": 28.74342, "city": "Ovruch", "images": []}, {"id": 474193, "min_date": "2021-04-10T10:54:00Z", "max_date": "2021-04-10T10:54:00Z", "count_points": 1, "latitude": 49.6585, "longitude": 24.41729, "city": "Bibrka", "images": []}, {"id": 474194, "min_date": "2021-04-10T10:54:00Z", "max_date": "2021-04-10T10:54:00Z", "count_points": 1, "latitude": 49.77608, "longitude": 24.41858, "city": "Verkhnyaya Belka", "images": []}, {"id": 474195, "min_date": "2021-04-10T10:54:00Z", "max_date": "2021-04-10T10:54:00Z", "count_points": 1, "latitude": 49.93125, "longitude": 24.44207, "city": "Novyy Yarychiv", "images": []}, {"id": 474196, "min_date": "2021-04-10T10:54:00Z", "max_date": "2021-04-10T10:54:00Z", "count_points": 2, "latitude": 50.1902, "longitude": 24.43019, "city": "Staryy Dobrotvir", "images": []}, {"id": 474197, "min_date": "2021-04-10T10:54:00Z", "max_date": "2021-04-11T08:34:00Z", "count_points": 7, "latitude": 51.04754, "longitude": 34.3301, "city": "Bilopillya", "images": []}, {"id": 474198, "min_date": "2021-04-10T10:54:00Z", "max_date": "2021-04-11T11:24:00Z", "count_points": 3, "latitude": 45.49375, "longitude": 29.41036, "city": "Shevchenkove", "images": []}, {"id": 474199, "min_date": "2021-04-10T10:54:00Z", "max_date": "2021-04-10T11:16:00Z", "count_points": 5, "latitude": 50.63929, "longitude": 24.44208, "city": "Ivanychi", "images": []}, {"id": 474200, "min_date": "2021-04-10T10:54:00Z", "max_date": "2021-04-10T11:48:00Z", "count_points": 3, "latitude": 48.59529, "longitude": 25.53328, "city": "Stetseva", "images": []}, {"id": 474201, "min_date": "2021-04-10T10:54:00Z", "max_date": "2021-04-10T11:16:00Z", "count_points": 4, "latitude": 48.43092, "longitude": 25.48937, "city": "Vashkivtsi", "images": []}, {"id": 474202, "min_date": "2021-04-10T10:54:00Z", "max_date": "2021-04-10T10:06:00Z", "count_points": 2, "latitude": 48.44475, "longitude": 25.61208, "city": "Sniatyn", "images": []}, {"id": 474203, "min_date": "2021-04-10T10:54:00Z", "max_date": "2021-04-10T11:48:00Z", "count_points": 6, "latitude": 49.97521, "longitude": 33.56022, "city": "Myrhorod", "images": []}, {"id": 474204, "min_date": "2021-04-10T10:54:00Z", "max_date": "2021-04-10T10:54:00Z", "count_points": 1, "latitude": 49.59223, "longitude": 33.43417, "city": "Khorol", "images": []}, {"id": 474205, "min_date": "2021-04-10T10:54:00Z", "max_date": "2021-04-10T10:54:00Z", "count_points": 1, "latitude": 51.30333, "longitude": 24.47576, "city": "Stara Vyzhivka", "images": []}, {"id": 474206, "min_date": "2021-04-10T10:54:00Z", "max_date": "2021-04-10T11:16:00Z", "count_points": 6, "latitude": 48.33506, "longitude": 23.05634, "city": "Irshava", "images": [{"image_url": "474206.jpg", "timestamp": "2021-04-10T11:16:00Z"}]}, {"id": 474207, "min_date": "2021-04-10T10:54:00Z", "max_date": "2021-04-10T10:54:00Z", "count_points": 1, "latitude": 48.67203, "longitude": 25.68082, "city": "Kostryzhivka", "images": []}, {"id": 474208, "min_date": "2021-04-10T10:54:00Z", "max_date": "2021-04-10T11:16:00Z", "count_points": 2, "latitude": 48.67238, "longitude": 25.57071, "city": "Horodenka", "images": []}, {"id": 474209, "min_date": "2021-04-10T10:54:00Z", "max_date": "2021-04-10T11:48:00Z", "count_points": 2, "latitude": 49.63689, "longitude": 24.20216, "city": "Staroye Selo", "images": []}, {"id": 474210, "min_date": "2021-04-10T10:54:00Z", "max_date": "2021-04-10T10:06:00Z", "count_points": 3, "latitude": 49.77128, "longitude": 24.1783, "city": "Staroye Selo", "images": []}, {"id": 474211, "min_date": "2021-04-10T10:54:00Z", "max_date": "2021-04-10T10:54:00Z", "count_points": 1, "latitude": 48.90792, "longitude": 36.65781, "city": "Blyznyuky", "images": []}, {"id": 474212, "min_date": "2021-04-10T10:54:00Z", "max_date": "2021-04-10T10:54:00Z", "count_points": 1, "latitude": 48.73081, "longitude": 25.21763, "city": "Obertyn", "images": []}, {"id": 474213, "min_date": "2021-04-10T10:54:00Z", "max_date": "2021-04-10T11:16:00Z", "count_points": 6, "latitude": 48.39052, "longitude": 25.25131, "city": "Rozhniv", "images": []}, {"id": 474214, "min_date": "2021-04-10T10:54:00Z", "max_date": "2021-04-10T10:06:00Z", "count_points": 2, "latitude": 49.53262, "longitude": 37.0851, "city": "Savyntsi", "images": []}, {"id": 474215, "min_date": "2021-04-10T10:54:00Z", "max_date": "2021-04-10T11:16:00Z", "count_points": 5, "latitude": 50.05289, "longitude": 23.94568, "city": "Zhovkva", "images": []}, {"id": 474216, "min_date": "2021-04-10T10:54:00Z", "max_date": "2021-04-10T11:16:00Z", "count_points": 8, "latitude": 51.00951, "longitude": 31.77991, "city": "Nizhyn", "images": []}, {"id": 474217, "min_date": "2021-04-10T10:54:00Z", "max_date": "2021-04-10T11:16:00Z", "count_points": 3, "latitude": 48.48415, "longitude": 25.1258, "city": "Khymchyn", "images": []}, {"id": 474218, "min_date": "2021-04-10T10:54:00Z", "max_date": "2021-04-10T10:54:00Z", "count_points": 1, "latitude": 48.25803, "longitude": 29.74882, "city": "Peschana", "images": []}, {"id": 474219, "min_date": "2021-04-10T10:54:00Z", "max_date": "2021-04-10T11:16:00Z", "count_points": 5, "latitude": 48.68887, "longitude": 25.01689, "city": "Obertyn", "images": []}, {"id": 474220, "min_date": "2021-04-10T10:54:00Z", "max_date": "2021-04-10T10:06:00Z", "count_points": 2, "latitude": 51.17259, "longitude": 31.74722, "city": "Nizhyn", "images": []}, {"id": 474221, "min_date": "2021-04-10T10:54:00Z", "max_date": "2021-04-10T11:48:00Z", "count_points": 4, "latitude": 48.74214, "longitude": 25.13974, "city": "Obertyn", "images": []}, {"id": 474222, "min_date": "2021-04-10T10:54:00Z", "max_date": "2021-04-10T09:29:00Z", "count_points": 6, "latitude": 50.03177, "longitude": 23.97973, "city": "Zhovkva", "images": []}, {"id": 474223, "min_date": "2021-04-10T10:54:00Z", "max_date": "2021-04-10T10:54:00Z", "count_points": 1, "latitude": 49.67378, "longitude": 23.90313, "city": "Shchyrets\u2019", "images": []}, {"id": 474224, "min_date": "2021-04-10T10:54:00Z", "max_date": "2021-04-10T11:16:00Z", "count_points": 12, "latitude": 49.58352, "longitude": 23.92444, "city": "Demnya", "images": [{"image_url": "474224.jpg", "timestamp": "2021-04-10T11:16:00Z"}]}, {"id": 474225, "min_date": "2021-04-10T10:54:00Z", "max_date": "2021-04-11T11:24:00Z", "count_points": 4, "latitude": 49.52389, "longitude": 23.96111, "city": "Mykolaiv", "images": [{"image_url": "474225.jpg", "timestamp": "2021-04-11T11:24:00Z"}]}, {"id": 474226, "min_date": "2021-04-10T10:54:00Z", "max_date": "2021-04-10T11:48:00Z", "count_points": 3, "latitude": 49.46125, "longitude": 23.97817, "city": "Rozvadiv", "images": []}, {"id": 474227, "min_date": "2021-04-10T10:54:00Z", "max_date": "2021-04-10T11:16:00Z", "count_points": 3, "latitude": 48.80724, "longitude": 24.94933, "city": "Chornoliztsi", "images": []}, {"id": 474228, "min_date": "2021-04-10T10:54:00Z", "max_date": "2021-04-10T10:06:00Z", "count_points": 2, "latitude": 48.43067, "longitude": 25.65948, "city": "Sniatyn", "images": []}, {"id": 474229, "min_date": "2021-04-10T10:54:00Z", "max_date": "2021-04-09T10:24:00Z", "count_points": 3, "latitude": 48.79704, "longitude": 24.88863, "city": "Chornoliztsi", "images": []}, {"id": 474230, "min_date": "2021-04-10T10:54:00Z", "max_date": "2021-04-10T09:30:00Z", "count_points": 3, "latitude": 49.06633, "longitude": 24.93026, "city": "Tysmenytsya", "images": []}, {"id": 474231, "min_date": "2021-04-10T10:54:00Z", "max_date": "2021-04-10T10:54:00Z", "count_points": 1, "latitude": 49.34198, "longitude": 23.96497, "city": "Stryi", "images": []}, {"id": 474232, "min_date": "2021-04-10T10:54:00Z", "max_date": "2021-04-10T10:54:00Z", "count_points": 1, "latitude": 50.86989, "longitude": 30.97172, "city": "Oster", "images": []}, {"id": 474233, "min_date": "2021-04-10T10:54:00Z", "max_date": "2021-04-11T00:00:00Z", "count_points": 5, "latitude": 51.14598, "longitude": 30.56597, "city": "Desna", "images": []}, {"id": 474234, "min_date": "2021-04-10T10:54:00Z", "max_date": "2021-04-10T10:54:00Z", "count_points": 1, "latitude": 49.22679, "longitude": 25.11608, "city": "Pidhaytsi", "images": []}, {"id": 474235, "min_date": "2021-04-10T10:54:00Z", "max_date": "2021-04-10T10:54:00Z", "count_points": 1, "latitude": 50.73916, "longitude": 32.20719, "city": "Lisovi Sorochyntsi", "images": []}, {"id": 474236, "min_date": "2021-04-10T10:54:00Z", "max_date": "2021-04-10T10:54:00Z", "count_points": 1, "latitude": 51.07648, "longitude": 32.65451, "city": "Bakhmach", "images": []}, {"id": 474237, "min_date": "2021-04-10T10:54:00Z", "max_date": "2021-04-09T10:24:00Z", "count_points": 2, "latitude": 48.92495, "longitude": 33.64526, "city": "Horishni Plavni", "images": []}, {"id": 474238, "min_date": "2021-04-10T10:54:00Z", "max_date": "2021-04-10T11:48:00Z", "count_points": 2, "latitude": 49.47855, "longitude": 23.66183, "city": "Medenychi", "images": []}, {"id": 474239, "min_date": "2021-04-10T10:54:00Z", "max_date": "2021-04-10T10:06:00Z", "count_points": 2, "latitude": 49.34018, "longitude": 29.51875, "city": "Tetiiv", "images": []}, {"id": 474240, "min_date": "2021-04-10T10:54:00Z", "max_date": "2021-04-10T10:06:00Z", "count_points": 2, "latitude": 50.74446, "longitude": 33.9849, "city": "Nedryhayliv", "images": []}, {"id": 474241, "min_date": "2021-04-10T10:54:00Z", "max_date": "2021-04-10T10:54:00Z", "count_points": 1, "latitude": 50.78313, "longitude": 34.014, "city": "Nedryhayliv", "images": []}, {"id": 474242, "min_date": "2021-04-10T10:54:00Z", "max_date": "2021-04-10T10:54:00Z", "count_points": 1, "latitude": 50.032, "longitude": 24.83883, "city": "Olesko", "images": []}, {"id": 474243, "min_date": "2021-04-10T10:54:00Z", "max_date": "2021-04-10T10:06:00Z", "count_points": 3, "latitude": 49.57687, "longitude": 29.70198, "city": "Skvyra", "images": []}, {"id": 474244, "min_date": "2021-04-10T10:54:00Z", "max_date": "2021-04-10T10:06:00Z", "count_points": 7, "latitude": 48.08411, "longitude": 23.50799, "city": "Bushtyno", "images": []}, {"id": 474245, "min_date": "2021-04-10T10:54:00Z", "max_date": "2021-04-10T11:16:00Z", "count_points": 2, "latitude": 51.37721, "longitude": 34.02519, "city": "Putyvl\u2019", "images": []}, {"id": 474246, "min_date": "2021-04-10T10:54:00Z", "max_date": "2021-04-10T10:06:00Z", "count_points": 2, "latitude": 51.38422, "longitude": 33.87276, "city": "Putyvl\u2019", "images": []}, {"id": 474247, "min_date": "2021-04-10T10:54:00Z", "max_date": "2021-04-10T10:54:00Z", "count_points": 2, "latitude": 51.11299, "longitude": 33.42569, "city": "Sloboda", "images": []}, {"id": 474248, "min_date": "2021-04-10T10:54:00Z", "max_date": "2021-04-10T11:16:00Z", "count_points": 14, "latitude": 50.34152, "longitude": 24.71986, "city": "Kulykiv", "images": []}, {"id": 474249, "min_date": "2021-04-10T10:54:00Z", "max_date": "2021-04-10T10:54:00Z", "count_points": 1, "latitude": 50.75852, "longitude": 28.94962, "city": "Chopovychi", "images": []}, {"id": 474250, "min_date": "2021-04-10T10:54:00Z", "max_date": "2021-04-10T11:16:00Z", "count_points": 4, "latitude": 52.18414, "longitude": 32.95704, "city": "Novhorod-Sivers\u2019kyy", "images": []}, {"id": 474251, "min_date": "2021-04-10T10:54:00Z", "max_date": "2021-04-10T11:48:00Z", "count_points": 2, "latitude": 48.20424, "longitude": 23.51219, "city": "Kopashnovo", "images": []}, {"id": 474252, "min_date": "2021-04-10T10:54:00Z", "max_date": "2021-04-10T11:16:00Z", "count_points": 16, "latitude": 49.25375, "longitude": 23.80604, "city": "Duliby", "images": []}, {"id": 474253, "min_date": "2021-04-10T10:54:00Z", "max_date": "2021-04-10T10:54:00Z", "count_points": 1, "latitude": 50.60282, "longitude": 34.94515, "city": "Boromlya", "images": []}, {"id": 474254, "min_date": "2021-04-10T10:54:00Z", "max_date": "2021-04-10T11:16:00Z", "count_points": 3, "latitude": 49.82415, "longitude": 23.80633, "city": "Sukhovolya", "images": []}, {"id": 474255, "min_date": "2021-04-10T10:54:00Z", "max_date": "2021-04-10T10:54:00Z", "count_points": 1, "latitude": 51.45668, "longitude": 25.99525, "city": "Volodymyrets\u2019", "images": []}, {"id": 474256, "min_date": "2021-04-10T10:54:00Z", "max_date": "2021-04-10T11:48:00Z", "count_points": 2, "latitude": 51.31611, "longitude": 25.67014, "city": "Manevychi", "images": []}, {"id": 474257, "min_date": "2021-04-10T10:54:00Z", "max_date": "2021-04-10T09:29:00Z", "count_points": 2, "latitude": 50.9107, "longitude": 26.16617, "city": "Orzhiv", "images": []}, {"id": 474258, "min_date": "2021-04-10T10:54:00Z", "max_date": "2021-04-10T10:54:00Z", "count_points": 1, "latitude": 50.7056, "longitude": 25.43439, "city": "Lutsk", "images": []}, {"id": 474259, "min_date": "2021-04-10T10:54:00Z", "max_date": "2021-04-10T10:54:00Z", "count_points": 1, "latitude": 50.71265, "longitude": 25.6129, "city": "Kivertsi", "images": []}, {"id": 474260, "min_date": "2021-04-10T10:54:00Z", "max_date": "2021-04-05T10:00:00Z", "count_points": 2, "latitude": 50.73619, "longitude": 25.81757, "city": "Olyka", "images": []}, {"id": 474261, "min_date": "2021-04-10T10:54:00Z", "max_date": "2021-04-10T09:29:00Z", "count_points": 3, "latitude": 49.92146, "longitude": 23.89022, "city": "Bryukhovychi", "images": []}, {"id": 474262, "min_date": "2021-04-10T10:54:00Z", "max_date": "2021-04-10T10:54:00Z", "count_points": 1, "latitude": 50.4886, "longitude": 25.60764, "city": "Mlyniv", "images": []}, {"id": 474263, "min_date": "2021-04-10T10:54:00Z", "max_date": "2021-04-10T11:16:00Z", "count_points": 5, "latitude": 48.69551, "longitude": 24.52097, "city": "Hvizd", "images": [{"image_url": "474263.jpg", "timestamp": "2021-04-10T11:16:00Z"}]}, {"id": 474264, "min_date": "2021-04-10T10:54:00Z", "max_date": "2021-04-10T10:06:00Z", "count_points": 3, "latitude": 48.81158, "longitude": 24.55689, "city": "Bohorodchany", "images": []}, {"id": 474265, "min_date": "2021-04-10T10:54:00Z", "max_date": "2021-04-10T10:54:00Z", "count_points": 1, "latitude": 50.61309, "longitude": 30.79655, "city": "Pukhivka", "images": []}, {"id": 474266, "min_date": "2021-04-10T10:54:00Z", "max_date": "2021-04-10T10:54:00Z", "count_points": 1, "latitude": 50.46066, "longitude": 30.90018, "city": "Trebukhiv", "images": []}, {"id": 474267, "min_date": "2021-04-10T10:54:00Z", "max_date": "2021-04-10T11:16:00Z", "count_points": 2, "latitude": 49.24416, "longitude": 24.59515, "city": "Burshtyn", "images": []}, {"id": 474268, "min_date": "2021-04-10T10:54:00Z", "max_date": "2021-04-10T10:54:00Z", "count_points": 1, "latitude": 49.35143, "longitude": 24.47892, "city": "Rohatyn", "images": []}, {"id": 474269, "min_date": "2021-04-10T10:54:00Z", "max_date": "2021-04-10T10:54:00Z", "count_points": 1, "latitude": 49.57999, "longitude": 24.58664, "city": "Peremyshlyany", "images": []}, {"id": 474270, "min_date": "2021-04-10T10:54:00Z", "max_date": "2021-04-10T11:48:00Z", "count_points": 2, "latitude": 49.68466, "longitude": 24.54548, "city": "Peremyshlyany", "images": []}, {"id": 474271, "min_date": "2021-04-10T10:54:00Z", "max_date": "2021-04-10T10:54:00Z", "count_points": 1, "latitude": 48.65063, "longitude": 22.35769, "city": "Onokivtsi", "images": []}, {"id": 474272, "min_date": "2021-04-10T10:54:00Z", "max_date": "2021-04-10T10:54:00Z", "count_points": 1, "latitude": 50.25229, "longitude": 24.47933, "city": "Staryy Dobrotvir", "images": []}, {"id": 474273, "min_date": "2021-04-10T10:54:00Z", "max_date": "2021-04-10T11:16:00Z", "count_points": 7, "latitude": 50.52975, "longitude": 24.5474, "city": "Horokhiv", "images": []}, {"id": 474274, "min_date": "2021-04-10T10:54:00Z", "max_date": "2021-04-10T11:16:00Z", "count_points": 29, "latitude": 50.90629, "longitude": 24.52773, "city": "Turiys\u2019k", "images": [{"image_url": "474274.jpg", "timestamp": "2021-04-10T11:16:00Z"}]}, {"id": 474275, "min_date": "2021-04-10T10:54:00Z", "max_date": "2021-04-10T10:54:00Z", "count_points": 1, "latitude": 49.81367, "longitude": 25.88319, "city": "Zbarazh", "images": []}, {"id": 474276, "min_date": "2021-04-10T10:54:00Z", "max_date": "2021-04-10T10:54:00Z", "count_points": 1, "latitude": 50.46406, "longitude": 26.02966, "city": "Mizoch", "images": []}, {"id": 474277, "min_date": "2021-04-10T10:54:00Z", "max_date": "2021-04-10T11:16:00Z", "count_points": 2, "latitude": 49.20701, "longitude": 36.42567, "city": "Krasnopavlivka", "images": []}, {"id": 474278, "min_date": "2021-04-10T10:54:00Z", "max_date": "2021-04-10T10:06:00Z", "count_points": 3, "latitude": 51.04064, "longitude": 24.51056, "city": "Turiys\u2019k", "images": []}, {"id": 474279, "min_date": "2021-04-10T10:54:00Z", "max_date": "2021-04-10T10:54:00Z", "count_points": 2, "latitude": 49.96767, "longitude": 32.13446, "city": "Drabiv", "images": []}, {"id": 474280, "min_date": "2021-04-10T10:54:00Z", "max_date": "2021-04-10T10:06:00Z", "count_points": 2, "latitude": 51.87827, "longitude": 32.96224, "city": "Korop", "images": []}, {"id": 474281, "min_date": "2021-04-10T10:54:00Z", "max_date": "2021-04-10T10:06:00Z", "count_points": 2, "latitude": 51.77827, "longitude": 33.59787, "city": "Shostka", "images": []}, {"id": 474282, "min_date": "2021-04-10T10:54:00Z", "max_date": "2021-04-10T10:54:00Z", "count_points": 1, "latitude": 51.59588, "longitude": 33.15531, "city": "Korop", "images": []}, {"id": 474283, "min_date": "2021-04-10T10:54:00Z", "max_date": "2021-04-10T10:54:00Z", "count_points": 1, "latitude": 50.26411, "longitude": 28.00356, "city": "Bykivka", "images": []}, {"id": 474284, "min_date": "2021-04-10T10:54:00Z", "max_date": "2021-04-10T10:54:00Z", "count_points": 1, "latitude": 50.69263, "longitude": 24.22499, "city": "Blahodatne", "images": []}, {"id": 474285, "min_date": "2021-04-10T10:54:00Z", "max_date": "2021-04-10T10:54:00Z", "count_points": 1, "latitude": 49.9089, "longitude": 33.16136, "city": "Khorol", "images": []}, {"id": 474286, "min_date": "2021-04-10T10:54:00Z", "max_date": "2021-04-10T10:06:00Z", "count_points": 2, "latitude": 48.99706, "longitude": 33.28219, "city": "Svitlovods\u2019k", "images": []}, {"id": 474287, "min_date": "2021-04-10T10:54:00Z", "max_date": "2021-04-10T10:54:00Z", "count_points": 2, "latitude": 49.94211, "longitude": 37.6825, "city": "Dvorichna", "images": []}, {"id": 474288, "min_date": "2021-04-10T10:54:00Z", "max_date": "2021-04-10T10:54:00Z", "count_points": 1, "latitude": 50.02486, "longitude": 37.75489, "city": "Dvorichna", "images": []}, {"id": 474289, "min_date": "2021-04-10T10:54:00Z", "max_date": "2021-04-10T10:54:00Z", "count_points": 1, "latitude": 50.53236, "longitude": 34.20014, "city": "Hadyach", "images": []}, {"id": 474290, "min_date": "2021-04-10T10:54:00Z", "max_date": "2021-04-10T10:54:00Z", "count_points": 2, "latitude": 49.5041, "longitude": 32.27622, "city": "Chornobay", "images": []}, {"id": 474291, "min_date": "2021-04-10T10:54:00Z", "max_date": "2021-04-10T10:54:00Z", "count_points": 1, "latitude": 51.75011, "longitude": 34.28751, "city": "Chervone", "images": []}, {"id": 474292, "min_date": "2021-04-10T10:54:00Z", "max_date": "2021-04-10T10:54:00Z", "count_points": 1, "latitude": 50.04307, "longitude": 29.89841, "city": "Fastiv", "images": []}, {"id": 474293, "min_date": "2021-04-10T10:54:00Z", "max_date": "2021-04-10T10:06:00Z", "count_points": 2, "latitude": 49.56743, "longitude": 32.161, "city": "Zolotonosha", "images": []}, {"id": 474294, "min_date": "2021-04-10T10:54:00Z", "max_date": "2021-04-10T10:54:00Z", "count_points": 1, "latitude": 49.44148, "longitude": 27.09508, "city": "Khmelnytskyi", "images": []}, {"id": 474295, "min_date": "2021-04-10T10:54:00Z", "max_date": "2021-04-11T10:21:00Z", "count_points": 5, "latitude": 49.79298, "longitude": 35.87591, "city": "Nova Vodolaha", "images": [{"image_url": "474295.jpg", "timestamp": "2021-04-11T10:21:00Z"}]}, {"id": 474296, "min_date": "2021-04-10T10:54:00Z", "max_date": "2021-04-10T10:54:00Z", "count_points": 2, "latitude": 49.86227, "longitude": 23.46228, "city": "Rodatychi", "images": []}, {"id": 474297, "min_date": "2021-04-10T10:54:00Z", "max_date": "2021-04-10T10:54:00Z", "count_points": 1, "latitude": 49.78131, "longitude": 23.27717, "city": "Sudova Vyshnya", "images": []}, {"id": 474298, "min_date": "2021-04-10T10:54:00Z", "max_date": "2021-04-10T11:16:00Z", "count_points": 13, "latitude": 49.46454, "longitude": 23.34059, "city": "Dublyany", "images": [{"image_url": "474298.jpg", "timestamp": "2021-04-10T11:16:00Z"}]}, {"id": 474299, "min_date": "2021-04-10T10:54:00Z", "max_date": "2021-04-11T10:21:00Z", "count_points": 18, "latitude": 52.06225, "longitude": 33.98311, "city": "Druzhba", "images": []}, {"id": 474300, "min_date": "2021-04-10T10:54:00Z", "max_date": "2021-04-10T10:06:00Z", "count_points": 2, "latitude": 51.31519, "longitude": 28.3311, "city": "Luhyny", "images": []}, {"id": 474301, "min_date": "2021-04-10T10:54:00Z", "max_date": "2021-04-10T11:48:00Z", "count_points": 6, "latitude": 49.0661, "longitude": 24.35618, "city": "Kalush", "images": [{"image_url": "474301.jpg", "timestamp": "2021-04-10T11:48:00Z"}]}, {"id": 474302, "min_date": "2021-04-10T10:54:00Z", "max_date": "2021-04-10T11:16:00Z", "count_points": 12, "latitude": 48.41819, "longitude": 26.40015, "city": "Khotyn", "images": []}, {"id": 474303, "min_date": "2021-04-10T10:54:00Z", "max_date": "2021-04-10T10:06:00Z", "count_points": 3, "latitude": 50.49534, "longitude": 33.81941, "city": "Lypova Dolyna", "images": []}, {"id": 474304, "min_date": "2021-04-10T10:54:00Z", "max_date": "2021-04-10T10:54:00Z", "count_points": 2, "latitude": 48.53583, "longitude": 29.1614, "city": "Trostyanets\u2019", "images": []}, {"id": 474305, "min_date": "2021-04-10T10:54:00Z", "max_date": "2021-04-11T08:54:00Z", "count_points": 2, "latitude": 47.93905, "longitude": 34.77586, "city": "Tomakivka", "images": []}, {"id": 474306, "min_date": "2021-04-10T10:54:00Z", "max_date": "2021-04-11T10:21:00Z", "count_points": 7, "latitude": 50.42665, "longitude": 33.39063, "city": "Lokhvytsya", "images": []}, {"id": 474307, "min_date": "2021-04-10T10:54:00Z", "max_date": "2021-04-10T10:54:00Z", "count_points": 1, "latitude": 50.9264, "longitude": 29.5253, "city": "Krasyatychi", "images": []}, {"id": 474308, "min_date": "2021-04-10T10:54:00Z", "max_date": "2021-04-10T10:54:00Z", "count_points": 1, "latitude": 48.43059, "longitude": 22.72009, "city": "Mukacheve", "images": []}, {"id": 474309, "min_date": "2021-04-10T10:54:00Z", "max_date": "2021-04-10T10:54:00Z", "count_points": 1, "latitude": 48.3149, "longitude": 34.06626, "city": "Vyshneve", "images": []}, {"id": 474310, "min_date": "2021-04-10T10:54:00Z", "max_date": "2021-04-10T10:06:00Z", "count_points": 3, "latitude": 48.29171, "longitude": 34.23279, "city": "Krynychky", "images": []}, {"id": 474311, "min_date": "2021-04-10T10:54:00Z", "max_date": "2021-04-10T10:06:00Z", "count_points": 4, "latitude": 50.1293, "longitude": 36.92587, "city": "Staryy Saltiv", "images": []}, {"id": 474312, "min_date": "2021-04-10T10:54:00Z", "max_date": "2021-04-10T11:16:00Z", "count_points": 5, "latitude": 51.02074, "longitude": 29.24369, "city": "Narodychi", "images": [{"image_url": "474312.jpg", "timestamp": "2021-04-10T11:16:00Z"}]}, {"id": 474313, "min_date": "2021-04-10T10:54:00Z", "max_date": "2021-04-10T10:06:00Z", "count_points": 2, "latitude": 50.62396, "longitude": 27.6537, "city": "Novohrad-Volynskyi", "images": []}, {"id": 474314, "min_date": "2021-04-10T10:54:00Z", "max_date": "2021-04-10T10:54:00Z", "count_points": 1, "latitude": 49.91288, "longitude": 27.79915, "city": "Liubar", "images": []}, {"id": 474315, "min_date": "2021-04-10T10:54:00Z", "max_date": "2021-04-10T09:29:00Z", "count_points": 3, "latitude": 49.6636, "longitude": 27.63261, "city": "Stara Syniava", "images": []}, {"id": 474316, "min_date": "2021-04-10T10:54:00Z", "max_date": "2021-04-10T11:16:00Z", "count_points": 7, "latitude": 49.13032, "longitude": 30.32052, "city": "Buky", "images": [{"image_url": "474316.jpg", "timestamp": "2021-04-10T11:16:00Z"}]}, {"id": 474317, "min_date": "2021-04-10T10:54:00Z", "max_date": "2021-04-10T10:54:00Z", "count_points": 1, "latitude": 49.46037, "longitude": 23.46216, "city": "Dublyany", "images": []}, {"id": 474318, "min_date": "2021-04-10T10:54:00Z", "max_date": "2021-04-10T10:54:00Z", "count_points": 1, "latitude": 49.01018, "longitude": 26.21106, "city": "Husiatyn", "images": []}, {"id": 474319, "min_date": "2021-04-10T10:54:00Z", "max_date": "2021-04-11T11:59:00Z", "count_points": 9, "latitude": 49.55569, "longitude": 26.20854, "city": "Volochysk", "images": [{"image_url": "474319.jpg", "timestamp": "2021-04-11T11:59:00Z"}]}, {"id": 474320, "min_date": "2021-04-10T10:54:00Z", "max_date": "2021-04-10T10:06:00Z", "count_points": 2, "latitude": 50.95037, "longitude": 34.14588, "city": "Terny", "images": []}, {"id": 474321, "min_date": "2021-04-10T10:54:00Z", "max_date": "2021-04-10T10:06:00Z", "count_points": 5, "latitude": 50.9598, "longitude": 33.97444, "city": "Terny", "images": []}, {"id": 474322, "min_date": "2021-04-10T10:54:00Z", "max_date": "2021-04-10T10:54:00Z", "count_points": 1, "latitude": 48.42597, "longitude": 33.09837, "city": "Novyy Starodub", "images": []}, {"id": 474323, "min_date": "2021-04-10T10:54:00Z", "max_date": "2021-04-10T11:16:00Z", "count_points": 2, "latitude": 49.57185, "longitude": 26.04212, "city": "Pidvolochysk", "images": []}, {"id": 474324, "min_date": "2021-04-10T10:54:00Z", "max_date": "2021-04-10T10:54:00Z", "count_points": 2, "latitude": 51.03599, "longitude": 33.93362, "city": "Terny", "images": []}, {"id": 474325, "min_date": "2021-04-10T10:54:00Z", "max_date": "2021-04-10T10:54:00Z", "count_points": 1, "latitude": 51.14367, "longitude": 33.94716, "city": "Buryn\u2019", "images": []}, {"id": 474326, "min_date": "2021-04-10T10:54:00Z", "max_date": "2021-04-10T10:54:00Z", "count_points": 1, "latitude": 50.10886, "longitude": 29.30386, "city": "Popilnya", "images": []}, {"id": 474327, "min_date": "2021-04-10T10:54:00Z", "max_date": "2021-04-10T10:54:00Z", "count_points": 1, "latitude": 50.27605, "longitude": 32.03068, "city": "Chernyakhivka", "images": []}, {"id": 474328, "min_date": "2021-04-10T10:54:00Z", "max_date": "2021-04-10T11:16:00Z", "count_points": 3, "latitude": 50.19993, "longitude": 32.00924, "city": "Chernyakhivka", "images": []}, {"id": 474329, "min_date": "2021-04-10T10:54:00Z", "max_date": "2021-04-10T10:54:00Z", "count_points": 1, "latitude": 48.99088, "longitude": 35.37112, "city": "Hubynykha", "images": []}, {"id": 474330, "min_date": "2021-04-10T10:54:00Z", "max_date": "2021-04-10T10:54:00Z", "count_points": 1, "latitude": 50.01957, "longitude": 24.36634, "city": "Kamionka Strumitowa", "images": []}, {"id": 474331, "min_date": "2021-04-10T10:54:00Z", "max_date": "2021-04-10T11:17:00Z", "count_points": 4, "latitude": 51.4194, "longitude": 24.35674, "city": "Stara Vyzhivka", "images": []}, {"id": 474332, "min_date": "2021-04-10T10:54:00Z", "max_date": "2021-04-06T09:42:00Z", "count_points": 3, "latitude": 50.00441, "longitude": 30.21757, "city": "Vasylkiv", "images": []}, {"id": 474333, "min_date": "2021-04-10T10:54:00Z", "max_date": "2021-04-11T11:59:00Z", "count_points": 8, "latitude": 48.36948, "longitude": 25.19856, "city": "Rozhniv", "images": []}, {"id": 474334, "min_date": "2021-04-10T10:54:00Z", "max_date": "2021-04-10T09:38:00Z", "count_points": 3, "latitude": 49.70602, "longitude": 39.22674, "city": "Novopskov", "images": []}, {"id": 474335, "min_date": "2021-04-10T10:54:00Z", "max_date": "2021-04-10T10:54:00Z", "count_points": 2, "latitude": 48.60761, "longitude": 27.39955, "city": "Novodnistrovs\u2019k", "images": []}, {"id": 474336, "min_date": "2021-04-10T10:54:00Z", "max_date": "2021-04-10T11:16:00Z", "count_points": 3, "latitude": 48.2748, "longitude": 25.20545, "city": "Vyzhnytsya", "images": []}, {"id": 474337, "min_date": "2021-04-10T10:54:00Z", "max_date": "2021-04-10T10:54:00Z", "count_points": 1, "latitude": 48.48397, "longitude": 27.72705, "city": "Serebriya", "images": []}, {"id": 474338, "min_date": "2021-04-10T10:54:00Z", "max_date": "2021-04-10T10:54:00Z", "count_points": 1, "latitude": 49.45127, "longitude": 35.03111, "city": "Karlivka", "images": []}, {"id": 474339, "min_date": "2021-04-10T10:54:00Z", "max_date": "2021-04-10T10:06:00Z", "count_points": 2, "latitude": 49.71101, "longitude": 27.34421, "city": "Starokostiantyniv", "images": []}, {"id": 474340, "min_date": "2021-04-10T10:54:00Z", "max_date": "2021-04-10T10:54:00Z", "count_points": 1, "latitude": 49.5571, "longitude": 27.98149, "city": "Khmilnyk", "images": []}, {"id": 474341, "min_date": "2021-04-10T10:54:00Z", "max_date": "2021-04-10T11:16:00Z", "count_points": 2, "latitude": 49.14405, "longitude": 27.90675, "city": "Zhmerynka", "images": []}, {"id": 474342, "min_date": "2021-04-10T10:54:00Z", "max_date": "2021-04-10T10:54:00Z", "count_points": 1, "latitude": 49.05787, "longitude": 27.32325, "city": "Vinkivtsi", "images": []}, {"id": 474343, "min_date": "2021-04-10T10:54:00Z", "max_date": "2021-04-10T10:54:00Z", "count_points": 1, "latitude": 49.03456, "longitude": 27.21074, "city": "Vinkivtsi", "images": []}, {"id": 474344, "min_date": "2021-04-10T10:54:00Z", "max_date": "2021-04-11T11:59:00Z", "count_points": 19, "latitude": 48.82259, "longitude": 27.20592, "city": "Nova Ushytsya", "images": [{"image_url": "474344.jpg", "timestamp": "2021-04-11T11:59:00Z"}]}, {"id": 474345, "min_date": "2021-04-10T10:54:00Z", "max_date": "2021-04-10T10:54:00Z", "count_points": 1, "latitude": 49.17461, "longitude": 23.80472, "city": "Duliby", "images": []}, {"id": 474346, "min_date": "2021-04-10T10:54:00Z", "max_date": "2021-04-10T09:30:00Z", "count_points": 6, "latitude": 49.62541, "longitude": 23.78453, "city": "Shchyrets\u2019", "images": []}, {"id": 474347, "min_date": "2021-04-10T10:54:00Z", "max_date": "2021-04-10T10:54:00Z", "count_points": 1, "latitude": 46.93058, "longitude": 35.44193, "city": "Terpinnya", "images": []}, {"id": 474348, "min_date": "2021-04-10T10:54:00Z", "max_date": "2021-04-11T10:21:00Z", "count_points": 20, "latitude": 49.99003, "longitude": 28.41087, "city": "Hryshkivtsi", "images": [{"image_url": "474348.jpg", "timestamp": "2021-04-11T10:21:00Z"}]}, {"id": 474349, "min_date": "2021-04-10T10:54:00Z", "max_date": "2021-04-10T10:54:00Z", "count_points": 1, "latitude": 50.07827, "longitude": 29.11417, "city": "Andrushivka", "images": []}, {"id": 474350, "min_date": "2021-04-10T10:54:00Z", "max_date": "2021-04-10T10:06:00Z", "count_points": 4, "latitude": 49.24843, "longitude": 26.29962, "city": "Zakupne", "images": [{"image_url": "474350.jpg", "timestamp": "2021-04-10T10:06:00Z"}]}, {"id": 474351, "min_date": "2021-04-10T10:54:00Z", "max_date": "2021-04-10T11:16:00Z", "count_points": 14, "latitude": 49.96713, "longitude": 23.38088, "city": "Yavoriv", "images": [{"image_url": "474351.jpg", "timestamp": "2021-04-10T11:16:00Z"}]}, {"id": 474352, "min_date": "2021-04-10T10:54:00Z", "max_date": "2021-04-10T10:54:00Z", "count_points": 1, "latitude": 50.2322, "longitude": 35.97038, "city": "Zolochiv", "images": []}, {"id": 474353, "min_date": "2021-04-10T10:54:00Z", "max_date": "2021-04-10T10:54:00Z", "count_points": 1, "latitude": 49.63329, "longitude": 34.69183, "city": "Poltava", "images": []}, {"id": 474354, "min_date": "2021-04-10T10:54:00Z", "max_date": "2021-04-10T11:16:00Z", "count_points": 4, "latitude": 50.03745, "longitude": 34.59263, "city": "Oposhnya", "images": []}, {"id": 474355, "min_date": "2021-04-10T10:54:00Z", "max_date": "2021-04-10T10:54:00Z", "count_points": 1, "latitude": 51.20237, "longitude": 30.88127, "city": "Oster", "images": []}, {"id": 474356, "min_date": "2021-04-10T10:54:00Z", "max_date": "2021-04-10T10:54:00Z", "count_points": 1, "latitude": 51.29494, "longitude": 31.66426, "city": "Kulykivka", "images": []}, {"id": 474357, "min_date": "2021-04-10T10:54:00Z", "max_date": "2021-04-10T10:54:00Z", "count_points": 1, "latitude": 50.04296, "longitude": 29.07947, "city": "Andrushivka", "images": []}, {"id": 474358, "min_date": "2021-04-10T10:54:00Z", "max_date": "2021-04-10T10:54:00Z", "count_points": 1, "latitude": 49.69424, "longitude": 37.95864, "city": "Nyzhnya Duvanka", "images": []}, {"id": 474359, "min_date": "2021-04-10T10:54:00Z", "max_date": "2021-04-10T11:17:00Z", "count_points": 4, "latitude": 51.6361, "longitude": 24.97245, "city": "Kamin-Kashyrskyi", "images": []}, {"id": 474360, "min_date": "2021-04-10T10:54:00Z", "max_date": "2021-04-10T10:54:00Z", "count_points": 3, "latitude": 50.21276, "longitude": 32.63508, "city": "Pyryatyn", "images": []}, {"id": 474361, "min_date": "2021-04-10T10:54:00Z", "max_date": "2021-04-10T10:54:00Z", "count_points": 1, "latitude": 50.25861, "longitude": 32.82495, "city": "Chornukhy", "images": []}, {"id": 474362, "min_date": "2021-04-10T10:54:00Z", "max_date": "2021-04-10T09:30:00Z", "count_points": 4, "latitude": 49.33393, "longitude": 26.75325, "city": "Yarmolyntsi", "images": [{"image_url": "474362.jpg", "timestamp": "2021-04-10T09:30:00Z"}]}, {"id": 474363, "min_date": "2021-04-10T10:54:00Z", "max_date": "2021-04-10T10:54:00Z", "count_points": 1, "latitude": 49.56927, "longitude": 26.82539, "city": "Krasyliv", "images": []}, {"id": 474364, "min_date": "2021-04-10T10:54:00Z", "max_date": "2021-04-10T10:54:00Z", "count_points": 1, "latitude": 50.50154, "longitude": 26.53408, "city": "Hoshcha", "images": []}, {"id": 474365, "min_date": "2021-04-10T10:54:00Z", "max_date": "2021-04-11T11:30:00Z", "count_points": 6, "latitude": 50.67569, "longitude": 26.86797, "city": "Velyki Mezhyrichi", "images": []}, {"id": 474366, "min_date": "2021-04-10T10:54:00Z", "max_date": "2021-04-10T10:54:00Z", "count_points": 2, "latitude": 48.17732, "longitude": 36.06562, "city": "Vasyl\u2019kivka", "images": []}, {"id": 474367, "min_date": "2021-04-10T10:54:00Z", "max_date": "2021-04-10T10:54:00Z", "count_points": 2, "latitude": 48.32326, "longitude": 36.03326, "city": "Vasyl\u2019kivka", "images": []}, {"id": 474368, "min_date": "2021-04-10T10:54:00Z", "max_date": "2021-04-10T10:54:00Z", "count_points": 2, "latitude": 48.44162, "longitude": 26.4363, "city": "Khotyn", "images": []}, {"id": 474369, "min_date": "2021-04-10T10:54:00Z", "max_date": "2021-04-10T09:29:00Z", "count_points": 8, "latitude": 50.7537, "longitude": 34.9671, "city": "Verkhnya Syrovatka", "images": []}, {"id": 474370, "min_date": "2021-04-10T10:54:00Z", "max_date": "2021-04-10T10:54:00Z", "count_points": 1, "latitude": 49.62244, "longitude": 36.16898, "city": "Zmiyiv", "images": []}, {"id": 474371, "min_date": "2021-04-10T10:54:00Z", "max_date": "2021-04-10T11:15:00Z", "count_points": 5, "latitude": 48.25015, "longitude": 30.55043, "city": "Pobugskoye", "images": []}, {"id": 474372, "min_date": "2021-04-10T10:54:00Z", "max_date": "2021-04-10T10:54:00Z", "count_points": 1, "latitude": 49.91585, "longitude": 36.13437, "city": "Vysokyy", "images": []}, {"id": 474373, "min_date": "2021-04-10T10:54:00Z", "max_date": "2021-04-10T10:54:00Z", "count_points": 1, "latitude": 50.19595, "longitude": 36.13307, "city": "Slatyne", "images": []}, {"id": 474374, "min_date": "2021-04-10T10:54:00Z", "max_date": "2021-04-09T10:24:00Z", "count_points": 3, "latitude": 49.53546, "longitude": 35.68187, "city": "Berezivka", "images": []}, {"id": 474375, "min_date": "2021-04-10T10:54:00Z", "max_date": "2021-04-10T10:54:00Z", "count_points": 2, "latitude": 50.83676, "longitude": 34.74547, "city": "Nyzy", "images": []}, {"id": 474376, "min_date": "2021-04-10T10:54:00Z", "max_date": "2021-04-10T10:54:00Z", "count_points": 1, "latitude": 51.01472, "longitude": 34.8772, "city": "Sumy", "images": []}, {"id": 474377, "min_date": "2021-04-10T10:54:00Z", "max_date": "2021-04-10T11:16:00Z", "count_points": 6, "latitude": 50.04518, "longitude": 28.08344, "city": "Chudniv", "images": [{"image_url": "474377.jpg", "timestamp": "2021-04-10T11:16:00Z"}]}, {"id": 474378, "min_date": "2021-04-10T10:54:00Z", "max_date": "2021-04-11T11:24:00Z", "count_points": 2, "latitude": 49.32508, "longitude": 24.85196, "city": "\u0411\u0435\u0440\u0435\u0436\u0430\u043d\u0438", "images": []}, {"id": 474379, "min_date": "2021-04-10T10:54:00Z", "max_date": "2021-04-11T23:42:00Z", "count_points": 3, "latitude": 48.37452, "longitude": 25.97009, "city": "Chernivtsi", "images": []}, {"id": 474380, "min_date": "2021-04-10T10:54:00Z", "max_date": "2021-04-10T10:54:00Z", "count_points": 1, "latitude": 48.36123, "longitude": 26.25169, "city": "Klishkivtsi", "images": []}, {"id": 474381, "min_date": "2021-04-10T10:54:00Z", "max_date": "2021-04-10T10:54:00Z", "count_points": 1, "latitude": 48.24209, "longitude": 25.95637, "city": "Chernivtsi", "images": []}, {"id": 474382, "min_date": "2021-04-10T10:54:00Z", "max_date": "2021-04-10T10:06:00Z", "count_points": 2, "latitude": 48.20121, "longitude": 26.00824, "city": "Molodiya", "images": []}, {"id": 474383, "min_date": "2021-04-10T10:54:00Z", "max_date": "2021-04-10T09:30:00Z", "count_points": 6, "latitude": 48.18509, "longitude": 26.06746, "city": "Molodiya", "images": [{"image_url": "474383.jpg", "timestamp": "2021-04-10T09:30:00Z"}]}, {"id": 474384, "min_date": "2021-04-10T10:54:00Z", "max_date": "2021-04-10T10:54:00Z", "count_points": 1, "latitude": 48.09602, "longitude": 26.0729, "city": "Molodiya", "images": []}, {"id": 474385, "min_date": "2021-04-10T10:54:00Z", "max_date": "2021-04-10T10:54:00Z", "count_points": 1, "latitude": 48.03032, "longitude": 25.75122, "city": "Nyzhni Petrivtsi", "images": []}, {"id": 474386, "min_date": "2021-04-10T10:54:00Z", "max_date": "2021-04-11T12:18:00Z", "count_points": 2, "latitude": 48.0032, "longitude": 25.64964, "city": "Yizhivtsi", "images": []}, {"id": 474387, "min_date": "2021-04-10T10:54:00Z", "max_date": "2021-04-10T11:16:00Z", "count_points": 4, "latitude": 50.29463, "longitude": 32.09518, "city": "Chernyakhivka", "images": []}, {"id": 474388, "min_date": "2021-04-10T10:54:00Z", "max_date": "2021-04-10T10:54:00Z", "count_points": 1, "latitude": 49.55822, "longitude": 24.80986, "city": "Pomoriany", "images": []}, {"id": 474389, "min_date": "2021-04-10T10:54:00Z", "max_date": "2021-04-11T10:21:00Z", "count_points": 14, "latitude": 50.79738, "longitude": 24.37849, "city": "Volodymyr-Volynskyi", "images": [{"image_url": "474389.jpg", "timestamp": "2021-04-11T10:21:00Z"}]}, {"id": 474390, "min_date": "2021-04-10T10:54:00Z", "max_date": "2021-04-10T10:54:00Z", "count_points": 1, "latitude": 49.34866, "longitude": 28.07644, "city": "Lityn", "images": []}, {"id": 474391, "min_date": "2021-04-10T10:54:00Z", "max_date": "2021-04-10T10:54:00Z", "count_points": 1, "latitude": 49.1698, "longitude": 28.11013, "city": "Brailiv", "images": []}, {"id": 474392, "min_date": "2021-04-10T10:54:00Z", "max_date": "2021-04-10T10:06:00Z", "count_points": 4, "latitude": 48.94256, "longitude": 28.12622, "city": "Zhmerynka", "images": []}, {"id": 474393, "min_date": "2021-04-10T10:54:00Z", "max_date": "2021-04-10T11:16:00Z", "count_points": 2, "latitude": 49.59164, "longitude": 30.63468, "city": "Tarashcha", "images": []}, {"id": 474394, "min_date": "2021-04-10T10:54:00Z", "max_date": "2021-04-11T10:13:00Z", "count_points": 11, "latitude": 48.53081, "longitude": 24.66, "city": "Zarichchya", "images": []}, {"id": 474395, "min_date": "2021-04-10T10:54:00Z", "max_date": "2021-04-11T00:00:00Z", "count_points": 6, "latitude": 51.3385, "longitude": 26.44144, "city": "Sarny", "images": []}, {"id": 474396, "min_date": "2021-04-10T10:54:00Z", "max_date": "2021-04-10T10:54:00Z", "count_points": 1, "latitude": 51.42165, "longitude": 26.79722, "city": "Sarny", "images": []}, {"id": 474397, "min_date": "2021-04-10T10:54:00Z", "max_date": "2021-04-10T09:29:00Z", "count_points": 5, "latitude": 51.58248, "longitude": 26.69847, "city": "Dubrovytsya", "images": []}, {"id": 474398, "min_date": "2021-04-10T10:54:00Z", "max_date": "2021-04-10T10:06:00Z", "count_points": 2, "latitude": 50.15849, "longitude": 37.28537, "city": "Prykolotne", "images": []}, {"id": 474399, "min_date": "2021-04-10T10:54:00Z", "max_date": "2021-04-10T10:54:00Z", "count_points": 1, "latitude": 49.86895, "longitude": 37.35393, "city": "Velykyy Burluk", "images": []}, {"id": 474400, "min_date": "2021-04-10T10:54:00Z", "max_date": "2021-04-10T10:06:00Z", "count_points": 3, "latitude": 49.61918, "longitude": 24.69911, "city": "Peremyshlyany", "images": []}, {"id": 474401, "min_date": "2021-04-10T10:54:00Z", "max_date": "2021-04-10T11:16:00Z", "count_points": 8, "latitude": 49.243, "longitude": 24.79356, "city": "Bilshivtsi", "images": [{"image_url": "474401.jpg", "timestamp": "2021-04-10T11:16:00Z"}]}, {"id": 474402, "min_date": "2021-04-10T10:54:00Z", "max_date": "2021-04-11T11:59:00Z", "count_points": 8, "latitude": 49.13982, "longitude": 24.68597, "city": "Halych", "images": []}, {"id": 474403, "min_date": "2021-04-10T10:54:00Z", "max_date": "2021-04-10T10:54:00Z", "count_points": 1, "latitude": 48.81501, "longitude": 25.73547, "city": "Tovste", "images": []}, {"id": 474404, "min_date": "2021-04-10T10:54:00Z", "max_date": "2021-04-10T11:16:00Z", "count_points": 2, "latitude": 49.21346, "longitude": 24.03434, "city": "Morshyn", "images": []}, {"id": 474405, "min_date": "2021-04-10T10:54:00Z", "max_date": "2021-04-10T10:54:00Z", "count_points": 1, "latitude": 48.88415, "longitude": 24.08017, "city": "Spas", "images": []}, {"id": 474406, "min_date": "2021-04-10T10:54:00Z", "max_date": "2021-04-10T11:48:00Z", "count_points": 2, "latitude": 51.74375, "longitude": 26.34892, "city": "Zarichne", "images": []}, {"id": 474407, "min_date": "2021-04-10T10:54:00Z", "max_date": "2021-04-10T11:16:00Z", "count_points": 7, "latitude": 51.40145, "longitude": 24.95652, "city": "Nuyno", "images": []}, {"id": 474408, "min_date": "2021-04-10T10:54:00Z", "max_date": "2021-04-10T11:16:00Z", "count_points": 9, "latitude": 49.87204, "longitude": 26.94281, "city": "Antoniny", "images": []}, {"id": 474409, "min_date": "2021-04-10T10:54:00Z", "max_date": "2021-04-10T10:54:00Z", "count_points": 1, "latitude": 49.92578, "longitude": 26.30093, "city": "Teofipol", "images": []}, {"id": 474410, "min_date": "2021-04-10T10:54:00Z", "max_date": "2021-04-10T10:06:00Z", "count_points": 2, "latitude": 49.99077, "longitude": 26.34266, "city": "Lyakhovtsy", "images": []}, {"id": 474411, "min_date": "2021-04-10T10:54:00Z", "max_date": "2021-04-10T10:54:00Z", "count_points": 1, "latitude": 50.09256, "longitude": 26.91639, "city": "Izyaslav", "images": []}, {"id": 474412, "min_date": "2021-04-10T10:54:00Z", "max_date": "2021-04-10T10:54:00Z", "count_points": 1, "latitude": 48.83785, "longitude": 36.08323, "city": "Yur\u201dyivka", "images": []}, {"id": 474413, "min_date": "2021-04-10T10:54:00Z", "max_date": "2021-04-11T23:42:00Z", "count_points": 6, "latitude": 50.14819, "longitude": 27.06685, "city": "Shepetivka", "images": [{"image_url": "474413.jpg", "timestamp": "2021-04-11T23:42:00Z"}]}, {"id": 474414, "min_date": "2021-04-10T10:54:00Z", "max_date": "2021-04-10T10:54:00Z", "count_points": 1, "latitude": 50.14383, "longitude": 26.40693, "city": "Lyakhovtsy", "images": []}, {"id": 474415, "min_date": "2021-04-10T10:54:00Z", "max_date": "2021-04-10T11:16:00Z", "count_points": 3, "latitude": 49.83244, "longitude": 23.52055, "city": "Rodatychi", "images": []}, {"id": 474416, "min_date": "2021-04-10T10:54:00Z", "max_date": "2021-04-10T10:54:00Z", "count_points": 1, "latitude": 50.86118, "longitude": 25.35271, "city": "Rozhyshche", "images": []}, {"id": 474417, "min_date": "2021-04-10T10:54:00Z", "max_date": "2021-04-10T10:54:00Z", "count_points": 1, "latitude": 50.59598, "longitude": 25.34947, "city": "Lutsk", "images": []}, {"id": 474418, "min_date": "2021-04-10T10:54:00Z", "max_date": "2021-04-10T10:54:00Z", "count_points": 1, "latitude": 50.44867, "longitude": 24.88048, "city": "Horokhiv", "images": []}, {"id": 474419, "min_date": "2021-04-10T10:54:00Z", "max_date": "2021-04-10T10:06:00Z", "count_points": 2, "latitude": 50.51243, "longitude": 25.36195, "city": "Demydivka", "images": []}, {"id": 474420, "min_date": "2021-04-10T10:54:00Z", "max_date": "2021-04-10T10:54:00Z", "count_points": 1, "latitude": 50.464, "longitude": 25.18835, "city": "Berestechko", "images": []}, {"id": 474421, "min_date": "2021-04-10T10:54:00Z", "max_date": "2021-04-10T11:16:00Z", "count_points": 11, "latitude": 50.35133, "longitude": 24.83604, "city": "Kulykiv", "images": [{"image_url": "474421.jpg", "timestamp": "2021-04-10T11:16:00Z"}]}, {"id": 474422, "min_date": "2021-04-10T10:54:00Z", "max_date": "2021-04-10T11:16:00Z", "count_points": 3, "latitude": 49.17266, "longitude": 25.313, "city": "Buchach", "images": []}, {"id": 474423, "min_date": "2021-04-10T10:54:00Z", "max_date": "2021-04-05T11:42:00Z", "count_points": 4, "latitude": 49.61631, "longitude": 23.62658, "city": "Komarno", "images": []}, {"id": 474424, "min_date": "2021-04-10T10:54:00Z", "max_date": "2021-04-10T11:16:00Z", "count_points": 17, "latitude": 49.74478, "longitude": 23.5842, "city": "Rodatychi", "images": []}, {"id": 474425, "min_date": "2021-04-10T10:54:00Z", "max_date": "2021-04-10T11:48:00Z", "count_points": 2, "latitude": 49.6238, "longitude": 23.51456, "city": "Rudky", "images": []}, {"id": 474426, "min_date": "2021-04-10T10:54:00Z", "max_date": "2021-04-10T10:54:00Z", "count_points": 1, "latitude": 49.50991, "longitude": 23.50022, "city": "Dublyany", "images": []}, {"id": 474427, "min_date": "2021-04-10T10:54:00Z", "max_date": "2021-04-10T11:16:00Z", "count_points": 5, "latitude": 49.20422, "longitude": 25.22338, "city": "Pidhaytsi", "images": []}, {"id": 474428, "min_date": "2021-04-10T10:54:00Z", "max_date": "2021-04-11T11:24:00Z", "count_points": 7, "latitude": 49.29851, "longitude": 23.52441, "city": "Truskavets\u2019", "images": []}, {"id": 474429, "min_date": "2021-04-10T10:54:00Z", "max_date": "2021-04-10T11:48:00Z", "count_points": 3, "latitude": 49.23358, "longitude": 28.35848, "city": "Vinnytsia", "images": []}, {"id": 474430, "min_date": "2021-04-10T10:54:00Z", "max_date": "2021-04-10T10:54:00Z", "count_points": 1, "latitude": 51.31595, "longitude": 24.25575, "city": "Stara Vyzhivka", "images": []}, {"id": 474431, "min_date": "2021-04-10T10:54:00Z", "max_date": "2021-04-10T10:54:00Z", "count_points": 1, "latitude": 50.10882, "longitude": 24.32253, "city": "Kamionka Strumitowa", "images": []}, {"id": 474432, "min_date": "2021-04-10T10:54:00Z", "max_date": "2021-04-11T11:24:00Z", "count_points": 3, "latitude": 49.78049, "longitude": 24.28437, "city": "Verkhnyaya Belka", "images": []}, {"id": 474433, "min_date": "2021-04-10T10:54:00Z", "max_date": "2021-04-10T11:16:00Z", "count_points": 4, "latitude": 49.72574, "longitude": 24.27728, "city": "Dzvinogrud", "images": []}, {"id": 474434, "min_date": "2021-04-10T10:54:00Z", "max_date": "2021-04-11T11:24:00Z", "count_points": 4, "latitude": 49.41943, "longitude": 24.29379, "city": "Khodoriv", "images": []}, {"id": 474435, "min_date": "2021-04-10T10:54:00Z", "max_date": "2021-04-10T11:16:00Z", "count_points": 10, "latitude": 49.32377, "longitude": 24.25452, "city": "Khodoriv", "images": []}, {"id": 474436, "min_date": "2021-04-10T10:54:00Z", "max_date": "2021-04-10T10:06:00Z", "count_points": 2, "latitude": 45.50124, "longitude": 28.34975, "city": "Reni", "images": []}, {"id": 474437, "min_date": "2021-04-10T10:54:00Z", "max_date": "2021-04-11T08:34:00Z", "count_points": 3, "latitude": 51.07478, "longitude": 28.17159, "city": "Novi Bilokorovychi", "images": []}, {"id": 474438, "min_date": "2021-04-10T10:54:00Z", "max_date": "2021-04-10T10:54:00Z", "count_points": 1, "latitude": 47.55897, "longitude": 36.27289, "city": "Polohy", "images": []}, {"id": 474439, "min_date": "2021-04-10T10:54:00Z", "max_date": "2021-04-10T10:54:00Z", "count_points": 1, "latitude": 50.92073, "longitude": 31.2031, "city": "Kozelets\u2019", "images": []}, {"id": 474440, "min_date": "2021-04-10T10:54:00Z", "max_date": "2021-04-10T10:54:00Z", "count_points": 1, "latitude": 51.60834, "longitude": 32.78708, "city": "Korop", "images": []}, {"id": 474441, "min_date": "2021-04-10T10:54:00Z", "max_date": "2021-04-10T10:54:00Z", "count_points": 1, "latitude": 51.50478, "longitude": 31.92792, "city": "Berezna", "images": []}, {"id": 474442, "min_date": "2021-04-10T10:54:00Z", "max_date": "2021-04-10T11:16:00Z", "count_points": 2, "latitude": 51.62336, "longitude": 31.99478, "city": "Shchors", "images": []}, {"id": 474443, "min_date": "2021-04-10T10:54:00Z", "max_date": "2021-04-10T10:06:00Z", "count_points": 3, "latitude": 51.60714, "longitude": 31.46605, "city": "Sedniv", "images": []}, {"id": 474444, "min_date": "2021-04-10T10:54:00Z", "max_date": "2021-04-10T11:48:00Z", "count_points": 2, "latitude": 51.03042, "longitude": 29.60715, "city": "Krasyatychi", "images": []}, {"id": 474445, "min_date": "2021-04-10T10:54:00Z", "max_date": "2021-04-10T10:54:00Z", "count_points": 1, "latitude": 47.81376, "longitude": 37.63645, "city": "Dokuchayevs\u2019k", "images": []}, {"id": 474446, "min_date": "2021-04-10T10:54:00Z", "max_date": "2021-04-10T10:54:00Z", "count_points": 1, "latitude": 48.96871, "longitude": 33.9179, "city": "Kozel\u2019shchyna", "images": []}, {"id": 474447, "min_date": "2021-04-10T10:54:00Z", "max_date": "2021-04-11T10:21:00Z", "count_points": 12, "latitude": 49.37744, "longitude": 24.19632, "city": "Zhydachiv", "images": [{"image_url": "474447.jpg", "timestamp": "2021-04-11T10:21:00Z"}]}, {"id": 474448, "min_date": "2021-04-10T10:54:00Z", "max_date": "2021-04-10T10:54:00Z", "count_points": 1, "latitude": 48.99971, "longitude": 24.12852, "city": "Broshniv-Osada", "images": []}, {"id": 474449, "min_date": "2021-04-10T10:54:00Z", "max_date": "2021-04-10T10:54:00Z", "count_points": 1, "latitude": 49.00713, "longitude": 24.21122, "city": "Broshniv-Osada", "images": []}, {"id": 474450, "min_date": "2021-04-10T10:54:00Z", "max_date": "2021-04-10T11:16:00Z", "count_points": 2, "latitude": 48.86746, "longitude": 24.21526, "city": "Nebyliv", "images": []}, {"id": 474451, "min_date": "2021-04-10T10:54:00Z", "max_date": "2021-04-10T10:54:00Z", "count_points": 1, "latitude": 51.27328, "longitude": 28.66887, "city": "Ovruch", "images": []}, {"id": 474452, "min_date": "2021-04-10T10:54:00Z", "max_date": "2021-04-10T10:54:00Z", "count_points": 1, "latitude": 49.42055, "longitude": 24.42018, "city": "Khodoriv", "images": []}, {"id": 474453, "min_date": "2021-04-10T23:12:00Z", "max_date": "2021-04-11T09:48:00Z", "count_points": 4, "latitude": 49.6183, "longitude": 36.12539, "city": "Utkivka", "images": [{"image_url": "474453.jpg", "timestamp": "2021-04-11T09:48:00Z"}]}, {"id": 474454, "min_date": "2021-04-10T23:12:00Z", "max_date": "2021-04-11T00:00:00Z", "count_points": 2, "latitude": 49.59949, "longitude": 33.28303, "city": "Semenivka", "images": []},