[{"id": 490339, "min_date": "2021-10-11T10:09:00Z", "max_date": "2021-10-11T09:20:00Z", "count_points": 3, "latitude": 48.81633, "longitude": 31.80025, "city": "Kapitanivka", "images": []}, {"id": 490366, "min_date": "2021-10-11T10:09:00Z", "max_date": "2021-10-11T10:09:00Z", "count_points": 1, "latitude": 47.92202, "longitude": 38.14955, "city": "Ilovays\u2019k", "images": []}, {"id": 490393, "min_date": "2021-10-11T10:09:00Z", "max_date": "2021-10-11T09:20:00Z", "count_points": 12, "latitude": 50.43444, "longitude": 35.98251, "city": "Zolochiv", "images": [{"image_url": "490393.jpg", "timestamp": "2021-10-11T09:20:00Z"}]}, {"id": 490396, "min_date": "2021-10-11T10:11:00Z", "max_date": "2021-10-11T08:37:00Z", "count_points": 2, "latitude": 51.27277, "longitude": 31.78177, "city": "Kulykivka", "images": []}, {"id": 490417, "min_date": "2021-10-12T09:49:00Z", "max_date": "2021-10-12T09:49:00Z", "count_points": 1, "latitude": 48.5443, "longitude": 36.50986, "city": "Petropavlivka", "images": []}, {"id": 490444, "min_date": "2021-10-12T11:30:00Z", "max_date": "2021-10-12T11:30:00Z", "count_points": 1, "latitude": 49.03599, "longitude": 32.97897, "city": "Hradyz\u2019k", "images": []}, {"id": 490472, "min_date": "2021-10-15T10:32:00Z", "max_date": "2021-10-15T10:32:00Z", "count_points": 1, "latitude": 47.31708, "longitude": 35.15941, "city": "Mykhaylivka", "images": []}, {"id": 490489, "min_date": "2021-10-15T10:34:00Z", "max_date": "2021-10-15T10:34:00Z", "count_points": 2, "latitude": 49.89521, "longitude": 27.50357, "city": "Novoselytsya", "images": []}, {"id": 490516, "min_date": "2021-10-17T09:56:00Z", "max_date": "2021-10-17T09:56:00Z", "count_points": 2, "latitude": 48.65118, "longitude": 25.88887, "city": "Zastavna", "images": []}, {"id": 490543, "min_date": "2021-10-11T08:37:00Z", "max_date": "2021-10-11T08:37:00Z", "count_points": 2, "latitude": 48.93254, "longitude": 34.85514, "city": "Mahdalynivka", "images": []}, {"id": 490548, "min_date": "2021-10-11T08:37:00Z", "max_date": "2021-10-11T08:37:00Z", "count_points": 2, "latitude": 52.02576, "longitude": 32.74541, "city": "Kholmy", "images": []}, {"id": 490563, "min_date": "2021-10-11T10:26:00Z", "max_date": "2021-10-11T10:26:00Z", "count_points": 1, "latitude": 48.28214, "longitude": 34.70972, "city": "Surs\u2019ko-Mykhaylivka", "images": []}, {"id": 490594, "min_date": "2021-10-11T10:58:00Z", "max_date": "2021-10-11T10:58:00Z", "count_points": 1, "latitude": 47.70352, "longitude": 29.35613, "city": "Podil\u2019s\u2019k", "images": []}, {"id": 490621, "min_date": "2021-10-11T11:00:00Z", "max_date": "2021-10-11T11:00:00Z", "count_points": 1, "latitude": 50.1047, "longitude": 32.00995, "city": "Chernyakhivka", "images": []}, {"id": 490624, "min_date": "2021-10-11T11:00:00Z", "max_date": "2021-10-11T11:00:00Z", "count_points": 2, "latitude": 49.63773, "longitude": 31.10117, "city": "Myronivka", "images": []}, {"id": 490638, "min_date": "2021-10-11T11:00:00Z", "max_date": "2021-10-11T11:00:00Z", "count_points": 2, "latitude": 49.3775, "longitude": 29.27442, "city": "Pohrebyshche", "images": []}, {"id": 490664, "min_date": "2021-10-12T10:41:00Z", "max_date": "2021-10-12T10:41:00Z", "count_points": 1, "latitude": 48.88863, "longitude": 35.08129, "city": "Mahdalynivka", "images": []}, {"id": 490692, "min_date": "2021-10-15T11:25:00Z", "max_date": "2021-10-15T11:25:00Z", "count_points": 1, "latitude": 49.44142, "longitude": 25.44135, "city": "Petrikov", "images": []}, {"id": 490700, "min_date": "2021-10-16T11:06:00Z", "max_date": "2021-10-16T11:06:00Z", "count_points": 1, "latitude": 48.63435, "longitude": 38.08892, "city": "Soledar", "images": []}, {"id": 490709, "min_date": "2021-10-17T10:45:00Z", "max_date": "2021-10-17T10:45:00Z", "count_points": 1, "latitude": 48.81213, "longitude": 37.16435, "city": "Barvinkove", "images": []}, {"id": 490322, "min_date": "2021-10-11T00:22:00Z", "max_date": "2021-10-11T10:58:00Z", "count_points": 4, "latitude": 46.05918, "longitude": 29.14678, "city": "Tarutyne", "images": []}, {"id": 490323, "min_date": "2021-10-11T00:22:00Z", "max_date": "2021-10-11T00:22:00Z", "count_points": 1, "latitude": 45.99979, "longitude": 30.26539, "city": "Serhiyivka", "images": []}, {"id": 490324, "min_date": "2021-10-11T00:22:00Z", "max_date": "2021-10-11T00:22:00Z", "count_points": 1, "latitude": 46.32843, "longitude": 32.31369, "city": "Chulakivka", "images": []}, {"id": 490325, "min_date": "2021-10-11T00:22:00Z", "max_date": "2021-10-11T00:22:00Z", "count_points": 1, "latitude": 49.06363, "longitude": 23.94474, "city": "Bolekhiv", "images": []}, {"id": 490326, "min_date": "2021-10-11T00:22:00Z", "max_date": "2021-10-11T00:22:00Z", "count_points": 1, "latitude": 47.98043, "longitude": 39.23382, "city": "Roven\u2019ky", "images": []}, {"id": 490327, "min_date": "2021-10-11T00:22:00Z", "max_date": "2021-10-11T00:22:00Z", "count_points": 1, "latitude": 50.73632, "longitude": 30.35167, "city": "Liutizh", "images": []}, {"id": 490328, "min_date": "2021-10-11T00:22:00Z", "max_date": "2021-10-11T00:22:00Z", "count_points": 1, "latitude": 51.60569, "longitude": 27.44853, "city": "Rokytne", "images": []}, {"id": 490329, "min_date": "2021-10-11T00:22:00Z", "max_date": "2021-10-11T10:26:00Z", "count_points": 4, "latitude": 48.1767, "longitude": 34.79796, "city": "Solone", "images": []}, {"id": 490330, "min_date": "2021-10-11T10:09:00Z", "max_date": "2021-10-11T10:09:00Z", "count_points": 1, "latitude": 48.67465, "longitude": 28.57531, "city": "Tomashpil\u2019", "images": []}, {"id": 490331, "min_date": "2021-10-11T10:09:00Z", "max_date": "2021-10-11T09:20:00Z", "count_points": 2, "latitude": 49.74571, "longitude": 33.46722, "city": "Khorol", "images": []}, {"id": 490332, "min_date": "2021-10-11T10:09:00Z", "max_date": "2021-10-16T01:17:00Z", "count_points": 2, "latitude": 49.93069, "longitude": 34.60573, "city": "Oposhnya", "images": []}, {"id": 490333, "min_date": "2021-10-11T10:09:00Z", "max_date": "2021-10-11T11:00:00Z", "count_points": 6, "latitude": 49.04277, "longitude": 30.54826, "city": "Buky", "images": []}, {"id": 490334, "min_date": "2021-10-11T10:09:00Z", "max_date": "2021-10-11T10:09:00Z", "count_points": 1, "latitude": 49.70252, "longitude": 34.64643, "city": "Poltava", "images": []}, {"id": 490335, "min_date": "2021-10-11T10:09:00Z", "max_date": "2021-10-11T11:00:00Z", "count_points": 6, "latitude": 50.04516, "longitude": 37.03372, "city": "Pechenihy", "images": []}, {"id": 490336, "min_date": "2021-10-11T10:09:00Z", "max_date": "2021-10-11T10:09:00Z", "count_points": 2, "latitude": 48.89486, "longitude": 31.27629, "city": "Shpola", "images": []}, {"id": 490337, "min_date": "2021-10-11T10:09:00Z", "max_date": "2021-10-11T10:09:00Z", "count_points": 2, "latitude": 48.40362, "longitude": 29.72958, "city": "Hayvoron", "images": []}, {"id": 490338, "min_date": "2021-10-11T10:09:00Z", "max_date": "2021-10-11T10:09:00Z", "count_points": 1, "latitude": 48.72169, "longitude": 31.34992, "city": "Shpola", "images": []}, {"id": 490340, "min_date": "2021-10-11T10:09:00Z", "max_date": "2021-10-11T10:09:00Z", "count_points": 2, "latitude": 48.47349, "longitude": 30.40109, "city": "Holovanivs\u2019k", "images": []}, {"id": 490341, "min_date": "2021-10-11T10:09:00Z", "max_date": "2021-10-11T10:09:00Z", "count_points": 1, "latitude": 49.38221, "longitude": 34.68188, "city": "Mashivka", "images": []}, {"id": 490342, "min_date": "2021-10-11T10:09:00Z", "max_date": "2021-10-11T10:26:00Z", "count_points": 2, "latitude": 49.64218, "longitude": 36.14733, "city": "Utkivka", "images": []}, {"id": 490343, "min_date": "2021-10-11T10:09:00Z", "max_date": "2021-10-11T10:09:00Z", "count_points": 1, "latitude": 49.8489, "longitude": 38.75938, "city": "Lozno-Oleksandrivka", "images": []}, {"id": 490344, "min_date": "2021-10-11T10:09:00Z", "max_date": "2021-10-11T10:09:00Z", "count_points": 1, "latitude": 49.07352, "longitude": 34.33531, "city": "Kobelyaky", "images": []}, {"id": 490345, "min_date": "2021-10-11T10:09:00Z", "max_date": "2021-10-11T10:09:00Z", "count_points": 1, "latitude": 49.36079, "longitude": 35.94211, "city": "Chapayeve", "images": []}, {"id": 490346, "min_date": "2021-10-11T10:09:00Z", "max_date": "2021-10-13T00:35:00Z", "count_points": 15, "latitude": 49.78197, "longitude": 38.48504, "city": "Troyits\u2019ke", "images": []}, {"id": 490347, "min_date": "2021-10-11T10:09:00Z", "max_date": "2021-10-11T11:00:00Z", "count_points": 3, "latitude": 48.99568, "longitude": 34.14541, "city": "Kobelyaky", "images": []}, {"id": 490348, "min_date": "2021-10-11T10:09:00Z", "max_date": "2021-10-11T10:09:00Z", "count_points": 3, "latitude": 48.96152, "longitude": 34.08438, "city": "Kobelyaky", "images": []}, {"id": 490349, "min_date": "2021-10-11T10:09:00Z", "max_date": "2021-10-11T11:00:00Z", "count_points": 6, "latitude": 48.64819, "longitude": 32.74177, "city": "Znomenka", "images": []}, {"id": 490350, "min_date": "2021-10-11T10:09:00Z", "max_date": "2021-10-11T09:20:00Z", "count_points": 12, "latitude": 48.97214, "longitude": 34.82846, "city": "Mahdalynivka", "images": [{"image_url": "490350.jpg", "timestamp": "2021-10-11T09:20:00Z"}]}, {"id": 490351, "min_date": "2021-10-11T10:09:00Z", "max_date": "2021-10-11T10:26:00Z", "count_points": 3, "latitude": 48.92422, "longitude": 34.79921, "city": "Mahdalynivka", "images": []}, {"id": 490352, "min_date": "2021-10-11T10:09:00Z", "max_date": "2021-10-11T10:09:00Z", "count_points": 1, "latitude": 48.49447, "longitude": 32.70029, "city": "Novhorodka", "images": []}, {"id": 490353, "min_date": "2021-10-11T10:09:00Z", "max_date": "2021-10-11T10:09:00Z", "count_points": 1, "latitude": 49.02851, "longitude": 35.55603, "city": "Kehychivka", "images": []}, {"id": 490354, "min_date": "2021-10-11T10:09:00Z", "max_date": "2021-10-11T09:20:00Z", "count_points": 7, "latitude": 48.5319, "longitude": 33.36718, "city": "Novyy Starodub", "images": [{"image_url": "490354.jpg", "timestamp": "2021-10-11T09:20:00Z"}]}, {"id": 490355, "min_date": "2021-10-11T10:09:00Z", "max_date": "2021-10-11T10:09:00Z", "count_points": 1, "latitude": 49.39491, "longitude": 38.81759, "city": "Starobil\u2019s\u2019k", "images": []}, {"id": 490356, "min_date": "2021-10-11T10:09:00Z", "max_date": "2021-10-11T11:00:00Z", "count_points": 2, "latitude": 48.30317, "longitude": 33.25485, "city": "Petrove", "images": []}, {"id": 490357, "min_date": "2021-10-11T10:09:00Z", "max_date": "2021-10-11T10:09:00Z", "count_points": 3, "latitude": 48.20473, "longitude": 33.63868, "city": "Zhovti Vody", "images": []}, {"id": 490358, "min_date": "2021-10-11T10:09:00Z", "max_date": "2021-10-17T10:45:00Z", "count_points": 7, "latitude": 47.8545, "longitude": 33.21627, "city": "Kryvyi Rih", "images": []}, {"id": 490359, "min_date": "2021-10-11T10:09:00Z", "max_date": "2021-10-11T10:09:00Z", "count_points": 2, "latitude": 47.42063, "longitude": 31.58329, "city": "Nova Odesa", "images": []}, {"id": 490360, "min_date": "2021-10-11T10:09:00Z", "max_date": "2021-10-11T10:09:00Z", "count_points": 1, "latitude": 48.20589, "longitude": 35.4832, "city": "Synel\u2019nykove", "images": []}, {"id": 490361, "min_date": "2021-10-11T10:09:00Z", "max_date": "2021-10-11T10:26:00Z", "count_points": 2, "latitude": 48.25624, "longitude": 35.7856, "city": "Vasyl\u2019kivka", "images": []}, {"id": 490362, "min_date": "2021-10-11T10:09:00Z", "max_date": "2021-10-11T09:20:00Z", "count_points": 3, "latitude": 46.91645, "longitude": 30.74345, "city": "Kremidivka", "images": []}, {"id": 490363, "min_date": "2021-10-11T10:09:00Z", "max_date": "2021-10-11T10:58:00Z", "count_points": 22, "latitude": 47.03955, "longitude": 31.47431, "city": "Berezanka", "images": []}, {"id": 490364, "min_date": "2021-10-11T10:09:00Z", "max_date": "2021-10-11T10:58:00Z", "count_points": 3, "latitude": 47.89128, "longitude": 35.58128, "city": "Vil\u2019nyans\u2019k", "images": []}, {"id": 490365, "min_date": "2021-10-11T10:09:00Z", "max_date": "2021-10-11T10:26:00Z", "count_points": 7, "latitude": 47.94629, "longitude": 38.17888, "city": "Ilovays\u2019k", "images": []}, {"id": 490367, "min_date": "2021-10-11T10:09:00Z", "max_date": "2021-10-11T10:58:00Z", "count_points": 5, "latitude": 47.59903, "longitude": 36.31349, "city": "Hulyaypole", "images": []}, {"id": 490368, "min_date": "2021-10-11T10:09:00Z", "max_date": "2021-10-11T10:09:00Z", "count_points": 1, "latitude": 47.2193, "longitude": 34.35961, "city": "Verkhniy Rohachyk", "images": []}, {"id": 490369, "min_date": "2021-10-11T10:09:00Z", "max_date": "2021-10-11T10:09:00Z", "count_points": 1, "latitude": 47.27865, "longitude": 34.94506, "city": "Mala Bilozerka", "images": []}, {"id": 490370, "min_date": "2021-10-11T10:09:00Z", "max_date": "2021-10-11T10:26:00Z", "count_points": 4, "latitude": 47.82699, "longitude": 38.1604, "city": "Ilovays\u2019k", "images": []}, {"id": 490371, "min_date": "2021-10-11T10:09:00Z", "max_date": "2021-10-11T10:26:00Z", "count_points": 2, "latitude": 47.6356, "longitude": 37.27134, "city": "Blahodatne", "images": []}, {"id": 490372, "min_date": "2021-10-11T10:09:00Z", "max_date": "2021-10-11T10:09:00Z", "count_points": 1, "latitude": 47.40023, "longitude": 36.29675, "city": "Chapayevka", "images": []}, {"id": 490373, "min_date": "2021-10-11T10:09:00Z", "max_date": "2021-10-16T11:06:00Z", "count_points": 4, "latitude": 47.65293, "longitude": 38.13432, "city": "Starobesheve", "images": []}, {"id": 490374, "min_date": "2021-10-11T10:09:00Z", "max_date": "2021-10-11T10:26:00Z", "count_points": 4, "latitude": 47.41102, "longitude": 36.94159, "city": "Rozivka", "images": []}, {"id": 490375, "min_date": "2021-10-11T10:09:00Z", "max_date": "2021-10-11T10:09:00Z", "count_points": 1, "latitude": 47.20676, "longitude": 36.13646, "city": "Chernihivka", "images": []}, {"id": 490376, "min_date": "2021-10-11T10:09:00Z", "max_date": "2021-10-11T10:09:00Z", "count_points": 1, "latitude": 46.33599, "longitude": 32.50351, "city": "Chulakivka", "images": []}, {"id": 490377, "min_date": "2021-10-11T10:09:00Z", "max_date": "2021-10-11T09:17:00Z", "count_points": 5, "latitude": 46.38289, "longitude": 33.14653, "city": "Brylivka", "images": [{"image_url": "490377.jpg", "timestamp": "2021-10-11T09:17:00Z"}]}, {"id": 490378, "min_date": "2021-10-11T10:09:00Z", "max_date": "2021-10-11T10:09:00Z", "count_points": 1, "latitude": 47.13021, "longitude": 37.41848, "city": "Staryy Krym", "images": []}, {"id": 490379, "min_date": "2021-10-11T10:09:00Z", "max_date": "2021-10-11T10:58:00Z", "count_points": 8, "latitude": 47.22933, "longitude": 38.15651, "city": "Novoazovs'k", "images": []}, {"id": 490380, "min_date": "2021-10-11T10:09:00Z", "max_date": "2021-10-11T10:26:00Z", "count_points": 3, "latitude": 46.15082, "longitude": 33.09119, "city": "Skadovs\u2019k", "images": []}, {"id": 490381, "min_date": "2021-10-11T10:09:00Z", "max_date": "2021-10-11T10:58:00Z", "count_points": 12, "latitude": 46.82264, "longitude": 36.52498, "city": "Prymors\u2019k", "images": []}, {"id": 490382, "min_date": "2021-10-11T10:09:00Z", "max_date": "2021-10-12T11:08:00Z", "count_points": 6, "latitude": 46.15759, "longitude": 33.42433, "city": "Kalanchak", "images": []}, {"id": 490383, "min_date": "2021-10-11T10:09:00Z", "max_date": "2021-10-11T10:26:00Z", "count_points": 3, "latitude": 46.11618, "longitude": 33.37311, "city": "Kalanchak", "images": []}, {"id": 490384, "min_date": "2021-10-11T10:09:00Z", "max_date": "2021-10-11T09:17:00Z", "count_points": 6, "latitude": 46.0794, "longitude": 33.40611, "city": "Kalanchak", "images": [{"image_url": "490384.jpg", "timestamp": "2021-10-11T09:17:00Z"}]}, {"id": 490385, "min_date": "2021-10-11T10:09:00Z", "max_date": "2021-10-11T11:00:00Z", "count_points": 5, "latitude": 51.30757, "longitude": 33.26621, "city": "Konotop", "images": [{"image_url": "490385.jpg", "timestamp": "2021-10-11T11:00:00Z"}]}, {"id": 490386, "min_date": "2021-10-11T10:09:00Z", "max_date": "2021-10-11T10:09:00Z", "count_points": 1, "latitude": 51.29381, "longitude": 33.49112, "city": "Sloboda", "images": []}, {"id": 490387, "min_date": "2021-10-11T10:09:00Z", "max_date": "2021-10-16T08:54:00Z", "count_points": 3, "latitude": 50.1101, "longitude": 29.13629, "city": "Andrushivka", "images": []}, {"id": 490388, "min_date": "2021-10-11T10:09:00Z", "max_date": "2021-10-11T10:09:00Z", "count_points": 1, "latitude": 48.87646, "longitude": 25.54015, "city": "Nyrkiv", "images": []}, {"id": 490389, "min_date": "2021-10-11T10:09:00Z", "max_date": "2021-10-11T11:00:00Z", "count_points": 21, "latitude": 50.83066, "longitude": 33.98538, "city": "Nedryhayliv", "images": [{"image_url": "490389.jpg", "timestamp": "2021-10-11T11:00:00Z"}]}, {"id": 490390, "min_date": "2021-10-11T10:09:00Z", "max_date": "2021-10-11T10:09:00Z", "count_points": 1, "latitude": 49.49477, "longitude": 30.67614, "city": "Karapyshi", "images": []}, {"id": 490391, "min_date": "2021-10-11T10:09:00Z", "max_date": "2021-10-11T10:09:00Z", "count_points": 1, "latitude": 48.35321, "longitude": 26.26466, "city": "Klishkivtsi", "images": []}, {"id": 490392, "min_date": "2021-10-11T10:09:00Z", "max_date": "2021-10-11T11:00:00Z", "count_points": 8, "latitude": 50.03241, "longitude": 33.43129, "city": "Romodan", "images": [{"image_url": "490392.jpg", "timestamp": "2021-10-11T11:00:00Z"}]}, {"id": 490394, "min_date": "2021-10-11T10:11:00Z", "max_date": "2021-10-11T10:11:00Z", "count_points": 2, "latitude": 51.23346, "longitude": 32.01332, "city": "Kruty", "images": []}, {"id": 490395, "min_date": "2021-10-11T10:11:00Z", "max_date": "2021-10-11T10:11:00Z", "count_points": 1, "latitude": 51.31271, "longitude": 31.78262, "city": "Kulykivka", "images": []}, {"id": 490397, "min_date": "2021-10-11T10:11:00Z", "max_date": "2021-10-11T10:11:00Z", "count_points": 2, "latitude": 50.92774, "longitude": 27.28096, "city": "Horodnytsya", "images": []}, {"id": 490398, "min_date": "2021-10-11T10:11:00Z", "max_date": "2021-10-11T11:00:00Z", "count_points": 2, "latitude": 51.80079, "longitude": 31.48284, "city": "Horodnya", "images": []}, {"id": 490399, "min_date": "2021-10-11T10:11:00Z", "max_date": "2021-10-11T10:11:00Z", "count_points": 1, "latitude": 51.1051, "longitude": 28.88632, "city": "Narodychi", "images": []}, {"id": 490400, "min_date": "2021-10-11T10:11:00Z", "max_date": "2021-10-11T10:11:00Z", "count_points": 1, "latitude": 49.91659, "longitude": 24.70315, "city": "Krasne", "images": []}, {"id": 490401, "min_date": "2021-10-11T11:49:00Z", "max_date": "2021-10-11T11:49:00Z", "count_points": 1, "latitude": 51.50457, "longitude": 26.61993, "city": "Dubrovytsya", "images": []}, {"id": 490402, "min_date": "2021-10-11T11:49:00Z", "max_date": "2021-10-11T11:49:00Z", "count_points": 1, "latitude": 50.88612, "longitude": 26.33568, "city": "Kostopil\u2019", "images": []}, {"id": 490403, "min_date": "2021-10-11T11:49:00Z", "max_date": "2021-10-11T11:49:00Z", "count_points": 1, "latitude": 49.29172, "longitude": 26.03624, "city": "Hrymayliv", "images": []}, {"id": 490404, "min_date": "2021-10-11T11:49:00Z", "max_date": "2021-10-11T11:49:00Z", "count_points": 1, "latitude": 48.54575, "longitude": 30.55464, "city": "Perehonivka", "images": []}, {"id": 490405, "min_date": "2021-10-11T11:49:00Z", "max_date": "2021-10-11T11:49:00Z", "count_points": 2, "latitude": 48.49922, "longitude": 29.51846, "city": "Viytivka", "images": []}, {"id": 490406, "min_date": "2021-10-11T11:49:00Z", "max_date": "2021-10-11T11:49:00Z", "count_points": 2, "latitude": 50.31811, "longitude": 33.86516, "city": "Hadyach", "images": []}, {"id": 490407, "min_date": "2021-10-11T11:49:00Z", "max_date": "2021-10-11T11:49:00Z", "count_points": 1, "latitude": 50.13028, "longitude": 32.04761, "city": "Chernyakhivka", "images": []}, {"id": 490408, "min_date": "2021-10-11T11:49:00Z", "max_date": "2021-10-11T11:49:00Z", "count_points": 2, "latitude": 49.73824, "longitude": 32.42641, "city": "Chornobay", "images": []}, {"id": 490409, "min_date": "2021-10-11T11:49:00Z", "max_date": "2021-10-11T11:49:00Z", "count_points": 2, "latitude": 49.62742, "longitude": 33.52495, "city": "Velyka Bahachka", "images": []}, {"id": 490410, "min_date": "2021-10-12T00:01:00Z", "max_date": "2021-10-12T00:54:00Z", "count_points": 4, "latitude": 49.0264, "longitude": 31.37279, "city": "Shpola", "images": []}, {"id": 490411, "min_date": "2021-10-12T09:49:00Z", "max_date": "2021-10-12T10:41:00Z", "count_points": 4, "latitude": 48.83761, "longitude": 36.03792, "city": "Yur\u201dyivka", "images": []}, {"id": 490412, "min_date": "2021-10-12T09:49:00Z", "max_date": "2021-10-17T09:56:00Z", "count_points": 3, "latitude": 49.53714, "longitude": 38.71567, "city": "Bilokurakyne", "images": []}, {"id": 490413, "min_date": "2021-10-12T09:49:00Z", "max_date": "2021-10-12T09:49:00Z", "count_points": 1, "latitude": 49.30517, "longitude": 36.43632, "city": "Krasnopavlivka", "images": []}, {"id": 490414, "min_date": "2021-10-12T09:49:00Z", "max_date": "2021-10-12T10:41:00Z", "count_points": 3, "latitude": 49.32491, "longitude": 36.30971, "city": "Pervomays\u2019kyy", "images": []}, {"id": 490415, "min_date": "2021-10-12T09:49:00Z", "max_date": "2021-10-12T09:49:00Z", "count_points": 2, "latitude": 48.79348, "longitude": 38.53306, "city": "Toshkivka", "images": []}, {"id": 490416, "min_date": "2021-10-12T09:49:00Z", "max_date": "2021-10-12T10:41:00Z", "count_points": 2, "latitude": 47.78651, "longitude": 33.82888, "city": "Apostolove", "images": []}, {"id": 490418, "min_date": "2021-10-12T09:49:00Z", "max_date": "2021-10-12T10:41:00Z", "count_points": 4, "latitude": 48.67719, "longitude": 36.84285, "city": "Oleksandrivka", "images": []}, {"id": 490419, "min_date": "2021-10-12T09:49:00Z", "max_date": "2021-10-12T10:41:00Z", "count_points": 3, "latitude": 48.2281, "longitude": 34.83893, "city": "Solone", "images": []}, {"id": 490420, "min_date": "2021-10-12T09:49:00Z", "max_date": "2021-10-12T09:49:00Z", "count_points": 3, "latitude": 48.79974, "longitude": 37.28266, "city": "Krasnotorka", "images": []}, {"id": 490421, "min_date": "2021-10-12T09:49:00Z", "max_date": "2021-10-12T10:41:00Z", "count_points": 2, "latitude": 51.10161, "longitude": 30.86167, "city": "Oster", "images": []}, {"id": 490422, "min_date": "2021-10-12T09:49:00Z", "max_date": "2021-10-12T10:41:00Z", "count_points": 7, "latitude": 50.65757, "longitude": 29.46982, "city": "Bila Krynytsya", "images": []}, {"id": 490423, "min_date": "2021-10-12T09:49:00Z", "max_date": "2021-10-12T09:49:00Z", "count_points": 1, "latitude": 50.38181, "longitude": 37.36678, "city": "Prykolotne", "images": []}, {"id": 490424, "min_date": "2021-10-12T09:49:00Z", "max_date": "2021-10-12T09:20:00Z", "count_points": 2, "latitude": 49.67233, "longitude": 34.66947, "city": "Poltava", "images": []}, {"id": 490425, "min_date": "2021-10-12T09:49:00Z", "max_date": "2021-10-12T09:00:00Z", "count_points": 4, "latitude": 50.24072, "longitude": 37.29702, "city": "Prykolotne", "images": []}, {"id": 490426, "min_date": "2021-10-12T09:49:00Z", "max_date": "2021-10-12T10:41:00Z", "count_points": 12, "latitude": 49.81775, "longitude": 36.95817, "city": "Pechenihy", "images": [{"image_url": "490426.jpg", "timestamp": "2021-10-12T10:41:00Z"}]}, {"id": 490427, "min_date": "2021-10-12T09:49:00Z", "max_date": "2021-10-12T09:49:00Z", "count_points": 2, "latitude": 47.70095, "longitude": 34.21362, "city": "Chortomlyk", "images": []}, {"id": 490428, "min_date": "2021-10-12T09:49:00Z", "max_date": "2021-10-12T10:41:00Z", "count_points": 10, "latitude": 48.17211, "longitude": 37.19849, "city": "Selydove", "images": []}, {"id": 490429, "min_date": "2021-10-12T09:49:00Z", "max_date": "2021-10-12T09:49:00Z", "count_points": 1, "latitude": 45.94151, "longitude": 28.88742, "city": "Novi Troyany", "images": []}, {"id": 490430, "min_date": "2021-10-12T09:49:00Z", "max_date": "2021-10-12T09:49:00Z", "count_points": 1, "latitude": 48.07748, "longitude": 37.07949, "city": "Kurakhovo", "images": []}, {"id": 490431, "min_date": "2021-10-12T09:49:00Z", "max_date": "2021-10-12T09:49:00Z", "count_points": 1, "latitude": 48.01294, "longitude": 36.86384, "city": "Velyka Novosilka", "images": []}, {"id": 490432, "min_date": "2021-10-12T09:49:00Z", "max_date": "2021-10-12T09:49:00Z", "count_points": 1, "latitude": 48.03619, "longitude": 38.04215, "city": "Krinichnaya", "images": []}, {"id": 490433, "min_date": "2021-10-12T09:49:00Z", "max_date": "2021-10-12T09:49:00Z", "count_points": 1, "latitude": 47.64507, "longitude": 37.52291, "city": "Volnovakha", "images": []}, {"id": 490434, "min_date": "2021-10-12T09:49:00Z", "max_date": "2021-10-12T09:00:00Z", "count_points": 2, "latitude": 47.3846, "longitude": 37.8349, "city": "Tel\u2019manove", "images": []}, {"id": 490435, "min_date": "2021-10-12T09:49:00Z", "max_date": "2021-10-12T09:20:00Z", "count_points": 6, "latitude": 48.4721, "longitude": 37.42293, "city": "Druzhkivka", "images": []}, {"id": 490436, "min_date": "2021-10-12T11:30:00Z", "max_date": "2021-10-12T10:41:00Z", "count_points": 6, "latitude": 48.93147, "longitude": 35.66031, "city": "Sakhnovshchyna", "images": []}, {"id": 490437, "min_date": "2021-10-12T11:30:00Z", "max_date": "2021-10-12T11:30:00Z", "count_points": 1, "latitude": 46.26574, "longitude": 32.71285, "city": "Krasne", "images": []}, {"id": 490438, "min_date": "2021-10-12T11:30:00Z", "max_date": "2021-10-12T10:41:00Z", "count_points": 9, "latitude": 47.3819, "longitude": 35.47947, "city": "Pryshyb", "images": []}, {"id": 490439, "min_date": "2021-10-12T11:30:00Z", "max_date": "2021-10-12T11:30:00Z", "count_points": 1, "latitude": 48.03611, "longitude": 34.85742, "city": "Solone", "images": []}, {"id": 490440, "min_date": "2021-10-12T11:30:00Z", "max_date": "2021-10-12T11:30:00Z", "count_points": 1, "latitude": 48.35939, "longitude": 33.80804, "city": "Piatykhatky", "images": []}, {"id": 490441, "min_date": "2021-10-12T11:30:00Z", "max_date": "2021-10-12T10:41:00Z", "count_points": 4, "latitude": 48.85221, "longitude": 36.86933, "city": "Oleksandrivka", "images": []}, {"id": 490442, "min_date": "2021-10-12T11:30:00Z", "max_date": "2021-10-12T11:30:00Z", "count_points": 1, "latitude": 48.88066, "longitude": 37.97445, "city": "Sivers\u2019k", "images": []}, {"id": 490443, "min_date": "2021-10-12T11:30:00Z", "max_date": "2021-10-12T11:30:00Z", "count_points": 2, "latitude": 49.00388, "longitude": 37.12853, "city": "Barvinkove", "images": []}, {"id": 490445, "min_date": "2021-10-12T11:30:00Z", "max_date": "2021-10-12T10:41:00Z", "count_points": 5, "latitude": 49.08874, "longitude": 36.64562, "city": "Blyznyuky", "images": []}, {"id": 490446, "min_date": "2021-10-12T11:30:00Z", "max_date": "2021-10-12T11:30:00Z", "count_points": 1, "latitude": 49.13964, "longitude": 36.53568, "city": "Krasnopavlivka", "images": []}, {"id": 490447, "min_date": "2021-10-12T11:30:00Z", "max_date": "2021-10-12T11:30:00Z", "count_points": 4, "latitude": 49.4321, "longitude": 37.38303, "city": "Borova", "images": []}, {"id": 490448, "min_date": "2021-10-12T11:30:00Z", "max_date": "2021-10-12T11:30:00Z", "count_points": 2, "latitude": 49.66101, "longitude": 35.57573, "city": "Valky", "images": []}, {"id": 490449, "min_date": "2021-10-12T11:32:00Z", "max_date": "2021-10-12T10:43:00Z", "count_points": 2, "latitude": 51.64113, "longitude": 31.13909, "city": "Ripky", "images": []}, {"id": 490450, "min_date": "2021-10-12T23:44:00Z", "max_date": "2021-10-13T00:35:00Z", "count_points": 3, "latitude": 49.61941, "longitude": 37.00463, "city": "Shevchenkove", "images": []}, {"id": 490451, "min_date": "2021-10-12T23:44:00Z", "max_date": "2021-10-13T00:35:00Z", "count_points": 11, "latitude": 49.49239, "longitude": 38.5136, "city": "Bilokurakyne", "images": []}, {"id": 490452, "min_date": "2021-10-12T23:44:00Z", "max_date": "2021-10-12T22:54:00Z", "count_points": 4, "latitude": 49.85587, "longitude": 38.5911, "city": "Lozno-Oleksandrivka", "images": []}, {"id": 490453, "min_date": "2021-10-12T23:44:00Z", "max_date": "2021-10-13T00:35:00Z", "count_points": 2, "latitude": 49.21809, "longitude": 37.75611, "city": "Borova", "images": []}, {"id": 490454, "min_date": "2021-10-12T23:44:00Z", "max_date": "2021-10-12T23:44:00Z", "count_points": 1, "latitude": 49.41214, "longitude": 36.28986, "city": "Pervomays\u2019kyy", "images": []}, {"id": 490455, "min_date": "2021-10-12T23:44:00Z", "max_date": "2021-10-12T23:44:00Z", "count_points": 1, "latitude": 49.31694, "longitude": 35.45615, "city": "Krasnohrad", "images": []}, {"id": 490456, "min_date": "2021-10-12T23:44:00Z", "max_date": "2021-10-13T00:35:00Z", "count_points": 4, "latitude": 48.9297, "longitude": 35.99979, "city": "Yur\u201dyivka", "images": []}, {"id": 490457, "min_date": "2021-10-12T23:44:00Z", "max_date": "2021-10-12T23:44:00Z", "count_points": 1, "latitude": 48.9566, "longitude": 35.79328, "city": "Sakhnovshchyna", "images": []}, {"id": 490458, "min_date": "2021-10-12T23:44:00Z", "max_date": "2021-10-16T10:13:00Z", "count_points": 2, "latitude": 48.61288, "longitude": 37.56665, "city": "Druzhkivka", "images": []}, {"id": 490459, "min_date": "2021-10-12T23:44:00Z", "max_date": "2021-10-11T10:58:00Z", "count_points": 2, "latitude": 46.89766, "longitude": 33.50521, "city": "Kakhovka", "images": []}, {"id": 490460, "min_date": "2021-10-13T01:24:00Z", "max_date": "2021-10-13T00:35:00Z", "count_points": 2, "latitude": 50.12689, "longitude": 23.82841, "city": "Hlyns'k", "images": []}, {"id": 490461, "min_date": "2021-10-13T11:10:00Z", "max_date": "2021-10-13T11:10:00Z", "count_points": 2, "latitude": 48.35874, "longitude": 37.55662, "city": "Kostyantynivka", "images": []}, {"id": 490462, "min_date": "2021-10-13T11:13:00Z", "max_date": "2021-10-13T11:13:00Z", "count_points": 1, "latitude": 48.45878, "longitude": 27.85043, "city": "Mohyliv-Podilskyi", "images": []}, {"id": 490463, "min_date": "2021-10-13T11:13:00Z", "max_date": "2021-10-13T11:13:00Z", "count_points": 1, "latitude": 49.2698, "longitude": 39.52015, "city": "Bilovods'k", "images": []}, {"id": 490464, "min_date": "2021-10-13T11:13:00Z", "max_date": "2021-10-17T09:56:00Z", "count_points": 2, "latitude": 50.26812, "longitude": 37.1863, "city": "Prykolotne", "images": []}, {"id": 490465, "min_date": "2021-10-13T23:24:00Z", "max_date": "2021-10-17T10:45:00Z", "count_points": 8, "latitude": 50.22747, "longitude": 37.17582, "city": "Prykolotne", "images": []}, {"id": 490466, "min_date": "2021-10-14T10:51:00Z", "max_date": "2021-10-14T10:51:00Z", "count_points": 1, "latitude": 51.1723, "longitude": 30.78414, "city": "Oster", "images": []}, {"id": 490467, "min_date": "2021-10-14T10:51:00Z", "max_date": "2021-10-14T10:51:00Z", "count_points": 1, "latitude": 49.89098, "longitude": 25.53137, "city": "Pochaiv", "images": []}, {"id": 490468, "min_date": "2021-10-14T10:51:00Z", "max_date": "2021-10-14T10:51:00Z", "count_points": 4, "latitude": 46.69511, "longitude": 32.63466, "city": "Kherson", "images": []}, {"id": 490469, "min_date": "2021-10-14T10:51:00Z", "max_date": "2021-10-16T11:04:00Z", "count_points": 7, "latitude": 46.18288, "longitude": 33.15738, "city": "Kalanchak", "images": [{"image_url": "490469.jpg", "timestamp": "2021-10-16T11:04:00Z"}]}, {"id": 490470, "min_date": "2021-10-14T10:51:00Z", "max_date": "2021-10-14T11:42:00Z", "count_points": 2, "latitude": 46.0872, "longitude": 33.45847, "city": "Suvorovo", "images": []}, {"id": 490471, "min_date": "2021-10-15T00:45:00Z", "max_date": "2021-10-15T00:45:00Z", "count_points": 1, "latitude": 51.38824, "longitude": 24.83104, "city": "Nuyno", "images": []}, {"id": 490473, "min_date": "2021-10-15T10:32:00Z", "max_date": "2021-10-15T10:32:00Z", "count_points": 1, "latitude": 46.54849, "longitude": 34.56231, "city": "Ivanivka", "images": []}, {"id": 490474, "min_date": "2021-10-15T10:32:00Z", "max_date": "2021-10-15T10:32:00Z", "count_points": 1, "latitude": 47.04782, "longitude": 37.00581, "city": "Urzuf", "images": []}, {"id": 490475, "min_date": "2021-10-15T10:32:00Z", "max_date": "2021-10-15T10:32:00Z", "count_points": 1, "latitude": 47.15966, "longitude": 35.29681, "city": "Novobohdanivka", "images": []}, {"id": 490476, "min_date": "2021-10-15T10:34:00Z", "max_date": "2021-10-15T10:34:00Z", "count_points": 1, "latitude": 50.00776, "longitude": 27.86828, "city": "Liubar", "images": []}, {"id": 490477, "min_date": "2021-10-15T10:34:00Z", "max_date": "2021-10-15T09:43:00Z", "count_points": 2, "latitude": 51.29062, "longitude": 32.18261, "city": "Mena", "images": []}, {"id": 490478, "min_date": "2021-10-15T10:34:00Z", "max_date": "2021-10-15T10:34:00Z", "count_points": 1, "latitude": 48.18679, "longitude": 33.78755, "city": "Sofiyivka", "images": []}, {"id": 490479, "min_date": "2021-10-15T10:34:00Z", "max_date": "2021-10-15T10:34:00Z", "count_points": 2, "latitude": 47.59624, "longitude": 29.26467, "city": "Okny", "images": []}, {"id": 490480, "min_date": "2021-10-15T10:34:00Z", "max_date": "2021-10-15T10:34:00Z", "count_points": 1, "latitude": 49.07087, "longitude": 34.4948, "city": "Tsarychanka", "images": []}, {"id": 490481, "min_date": "2021-10-15T10:34:00Z", "max_date": "2021-10-15T10:34:00Z", "count_points": 1, "latitude": 48.38591, "longitude": 29.63173, "city": "Viytivka", "images": []}, {"id": 490482, "min_date": "2021-10-15T10:34:00Z", "max_date": "2021-10-15T10:34:00Z", "count_points": 1, "latitude": 48.45027, "longitude": 29.68803, "city": "Viytivka", "images": []}, {"id": 490483, "min_date": "2021-10-15T10:34:00Z", "max_date": "2021-10-15T11:23:00Z", "count_points": 2, "latitude": 48.51685, "longitude": 29.31368, "city": "Trostyanets\u2019", "images": []}, {"id": 490484, "min_date": "2021-10-15T10:34:00Z", "max_date": "2021-10-15T11:23:00Z", "count_points": 2, "latitude": 48.45213, "longitude": 28.92698, "city": "Kryzhopil\u2019", "images": []}, {"id": 490485, "min_date": "2021-10-15T10:34:00Z", "max_date": "2021-10-15T10:34:00Z", "count_points": 1, "latitude": 48.60033, "longitude": 28.03498, "city": "Chernivtsi", "images": []}, {"id": 490486, "min_date": "2021-10-15T10:34:00Z", "max_date": "2021-10-15T10:34:00Z", "count_points": 1, "latitude": 48.92984, "longitude": 29.72849, "city": "Monastyryshche", "images": []}, {"id": 490487, "min_date": "2021-10-15T10:34:00Z", "max_date": "2021-10-15T10:34:00Z", "count_points": 2, "latitude": 49.90684, "longitude": 29.47878, "city": "Popil'nya", "images": []}, {"id": 490488, "min_date": "2021-10-15T10:34:00Z", "max_date": "2021-10-15T10:34:00Z", "count_points": 1, "latitude": 49.97137, "longitude": 28.37816, "city": "Hryshkivtsi", "images": []}, {"id": 490490, "min_date": "2021-10-15T10:34:00Z", "max_date": "2021-10-15T09:43:00Z", "count_points": 3, "latitude": 48.08172, "longitude": 34.00753, "city": "Sofiyivka", "images": []}, {"id": 490491, "min_date": "2021-10-15T10:34:00Z", "max_date": "2021-10-15T10:34:00Z", "count_points": 1, "latitude": 48.37276, "longitude": 35.85745, "city": "Pavlohrad", "images": []}, {"id": 490492, "min_date": "2021-10-15T12:14:00Z", "max_date": "2021-10-15T12:14:00Z", "count_points": 2, "latitude": 48.32306, "longitude": 22.56549, "city": "Strabychovo", "images": []}, {"id": 490493, "min_date": "2021-10-15T22:46:00Z", "max_date": "2021-10-15T22:46:00Z", "count_points": 1, "latitude": 49.73621, "longitude": 36.86225, "city": "Malynivka", "images": []}, {"id": 490494, "min_date": "2021-10-16T00:28:00Z", "max_date": "2021-10-16T00:28:00Z", "count_points": 1, "latitude": 50.38364, "longitude": 33.8369, "city": "Hadyach", "images": []}, {"id": 490495, "min_date": "2021-10-16T00:28:00Z", "max_date": "2021-10-15T23:37:00Z", "count_points": 4, "latitude": 51.50807, "longitude": 30.83007, "city": "Slavutych", "images": []}, {"id": 490496, "min_date": "2021-10-16T10:13:00Z", "max_date": "2021-10-16T09:26:00Z", "count_points": 6, "latitude": 48.53424, "longitude": 38.37005, "city": "Popasna", "images": []}, {"id": 490497, "min_date": "2021-10-16T10:13:00Z", "max_date": "2021-10-16T10:13:00Z", "count_points": 1, "latitude": 48.63415, "longitude": 38.55882, "city": "Pervomays\u2019k", "images": []}, {"id": 490498, "min_date": "2021-10-16T10:13:00Z", "max_date": "2021-10-16T10:45:00Z", "count_points": 4, "latitude": 48.57747, "longitude": 36.81967, "city": "Oleksandrivka", "images": []}, {"id": 490499, "min_date": "2021-10-16T10:13:00Z", "max_date": "2021-10-16T10:13:00Z", "count_points": 2, "latitude": 49.04481, "longitude": 37.99975, "city": "Serebryanka", "images": []}, {"id": 490500, "min_date": "2021-10-16T10:13:00Z", "max_date": "2021-10-16T10:13:00Z", "count_points": 1, "latitude": 48.88801, "longitude": 36.79924, "city": "Oleksandrivka", "images": []}, {"id": 490501, "min_date": "2021-10-16T10:13:00Z", "max_date": "2021-10-16T10:13:00Z", "count_points": 2, "latitude": 49.08396, "longitude": 35.38859, "city": "Zachepylivka", "images": []}, {"id": 490502, "min_date": "2021-10-16T10:13:00Z", "max_date": "2021-10-16T10:13:00Z", "count_points": 1, "latitude": 46.59671, "longitude": 34.57414, "city": "Ivanivka", "images": []}, {"id": 490503, "min_date": "2021-10-16T10:13:00Z", "max_date": "2021-10-16T10:13:00Z", "count_points": 1, "latitude": 47.35316, "longitude": 37.68467, "city": "Sartana", "images": []}, {"id": 490504, "min_date": "2021-10-16T10:13:00Z", "max_date": "2021-10-16T10:13:00Z", "count_points": 2, "latitude": 47.35547, "longitude": 36.07519, "city": "Chernihivka", "images": []}, {"id": 490505, "min_date": "2021-10-16T10:13:00Z", "max_date": "2021-10-16T10:13:00Z", "count_points": 2, "latitude": 47.86728, "longitude": 39.10033, "city": "Dmytrivka", "images": []}, {"id": 490506, "min_date": "2021-10-16T10:13:00Z", "max_date": "2021-10-16T10:13:00Z", "count_points": 1, "latitude": 47.95272, "longitude": 39.23018, "city": "Roven\u2019ky", "images": []}, {"id": 490507, "min_date": "2021-10-16T10:13:00Z", "max_date": "2021-10-16T10:13:00Z", "count_points": 1, "latitude": 47.98714, "longitude": 38.11005, "city": "Khartsyz\u2019k", "images": []}, {"id": 490508, "min_date": "2021-10-16T10:13:00Z", "max_date": "2021-10-16T09:26:00Z", "count_points": 7, "latitude": 48.18277, "longitude": 37.61822, "city": "Avdiyivka", "images": []}, {"id": 490509, "min_date": "2021-10-16T10:13:00Z", "max_date": "2021-10-12T10:41:00Z", "count_points": 3, "latitude": 48.25674, "longitude": 38.02493, "city": "Horlivka", "images": []}, {"id": 490510, "min_date": "2021-10-16T10:13:00Z", "max_date": "2021-10-16T10:13:00Z", "count_points": 1, "latitude": 48.36792, "longitude": 37.68652, "city": "Shcherbynivka", "images": []}, {"id": 490511, "min_date": "2021-10-16T10:13:00Z", "max_date": "2021-10-16T09:26:00Z", "count_points": 2, "latitude": 48.2331, "longitude": 36.7172, "city": "Mezhova", "images": []}, {"id": 490512, "min_date": "2021-10-16T10:15:00Z", "max_date": "2021-10-16T11:06:00Z", "count_points": 2, "latitude": 52.17137, "longitude": 33.06843, "city": "Novhorod-Sivers\u2019kyy", "images": []}, {"id": 490513, "min_date": "2021-10-16T22:27:00Z", "max_date": "2021-10-16T23:20:00Z", "count_points": 3, "latitude": 49.75845, "longitude": 37.06834, "city": "Shevchenkove", "images": []}, {"id": 490514, "min_date": "2021-10-17T00:07:00Z", "max_date": "2021-10-17T00:07:00Z", "count_points": 1, "latitude": 51.19187, "longitude": 28.55871, "city": "Luhyny", "images": []}, {"id": 490515, "min_date": "2021-10-17T09:56:00Z", "max_date": "2021-10-17T09:56:00Z", "count_points": 1, "latitude": 51.87481, "longitude": 32.28548, "city": "Koryukivka", "images": []}, {"id": 490517, "min_date": "2021-10-17T09:56:00Z", "max_date": "2021-10-17T10:45:00Z", "count_points": 2, "latitude": 50.17691, "longitude": 35.03762, "city": "Krasnokuts\u2019k", "images": []}, {"id": 490518, "min_date": "2021-10-17T09:56:00Z", "max_date": "2021-10-17T10:45:00Z", "count_points": 4, "latitude": 49.36088, "longitude": 34.16223, "city": "Novi Sanzhary", "images": []}, {"id": 490519, "min_date": "2021-10-17T09:56:00Z", "max_date": "2021-10-17T09:56:00Z", "count_points": 1, "latitude": 49.78731, "longitude": 37.02857, "city": "Pechenihy", "images": []}, {"id": 490520, "min_date": "2021-10-17T09:56:00Z", "max_date": "2021-10-17T10:45:00Z", "count_points": 2, "latitude": 49.81957, "longitude": 39.34217, "city": "Markivka", "images": []}, {"id": 490521, "min_date": "2021-10-17T09:56:00Z", "max_date": "2021-10-17T09:56:00Z", "count_points": 1, "latitude": 49.35139, "longitude": 38.53638, "city": "Bilokurakyne", "images": []}, {"id": 490522, "min_date": "2021-10-17T09:56:00Z", "max_date": "2021-10-17T09:56:00Z", "count_points": 1, "latitude": 48.74474, "longitude": 36.22218, "city": "Lozova", "images": []}, {"id": 490523, "min_date": "2021-10-17T09:56:00Z", "max_date": "2021-10-17T09:56:00Z", "count_points": 1, "latitude": 47.89746, "longitude": 32.92791, "city": "Kazanka", "images": []}, {"id": 490524, "min_date": "2021-10-17T09:56:00Z", "max_date": "2021-10-17T10:45:00Z", "count_points": 3, "latitude": 48.0576, "longitude": 36.07991, "city": "Vasyl\u2019kivka", "images": []}, {"id": 490525, "min_date": "2021-10-17T09:56:00Z", "max_date": "2021-10-17T09:56:00Z", "count_points": 1, "latitude": 48.12638, "longitude": 37.28626, "city": "Selydove", "images": []}, {"id": 490526, "min_date": "2021-10-17T09:56:00Z", "max_date": "2021-10-16T08:54:00Z", "count_points": 4, "latitude": 48.54114, "longitude": 39.81725, "city": "Uralo-Kavkaz", "images": []}, {"id": 490527, "min_date": "2021-10-17T09:56:00Z", "max_date": "2021-10-17T09:56:00Z", "count_points": 2, "latitude": 48.17874, "longitude": 39.38617, "city": "Roven\u2019ky", "images": []}, {"id": 490528, "min_date": "2021-10-17T11:36:00Z", "max_date": "2021-10-17T11:36:00Z", "count_points": 1, "latitude": 47.16244, "longitude": 33.29544, "city": "Velyka Oleksandrivka", "images": []}, {"id": 490529, "min_date": "2021-10-17T11:36:00Z", "max_date": "2021-10-17T11:36:00Z", "count_points": 1, "latitude": 49.99213, "longitude": 34.29716, "city": "Zin\u2019kiv", "images": []}, {"id": 490530, "min_date": "2021-10-17T11:36:00Z", "max_date": "2021-10-17T11:36:00Z", "count_points": 1, "latitude": 49.66396, "longitude": 36.38235, "city": "Zmiyiv", "images": []}, {"id": 490531, "min_date": "2021-10-17T11:36:00Z", "max_date": "2021-10-17T10:45:00Z", "count_points": 6, "latitude": 49.34696, "longitude": 34.25003, "city": "Novi Sanzhary", "images": []}, {"id": 490532, "min_date": "2021-10-17T11:36:00Z", "max_date": "2021-10-17T11:30:00Z", "count_points": 3, "latitude": 48.50489, "longitude": 25.32147, "city": "Zabolotiv", "images": []}, {"id": 490533, "min_date": "2021-10-17T11:36:00Z", "max_date": "2021-10-17T11:36:00Z", "count_points": 1, "latitude": 48.4373, "longitude": 29.26226, "city": "Obodivka", "images": []}, {"id": 490534, "min_date": "2021-10-17T11:36:00Z", "max_date": "2021-10-17T11:36:00Z", "count_points": 2, "latitude": 47.65573, "longitude": 33.16366, "city": "Shyroke", "images": []}, {"id": 490535, "min_date": "2021-10-17T11:36:00Z", "max_date": "2021-10-17T11:36:00Z", "count_points": 3, "latitude": 47.20863, "longitude": 30.26119, "city": "Shyryayeve", "images": []}, {"id": 490536, "min_date": "2021-10-17T11:38:00Z", "max_date": "2021-10-17T11:38:00Z", "count_points": 2, "latitude": 50.71973, "longitude": 31.35018, "city": "Bobrovytsya", "images": []}, {"id": 490537, "min_date": "2021-10-17T23:50:00Z", "max_date": "2021-10-17T23:50:00Z", "count_points": 1, "latitude": 50.69465, "longitude": 33.37756, "city": "Romny", "images": []}, {"id": 490538, "min_date": "2021-10-17T23:50:00Z", "max_date": "2021-10-17T23:50:00Z", "count_points": 1, "latitude": 47.3935, "longitude": 33.57811, "city": "Vysokopillya", "images": []}, {"id": 490539, "min_date": "2021-10-17T23:50:00Z", "max_date": "2021-10-17T23:50:00Z", "count_points": 1, "latitude": 48.36559, "longitude": 29.85636, "city": "Hayvoron", "images": []}, {"id": 490540, "min_date": "2021-10-17T23:50:00Z", "max_date": "2021-10-17T23:50:00Z", "count_points": 1, "latitude": 46.53847, "longitude": 30.32026, "city": "Teplodar", "images": []}, {"id": 490541, "min_date": "2021-10-17T23:50:00Z", "max_date": "2021-10-17T23:50:00Z", "count_points": 1, "latitude": 49.64096, "longitude": 34.34809, "city": "Poltava", "images": []}, {"id": 490542, "min_date": "2021-10-11T08:37:00Z", "max_date": "2021-10-11T09:20:00Z", "count_points": 8, "latitude": 49.03084, "longitude": 35.20963, "city": "Zachepylivka", "images": [{"image_url": "490542.jpg", "timestamp": "2021-10-11T09:20:00Z"}]}, {"id": 490544, "min_date": "2021-10-11T08:37:00Z", "max_date": "2021-10-11T10:26:00Z", "count_points": 4, "latitude": 51.14168, "longitude": 34.09924, "city": "Vorozhba", "images": []}, {"id": 490545, "min_date": "2021-10-11T08:37:00Z", "max_date": "2021-10-11T08:37:00Z", "count_points": 1, "latitude": 49.77061, "longitude": 28.97936, "city": "Chornorudka", "images": []}, {"id": 490546, "min_date": "2021-10-11T08:37:00Z", "max_date": "2021-10-11T09:20:00Z", "count_points": 3, "latitude": 49.14716, "longitude": 35.93063, "city": "Sakhnovshchyna", "images": []}, {"id": 490547, "min_date": "2021-10-11T08:37:00Z", "max_date": "2021-10-11T08:37:00Z", "count_points": 1, "latitude": 51.21691, "longitude": 34.26587, "city": "Vorozhba", "images": []}, {"id": 490549, "min_date": "2021-10-11T08:37:00Z", "max_date": "2021-10-11T11:00:00Z", "count_points": 2, "latitude": 51.98349, "longitude": 32.75006, "city": "Kholmy", "images": []}, {"id": 490550, "min_date": "2021-10-11T08:37:00Z", "max_date": "2021-10-11T08:37:00Z", "count_points": 1, "latitude": 49.89874, "longitude": 33.30483, "city": "Romodan", "images": []}, {"id": 490551, "min_date": "2021-10-11T08:39:00Z", "max_date": "2021-10-11T08:39:00Z", "count_points": 2, "latitude": 45.47373, "longitude": 29.35896, "city": "Shevchenkove", "images": []}, {"id": 490552, "min_date": "2021-10-11T08:39:00Z", "max_date": "2021-10-11T08:39:00Z", "count_points": 2, "latitude": 46.40752, "longitude": 30.05618, "city": "Starokozache", "images": []}, {"id": 490553, "min_date": "2021-10-11T08:39:00Z", "max_date": "2021-10-11T08:39:00Z", "count_points": 1, "latitude": 46.29698, "longitude": 32.94459, "city": "Vynohradove", "images": []}, {"id": 490554, "min_date": "2021-10-11T08:39:00Z", "max_date": "2021-10-11T10:58:00Z", "count_points": 2, "latitude": 47.70723, "longitude": 30.94411, "city": "Domanivka", "images": []}, {"id": 490555, "min_date": "2021-10-11T08:39:00Z", "max_date": "2021-10-11T10:58:00Z", "count_points": 3, "latitude": 47.42589, "longitude": 30.89795, "city": "Mykolayivka", "images": []}, {"id": 490556, "min_date": "2021-10-11T08:39:00Z", "max_date": "2021-10-11T08:39:00Z", "count_points": 2, "latitude": 47.29643, "longitude": 31.36828, "city": "Veselynove", "images": []}, {"id": 490557, "min_date": "2021-10-11T08:39:00Z", "max_date": "2021-10-11T08:39:00Z", "count_points": 1, "latitude": 46.63021, "longitude": 31.33145, "city": "Rybakivka", "images": []}, {"id": 490558, "min_date": "2021-10-11T10:26:00Z", "max_date": "2021-10-11T10:26:00Z", "count_points": 1, "latitude": 49.38272, "longitude": 33.27007, "city": "Hlobyne", "images": []}, {"id": 490559, "min_date": "2021-10-11T10:26:00Z", "max_date": "2021-10-11T10:26:00Z", "count_points": 1, "latitude": 50.19784, "longitude": 37.20088, "city": "Prykolotne", "images": []}, {"id": 490560, "min_date": "2021-10-11T10:26:00Z", "max_date": "2021-10-11T10:26:00Z", "count_points": 2, "latitude": 48.13096, "longitude": 36.21319, "city": "Pokrovs\u2019ke", "images": []}, {"id": 490561, "min_date": "2021-10-11T10:26:00Z", "max_date": "2021-10-11T10:26:00Z", "count_points": 1, "latitude": 48.72371, "longitude": 34.07673, "city": "Lykhivka", "images": []}, {"id": 490562, "min_date": "2021-10-11T10:26:00Z", "max_date": "2021-10-11T10:26:00Z", "count_points": 1, "latitude": 47.31145, "longitude": 30.0412, "city": "Zatyshshya", "images": []}, {"id": 490564, "min_date": "2021-10-11T10:26:00Z", "max_date": "2021-10-11T10:58:00Z", "count_points": 6, "latitude": 47.45056, "longitude": 36.15353, "city": "Polohy", "images": []}, {"id": 490565, "min_date": "2021-10-11T10:26:00Z", "max_date": "2021-10-11T10:26:00Z", "count_points": 1, "latitude": 47.3357, "longitude": 35.80074, "city": "Tokmak", "images": []}, {"id": 490566, "min_date": "2021-10-12T11:08:00Z", "max_date": "2021-10-12T11:08:00Z", "count_points": 1, "latitude": 46.24657, "longitude": 29.47813, "city": "Borodino", "images": []}, {"id": 490567, "min_date": "2021-10-12T11:08:00Z", "max_date": "2021-10-12T10:41:00Z", "count_points": 4, "latitude": 48.23292, "longitude": 33.17547, "city": "Petrove", "images": []}, {"id": 490568, "min_date": "2021-10-12T11:08:00Z", "max_date": "2021-10-12T10:41:00Z", "count_points": 4, "latitude": 48.85341, "longitude": 37.23901, "city": "Barvinkove", "images": []}, {"id": 490569, "min_date": "2021-10-12T11:08:00Z", "max_date": "2021-10-12T10:41:00Z", "count_points": 2, "latitude": 48.25569, "longitude": 37.83975, "city": "Yasynuvata", "images": []}, {"id": 490570, "min_date": "2021-10-12T11:10:00Z", "max_date": "2021-10-12T11:10:00Z", "count_points": 1, "latitude": 51.68771, "longitude": 32.07318, "city": "Shchors", "images": []}, {"id": 490571, "min_date": "2021-10-13T08:24:00Z", "max_date": "2021-10-13T08:24:00Z", "count_points": 1, "latitude": 47.556, "longitude": 35.38084, "city": "Malokaterynivka", "images": []}, {"id": 490572, "min_date": "2021-10-13T08:24:00Z", "max_date": "2021-10-13T10:21:00Z", "count_points": 4, "latitude": 48.53615, "longitude": 38.2226, "city": "Luhans\u2019ke", "images": []}, {"id": 490573, "min_date": "2021-10-13T10:13:00Z", "max_date": "2021-10-13T10:21:00Z", "count_points": 2, "latitude": 48.97555, "longitude": 39.56401, "city": "Bilovods'k", "images": []}, {"id": 490574, "min_date": "2021-10-14T09:09:00Z", "max_date": "2021-10-14T09:09:00Z", "count_points": 1, "latitude": 48.31971, "longitude": 30.24357, "city": "Blahovishchens\u2019ke", "images": []}, {"id": 490575, "min_date": "2021-10-14T10:58:00Z", "max_date": "2021-10-14T10:58:00Z", "count_points": 1, "latitude": 48.6218, "longitude": 26.63533, "city": "Kamianets-Podilskyi", "images": []}, {"id": 490576, "min_date": "2021-10-14T10:58:00Z", "max_date": "2021-10-14T10:58:00Z", "count_points": 1, "latitude": 45.52769, "longitude": 34.43825, "city": "Voskhod", "images": []}, {"id": 490577, "min_date": "2021-10-15T11:40:00Z", "max_date": "2021-10-15T11:40:00Z", "count_points": 3, "latitude": 49.15308, "longitude": 29.04392, "city": "Lypovets", "images": []}, {"id": 490578, "min_date": "2021-10-15T11:40:00Z", "max_date": "2021-10-15T11:40:00Z", "count_points": 1, "latitude": 48.31328, "longitude": 22.69094, "city": "Velyki Berehy", "images": []}, {"id": 490579, "min_date": "2021-10-15T11:40:00Z", "max_date": "2021-10-15T11:40:00Z", "count_points": 1, "latitude": 48.64484, "longitude": 29.54691, "city": "Teplyk", "images": []}, {"id": 490580, "min_date": "2021-10-15T11:40:00Z", "max_date": "2021-10-15T11:23:00Z", "count_points": 2, "latitude": 48.76202, "longitude": 27.39144, "city": "Murovani Kurylivtsi", "images": []}, {"id": 490581, "min_date": "2021-10-15T11:42:00Z", "max_date": "2021-10-15T11:42:00Z", "count_points": 1, "latitude": 50.09761, "longitude": 24.18474, "city": "Kulykiv", "images": []}, {"id": 490582, "min_date": "2021-10-15T19:23:00Z", "max_date": "2021-10-15T11:25:00Z", "count_points": 2, "latitude": 51.21865, "longitude": 28.86979, "city": "Ovruch", "images": []}, {"id": 490583, "min_date": "2021-10-16T08:54:00Z", "max_date": "2021-10-16T11:06:00Z", "count_points": 2, "latitude": 50.67665, "longitude": 29.36671, "city": "Bila Krynytsya", "images": []}, {"id": 490584, "min_date": "2021-10-16T10:45:00Z", "max_date": "2021-10-16T10:45:00Z", "count_points": 1, "latitude": 49.64904, "longitude": 28.47441, "city": "Kalynivka", "images": []}, {"id": 490585, "min_date": "2021-10-16T10:45:00Z", "max_date": "2021-10-12T10:41:00Z", "count_points": 2, "latitude": 47.87502, "longitude": 36.54989, "city": "Velyka Novosilka", "images": []}, {"id": 490586, "min_date": "2021-10-11T09:17:00Z", "max_date": "2021-10-11T09:17:00Z", "count_points": 1, "latitude": 47.01868, "longitude": 34.17028, "city": "Nyzhni Sirohozy", "images": []}, {"id": 490587, "min_date": "2021-10-11T09:20:00Z", "max_date": "2021-10-11T09:20:00Z", "count_points": 1, "latitude": 51.80173, "longitude": 33.91533, "city": "Hlukhiv", "images": []}, {"id": 490588, "min_date": "2021-10-11T09:20:00Z", "max_date": "2021-10-11T09:20:00Z", "count_points": 1, "latitude": 50.22653, "longitude": 35.08769, "city": "Kyrykivka", "images": []}, {"id": 490589, "min_date": "2021-10-11T09:20:00Z", "max_date": "2021-10-11T09:20:00Z", "count_points": 1, "latitude": 48.95583, "longitude": 32.52672, "city": "Chyhyryn", "images": []}, {"id": 490590, "min_date": "2021-10-11T09:20:00Z", "max_date": "2021-10-11T11:00:00Z", "count_points": 2, "latitude": 49.62202, "longitude": 35.78366, "city": "Nova Vodolaha", "images": []}, {"id": 490591, "min_date": "2021-10-11T09:20:00Z", "max_date": "2021-10-11T09:20:00Z", "count_points": 1, "latitude": 49.89618, "longitude": 37.47369, "city": "Velykyy Burluk", "images": []}, {"id": 490592, "min_date": "2021-10-11T10:58:00Z", "max_date": "2021-10-11T10:58:00Z", "count_points": 1, "latitude": 45.67571, "longitude": 29.5192, "city": "Tatarbunary", "images": []}, {"id": 490593, "min_date": "2021-10-11T10:58:00Z", "max_date": "2021-10-11T10:58:00Z", "count_points": 1, "latitude": 45.84829, "longitude": 29.35022, "city": "Artsyz", "images": []}, {"id": 490595, "min_date": "2021-10-11T10:58:00Z", "max_date": "2021-10-11T10:58:00Z", "count_points": 1, "latitude": 48.23877, "longitude": 34.29668, "city": "Krynychky", "images": []}, {"id": 490596, "min_date": "2021-10-11T10:58:00Z", "max_date": "2021-10-11T10:58:00Z", "count_points": 1, "latitude": 47.92076, "longitude": 31.38435, "city": "Arbuzynka", "images": []}, {"id": 490597, "min_date": "2021-10-11T10:58:00Z", "max_date": "2021-10-11T10:58:00Z", "count_points": 1, "latitude": 47.49677, "longitude": 30.62915, "city": "Mykolayivka", "images": []}, {"id": 490598, "min_date": "2021-10-11T10:58:00Z", "max_date": "2021-10-11T10:58:00Z", "count_points": 1, "latitude": 48.07207, "longitude": 37.68196, "city": "Avdiyivka", "images": []}, {"id": 490599, "min_date": "2021-10-11T10:58:00Z", "max_date": "2021-10-11T10:58:00Z", "count_points": 2, "latitude": 47.94875, "longitude": 35.99854, "city": "Novomykolayivka", "images": []}, {"id": 490600, "min_date": "2021-10-11T10:58:00Z", "max_date": "2021-10-11T10:58:00Z", "count_points": 1, "latitude": 47.90525, "longitude": 36.0559, "city": "Ternuvate", "images": []}, {"id": 490601, "min_date": "2021-10-11T10:58:00Z", "max_date": "2021-10-11T10:58:00Z", "count_points": 1, "latitude": 47.52975, "longitude": 35.42951, "city": "Vasylivka", "images": []}, {"id": 490602, "min_date": "2021-10-11T10:58:00Z", "max_date": "2021-10-11T10:58:00Z", "count_points": 2, "latitude": 47.47843, "longitude": 35.38138, "city": "Vasylivka", "images": []}, {"id": 490603, "min_date": "2021-10-11T10:58:00Z", "max_date": "2021-10-11T10:58:00Z", "count_points": 1, "latitude": 47.15559, "longitude": 35.11132, "city": "Tymoshivka", "images": []}, {"id": 490604, "min_date": "2021-10-11T10:58:00Z", "max_date": "2021-10-11T10:58:00Z", "count_points": 1, "latitude": 47.16153, "longitude": 35.55693, "city": "Tokmak", "images": []}, {"id": 490605, "min_date": "2021-10-11T10:58:00Z", "max_date": "2021-10-11T10:58:00Z", "count_points": 1, "latitude": 46.60903, "longitude": 30.19436, "city": "Bilyayivka", "images": []}, {"id": 490606, "min_date": "2021-10-11T10:58:00Z", "max_date": "2021-10-11T10:58:00Z", "count_points": 1, "latitude": 46.60307, "longitude": 30.49724, "city": "Usatove", "images": []}, {"id": 490607, "min_date": "2021-10-11T10:58:00Z", "max_date": "2021-10-11T10:58:00Z", "count_points": 1, "latitude": 46.82298, "longitude": 33.37651, "city": "Beryslav", "images": []}, {"id": 490608, "min_date": "2021-10-11T10:58:00Z", "max_date": "2021-10-11T10:58:00Z", "count_points": 1, "latitude": 46.95814, "longitude": 37.24025, "city": "Yalta", "images": []}, {"id": 490609, "min_date": "2021-10-11T10:58:00Z", "max_date": "2021-10-11T10:58:00Z", "count_points": 1, "latitude": 46.99987, "longitude": 36.82888, "city": "Osypenko", "images": []}, {"id": 490610, "min_date": "2021-10-11T11:00:00Z", "max_date": "2021-10-11T11:00:00Z", "count_points": 1, "latitude": 48.88243, "longitude": 27.63854, "city": "Kopayhorod", "images": []}, {"id": 490611, "min_date": "2021-10-11T11:00:00Z", "max_date": "2021-10-11T11:00:00Z", "count_points": 1, "latitude": 48.44407, "longitude": 25.25708, "city": "Zabolotiv", "images": []}, {"id": 490612, "min_date": "2021-10-11T11:00:00Z", "max_date": "2021-10-11T11:00:00Z", "count_points": 2, "latitude": 49.6449, "longitude": 35.82628, "city": "Nova Vodolaha", "images": []}, {"id": 490613, "min_date": "2021-10-11T11:00:00Z", "max_date": "2021-10-11T11:00:00Z", "count_points": 2, "latitude": 49.6445, "longitude": 36.66288, "city": "Komsomol\u2019s\u2019ke", "images": []}, {"id": 490614, "min_date": "2021-10-11T11:00:00Z", "max_date": "2021-10-11T11:00:00Z", "count_points": 1, "latitude": 49.39952, "longitude": 34.08614, "city": "Reshetylivka", "images": []}, {"id": 490615, "min_date": "2021-10-11T11:00:00Z", "max_date": "2021-10-11T11:00:00Z", "count_points": 1, "latitude": 48.75814, "longitude": 28.69445, "city": "Tulchyn", "images": []}, {"id": 490616, "min_date": "2021-10-11T11:00:00Z", "max_date": "2021-10-11T11:00:00Z", "count_points": 1, "latitude": 48.95443, "longitude": 30.26141, "city": "Mankivka", "images": []}, {"id": 490617, "min_date": "2021-10-11T11:00:00Z", "max_date": "2021-10-11T11:00:00Z", "count_points": 1, "latitude": 49.07452, "longitude": 33.97278, "city": "Lutovynivka", "images": []}, {"id": 490618, "min_date": "2021-10-11T11:00:00Z", "max_date": "2021-10-11T11:00:00Z", "count_points": 1, "latitude": 48.71743, "longitude": 31.21888, "city": "Lypnyazhka", "images": []}, {"id": 490619, "min_date": "2021-10-11T11:00:00Z", "max_date": "2021-10-11T11:00:00Z", "count_points": 1, "latitude": 48.45609, "longitude": 29.72377, "city": "Viytivka", "images": []}, {"id": 490620, "min_date": "2021-10-11T11:00:00Z", "max_date": "2021-10-11T11:00:00Z", "count_points": 1, "latitude": 49.66403, "longitude": 28.14717, "city": "Ulaniv", "images": []}, {"id": 490622, "min_date": "2021-10-11T11:00:00Z", "max_date": "2021-10-11T11:00:00Z", "count_points": 1, "latitude": 49.74926, "longitude": 29.48887, "city": "Skvyra", "images": []}, {"id": 490623, "min_date": "2021-10-11T11:00:00Z", "max_date": "2021-10-11T11:00:00Z", "count_points": 1, "latitude": 49.40327, "longitude": 27.30983, "city": "Medzhybizh", "images": []}, {"id": 490625, "min_date": "2021-10-11T11:00:00Z", "max_date": "2021-10-11T11:00:00Z", "count_points": 1, "latitude": 49.79147, "longitude": 35.24911, "city": "Kolomak", "images": []}, {"id": 490626, "min_date": "2021-10-11T11:00:00Z", "max_date": "2021-10-11T11:00:00Z", "count_points": 1, "latitude": 51.74601, "longitude": 24.81452, "city": "Rakiv Lis", "images": []}, {"id": 490627, "min_date": "2021-10-11T11:00:00Z", "max_date": "2021-10-11T11:00:00Z", "count_points": 1, "latitude": 51.82292, "longitude": 31.46716, "city": "Horodnya", "images": []}, {"id": 490628, "min_date": "2021-10-11T11:00:00Z", "max_date": "2021-10-11T11:00:00Z", "count_points": 1, "latitude": 51.96036, "longitude": 32.96841, "city": "Novhorod-Sivers\u2019kyy", "images": []}, {"id": 490629, "min_date": "2021-10-11T11:00:00Z", "max_date": "2021-10-11T11:00:00Z", "count_points": 1, "latitude": 51.10807, "longitude": 32.47605, "city": "Borzna", "images": []}, {"id": 490630, "min_date": "2021-10-11T11:00:00Z", "max_date": "2021-10-11T11:00:00Z", "count_points": 1, "latitude": 50.62847, "longitude": 28.35291, "city": "Khoroshiv", "images": []}, {"id": 490631, "min_date": "2021-10-11T11:00:00Z", "max_date": "2021-10-11T11:00:00Z", "count_points": 1, "latitude": 51.18543, "longitude": 34.26926, "city": "Vorozhba", "images": []}, {"id": 490632, "min_date": "2021-10-11T11:00:00Z", "max_date": "2021-10-11T11:00:00Z", "count_points": 1, "latitude": 50.16722, "longitude": 26.31517, "city": "Lyakhovtsy", "images": []}, {"id": 490633, "min_date": "2021-10-11T11:00:00Z", "max_date": "2021-10-11T11:00:00Z", "count_points": 1, "latitude": 50.9303, "longitude": 33.32235, "city": "Talalayivka", "images": []}, {"id": 490634, "min_date": "2021-10-11T11:00:00Z", "max_date": "2021-10-11T11:00:00Z", "count_points": 1, "latitude": 48.64268, "longitude": 32.04655, "city": "Kropyvnytskyi", "images": []}, {"id": 490635, "min_date": "2021-10-11T11:00:00Z", "max_date": "2021-10-11T11:00:00Z", "count_points": 1, "latitude": 48.63237, "longitude": 32.81761, "city": "Pantayivka", "images": []}, {"id": 490636, "min_date": "2021-10-11T11:00:00Z", "max_date": "2021-10-11T11:00:00Z", "count_points": 3, "latitude": 48.17773, "longitude": 31.22338, "city": "Lysa Hora", "images": []}, {"id": 490637, "min_date": "2021-10-11T11:00:00Z", "max_date": "2021-10-11T11:00:00Z", "count_points": 1, "latitude": 49.23993, "longitude": 28.039, "city": "Lityn", "images": []}, {"id": 490639, "min_date": "2021-10-11T11:00:00Z", "max_date": "2021-10-11T11:00:00Z", "count_points": 3, "latitude": 49.83535, "longitude": 33.55188, "city": "Myrhorod", "images": []}, {"id": 490640, "min_date": "2021-10-11T11:00:00Z", "max_date": "2021-10-11T11:00:00Z", "count_points": 1, "latitude": 49.31168, "longitude": 29.21671, "city": "Lypovets", "images": []}, {"id": 490641, "min_date": "2021-10-11T11:00:00Z", "max_date": "2021-10-11T11:00:00Z", "count_points": 1, "latitude": 49.74342, "longitude": 33.56161, "city": "Velyka Bahachka", "images": []}, {"id": 490642, "min_date": "2021-10-11T23:12:00Z", "max_date": "2021-10-11T23:12:00Z", "count_points": 1, "latitude": 50.64325, "longitude": 33.46182, "city": "Romny", "images": []}, {"id": 490643, "min_date": "2021-10-11T23:12:00Z", "max_date": "2021-10-11T23:12:00Z", "count_points": 8, "latitude": 49.54617, "longitude": 38.07559, "city": "Nyzhnya Duvanka", "images": []}, {"id": 490644, "min_date": "2021-10-11T23:14:00Z", "max_date": "2021-10-11T23:14:00Z", "count_points": 1, "latitude": 48.61803, "longitude": 37.08998, "city": "Novodonets\u2019ke", "images": []}, {"id": 490645, "min_date": "2021-10-12T09:00:00Z", "max_date": "2021-10-12T09:00:00Z", "count_points": 2, "latitude": 48.14225, "longitude": 36.15896, "city": "Vasyl\u2019kivka", "images": []}, {"id": 490646, "min_date": "2021-10-12T09:00:00Z", "max_date": "2021-10-12T09:00:00Z", "count_points": 1, "latitude": 46.87897, "longitude": 36.99569, "city": "Urzuf", "images": []}, {"id": 490647, "min_date": "2021-10-12T09:00:00Z", "max_date": "2021-10-12T10:41:00Z", "count_points": 2, "latitude": 49.37596, "longitude": 36.27837, "city": "Pervomays\u2019kyy", "images": []}, {"id": 490648, "min_date": "2021-10-12T09:00:00Z", "max_date": "2021-10-12T09:00:00Z", "count_points": 1, "latitude": 48.93499, "longitude": 35.87677, "city": "Sakhnovshchyna", "images": []}, {"id": 490649, "min_date": "2021-10-12T10:41:00Z", "max_date": "2021-10-12T10:41:00Z", "count_points": 1, "latitude": 46.15674, "longitude": 30.29948, "city": "Bilhorod-Dnistrovskyi", "images": []}, {"id": 490650, "min_date": "2021-10-12T10:41:00Z", "max_date": "2021-10-12T10:41:00Z", "count_points": 2, "latitude": 46.03218, "longitude": 29.08563, "city": "Dmytrivka", "images": []}, {"id": 490651, "min_date": "2021-10-12T10:41:00Z", "max_date": "2021-10-12T10:41:00Z", "count_points": 1, "latitude": 47.49668, "longitude": 36.88336, "city": "Rozivka", "images": []}, {"id": 490652, "min_date": "2021-10-12T10:41:00Z", "max_date": "2021-10-12T10:41:00Z", "count_points": 1, "latitude": 47.43498, "longitude": 33.8537, "city": "Novovorontsovka", "images": []}, {"id": 490653, "min_date": "2021-10-12T10:41:00Z", "max_date": "2021-10-12T10:41:00Z", "count_points": 2, "latitude": 47.6931, "longitude": 35.51297, "city": "Komyshuvakha", "images": []}, {"id": 490654, "min_date": "2021-10-12T10:41:00Z", "max_date": "2021-10-12T10:41:00Z", "count_points": 1, "latitude": 47.48806, "longitude": 32.41198, "city": "Bashtanka", "images": []}, {"id": 490655, "min_date": "2021-10-12T10:41:00Z", "max_date": "2021-10-12T10:41:00Z", "count_points": 1, "latitude": 47.93715, "longitude": 34.11388, "city": "Sholokhove", "images": []}, {"id": 490656, "min_date": "2021-10-12T10:41:00Z", "max_date": "2021-10-12T10:41:00Z", "count_points": 1, "latitude": 48.00415, "longitude": 33.77205, "city": "Sofiyivka", "images": []}, {"id": 490657, "min_date": "2021-10-12T10:41:00Z", "max_date": "2021-10-12T10:41:00Z", "count_points": 1, "latitude": 48.37117, "longitude": 36.355, "city": "Petropavlivka", "images": []}, {"id": 490658, "min_date": "2021-10-12T10:41:00Z", "max_date": "2021-10-12T10:41:00Z", "count_points": 2, "latitude": 48.06883, "longitude": 32.89857, "city": "Dolyns'ka", "images": []}, {"id": 490659, "min_date": "2021-10-12T10:41:00Z", "max_date": "2021-10-12T10:41:00Z", "count_points": 1, "latitude": 48.6912, "longitude": 37.51786, "city": "Krasnotorka", "images": []}, {"id": 490660, "min_date": "2021-10-12T10:41:00Z", "max_date": "2021-10-12T10:41:00Z", "count_points": 2, "latitude": 48.75344, "longitude": 37.09196, "city": "Novodonets\u2019ke", "images": []}, {"id": 490661, "min_date": "2021-10-12T10:41:00Z", "max_date": "2021-10-12T10:41:00Z", "count_points": 1, "latitude": 48.89481, "longitude": 37.41204, "city": "Sloviansk", "images": []}, {"id": 490662, "min_date": "2021-10-12T10:41:00Z", "max_date": "2021-10-12T10:41:00Z", "count_points": 2, "latitude": 48.80687, "longitude": 36.07719, "city": "Yur\u201dyivka", "images": []}, {"id": 490663, "min_date": "2021-10-12T10:41:00Z", "max_date": "2021-10-12T10:41:00Z", "count_points": 1, "latitude": 48.67886, "longitude": 34.92271, "city": "Spas\u2019ke", "images": []}, {"id": 490665, "min_date": "2021-10-12T10:41:00Z", "max_date": "2021-10-12T10:41:00Z", "count_points": 2, "latitude": 49.12792, "longitude": 37.01007, "city": "Petrivs\u2019ke", "images": []}, {"id": 490666, "min_date": "2021-10-12T10:41:00Z", "max_date": "2021-10-12T10:41:00Z", "count_points": 1, "latitude": 49.38543, "longitude": 38.44572, "city": "Svatove", "images": []}, {"id": 490667, "min_date": "2021-10-12T10:41:00Z", "max_date": "2021-10-12T10:41:00Z", "count_points": 1, "latitude": 49.29429, "longitude": 37.28375, "city": "Izyum", "images": []}, {"id": 490668, "min_date": "2021-10-12T10:41:00Z", "max_date": "2021-10-12T10:41:00Z", "count_points": 1, "latitude": 49.0757, "longitude": 34.72694, "city": "Hupalivka", "images": []}, {"id": 490669, "min_date": "2021-10-12T10:41:00Z", "max_date": "2021-10-12T10:41:00Z", "count_points": 1, "latitude": 49.13841, "longitude": 35.01449, "city": "Zachepylivka", "images": []}, {"id": 490670, "min_date": "2021-10-12T10:41:00Z", "max_date": "2021-10-12T10:41:00Z", "count_points": 1, "latitude": 49.19353, "longitude": 35.36361, "city": "Zachepylivka", "images": []}, {"id": 490671, "min_date": "2021-10-12T10:41:00Z", "max_date": "2021-10-12T10:41:00Z", "count_points": 4, "latitude": 49.18067, "longitude": 35.08071, "city": "Zachepylivka", "images": []}, {"id": 490672, "min_date": "2021-10-12T10:41:00Z", "max_date": "2021-10-12T10:41:00Z", "count_points": 1, "latitude": 49.63901, "longitude": 33.18975, "city": "Semenivka", "images": []}, {"id": 490673, "min_date": "2021-10-12T10:43:00Z", "max_date": "2021-10-12T10:43:00Z", "count_points": 1, "latitude": 51.41647, "longitude": 32.06376, "city": "Mena", "images": []}, {"id": 490674, "min_date": "2021-10-12T22:54:00Z", "max_date": "2021-10-12T22:54:00Z", "count_points": 1, "latitude": 49.32241, "longitude": 35.02307, "city": "Karlivka", "images": []}, {"id": 490675, "min_date": "2021-10-13T00:35:00Z", "max_date": "2021-10-13T00:35:00Z", "count_points": 2, "latitude": 49.04534, "longitude": 36.11059, "city": "Panyutyne", "images": []}, {"id": 490676, "min_date": "2021-10-13T00:35:00Z", "max_date": "2021-10-13T00:35:00Z", "count_points": 2, "latitude": 48.29144, "longitude": 34.64442, "city": "Surs\u2019ko-Mykhaylivka", "images": []}, {"id": 490677, "min_date": "2021-10-13T10:21:00Z", "max_date": "2021-10-13T10:21:00Z", "count_points": 1, "latitude": 48.89695, "longitude": 35.11453, "city": "Hubynykha", "images": []}, {"id": 490678, "min_date": "2021-10-13T10:21:00Z", "max_date": "2021-10-13T10:21:00Z", "count_points": 1, "latitude": 48.7412, "longitude": 38.15859, "city": "Soledar", "images": []}, {"id": 490679, "min_date": "2021-10-14T10:02:00Z", "max_date": "2021-10-14T11:45:00Z", "count_points": 3, "latitude": 46.59771, "longitude": 34.43256, "city": "Ivanivka", "images": []}, {"id": 490680, "min_date": "2021-10-14T10:02:00Z", "max_date": "2021-10-14T10:02:00Z", "count_points": 1, "latitude": 46.30495, "longitude": 34.17756, "city": "Novotroyits\u2019ke", "images": []}, {"id": 490681, "min_date": "2021-10-14T10:02:00Z", "max_date": "2021-10-14T10:02:00Z", "count_points": 1, "latitude": 45.52213, "longitude": 34.35381, "city": "Voskhod", "images": []}, {"id": 490682, "min_date": "2021-10-14T10:04:00Z", "max_date": "2021-10-14T10:04:00Z", "count_points": 1, "latitude": 49.40109, "longitude": 28.52895, "city": "Kalynivka", "images": []}, {"id": 490683, "min_date": "2021-10-14T11:45:00Z", "max_date": "2021-10-14T11:45:00Z", "count_points": 4, "latitude": 46.70823, "longitude": 33.27372, "city": "Dnipryany", "images": []}, {"id": 490684, "min_date": "2021-10-14T11:45:00Z", "max_date": "2021-10-14T11:45:00Z", "count_points": 2, "latitude": 49.38853, "longitude": 24.50494, "city": "Rohatyn", "images": []}, {"id": 490685, "min_date": "2021-10-15T09:43:00Z", "max_date": "2021-10-15T09:43:00Z", "count_points": 1, "latitude": 49.13217, "longitude": 24.46867, "city": "Kalush", "images": []}, {"id": 490686, "min_date": "2021-10-15T09:43:00Z", "max_date": "2021-10-15T09:43:00Z", "count_points": 4, "latitude": 50.12679, "longitude": 34.256, "city": "Zin\u2019kiv", "images": []}, {"id": 490687, "min_date": "2021-10-15T11:23:00Z", "max_date": "2021-10-15T11:23:00Z", "count_points": 2, "latitude": 46.26918, "longitude": 32.94002, "city": "Vynohradove", "images": []}, {"id": 490688, "min_date": "2021-10-15T11:23:00Z", "max_date": "2021-10-15T11:23:00Z", "count_points": 1, "latitude": 48.66017, "longitude": 38.79158, "city": "Frunze", "images": []}, {"id": 490689, "min_date": "2021-10-15T11:23:00Z", "max_date": "2021-10-15T11:23:00Z", "count_points": 1, "latitude": 48.24913, "longitude": 26.31421, "city": "Marshintsy", "images": []}, {"id": 490690, "min_date": "2021-10-15T11:23:00Z", "max_date": "2021-10-15T11:23:00Z", "count_points": 1, "latitude": 48.43496, "longitude": 22.52799, "city": "Strabychovo", "images": []}, {"id": 490691, "min_date": "2021-10-15T11:23:00Z", "max_date": "2021-10-15T11:23:00Z", "count_points": 1, "latitude": 48.48689, "longitude": 22.36898, "city": "Batiovo", "images": []}, {"id": 490693, "min_date": "2021-10-15T11:25:00Z", "max_date": "2021-10-15T11:25:00Z", "count_points": 1, "latitude": 50.54961, "longitude": 28.64093, "city": "Cherniakhiv", "images": []}, {"id": 490694, "min_date": "2021-10-15T11:25:00Z", "max_date": "2021-10-15T11:25:00Z", "count_points": 1, "latitude": 52.21393, "longitude": 33.35754, "city": "Novhorod-Sivers\u2019kyy", "images": []}, {"id": 490695, "min_date": "2021-10-15T23:39:00Z", "max_date": "2021-10-15T23:39:00Z", "count_points": 1, "latitude": 44.56074, "longitude": 33.56826, "city": "Sevastopol", "images": []}, {"id": 490696, "min_date": "2021-10-16T09:24:00Z", "max_date": "2021-10-16T09:24:00Z", "count_points": 2, "latitude": 47.31795, "longitude": 38.04606, "city": "Tel\u2019manove", "images": []}, {"id": 490697, "min_date": "2021-10-16T09:26:00Z", "max_date": "2021-10-16T09:26:00Z", "count_points": 1, "latitude": 47.31531, "longitude": 35.10579, "city": "Mykhaylivka", "images": []}, {"id": 490698, "min_date": "2021-10-16T11:06:00Z", "max_date": "2021-10-16T11:06:00Z", "count_points": 1, "latitude": 49.64114, "longitude": 28.72308, "city": "Kozyatyn", "images": []}, {"id": 490699, "min_date": "2021-10-16T11:06:00Z", "max_date": "2021-10-16T11:06:00Z", "count_points": 1, "latitude": 49.41677, "longitude": 38.30122, "city": "Svatove", "images": []}, {"id": 490701, "min_date": "2021-10-16T11:06:00Z", "max_date": "2021-10-16T11:06:00Z", "count_points": 1, "latitude": 48.28777, "longitude": 36.52904, "city": "Petropavlivka", "images": []}, {"id": 490702, "min_date": "2021-10-16T11:06:00Z", "max_date": "2021-10-16T11:06:00Z", "count_points": 1, "latitude": 47.67281, "longitude": 36.82591, "city": "Velyka Novosilka", "images": []}, {"id": 490703, "min_date": "2021-10-17T01:00:00Z", "max_date": "2021-10-17T01:00:00Z", "count_points": 2, "latitude": 50.96446, "longitude": 29.15591, "city": "Malyn", "images": []}, {"id": 490704, "min_date": "2021-10-17T09:05:00Z", "max_date": "2021-10-17T09:05:00Z", "count_points": 1, "latitude": 48.79504, "longitude": 39.75245, "city": "Stanytsya Luhans\u2019ka", "images": []}, {"id": 490705, "min_date": "2021-10-17T09:05:00Z", "max_date": "2021-10-17T09:05:00Z", "count_points": 1, "latitude": 48.95234, "longitude": 39.10326, "city": "Novoaydar", "images": []}, {"id": 490706, "min_date": "2021-10-17T10:45:00Z", "max_date": "2021-10-17T10:45:00Z", "count_points": 2, "latitude": 47.13882, "longitude": 33.57553, "city": "Dudchany", "images": []}, {"id": 490707, "min_date": "2021-10-17T10:45:00Z", "max_date": "2021-10-17T10:45:00Z", "count_points": 1, "latitude": 48.73405, "longitude": 38.87356, "city": "Tr\u2019okhizbenka", "images": []}, {"id": 490708, "min_date": "2021-10-17T10:45:00Z", "max_date": "2021-10-17T10:45:00Z", "count_points": 1, "latitude": 47.63455, "longitude": 29.34299, "city": "Okny", "images": []}, {"id": 490710, "min_date": "2021-10-17T10:45:00Z", "max_date": "2021-10-17T10:45:00Z", "count_points": 3, "latitude": 48.85238, "longitude": 35.78083, "city": "Yur\u201dyivka", "images": []}, {"id": 490711, "min_date": "2021-10-17T10:45:00Z", "max_date": "2021-10-17T10:45:00Z", "count_points": 2, "latitude": 49.52028, "longitude": 34.38402, "city": "Poltava", "images": []}, {"id": 490712, "min_date": "2021-10-17T10:45:00Z", "max_date": "2021-10-17T10:45:00Z", "count_points": 1, "latitude": 49.3876, "longitude": 38.396, "city": "Svatove", "images": []}, {"id": 490713, "min_date": "2021-10-17T10:45:00Z", "max_date": "2021-10-17T10:45:00Z", "count_points": 3, "latitude": 49.72734, "longitude": 35.56704, "city": "Valky", "images": []}, {"id": 490714, "min_date": "2021-10-17T10:45:00Z", "max_date": "2021-10-17T10:45:00Z", "count_points": 1, "latitude": 49.81239, "longitude": 34.91711, "city": "Chutove", "images": []}, {"id": 490715, "min_date": "2021-10-17T10:45:00Z", "max_date": "2021-10-17T10:45:00Z", "count_points": 1, "latitude": 48.74499, "longitude": 25.73548, "city": "Kostryzhivka", "images": []}, {"id": 490716, "min_date": "2021-10-17T10:45:00Z", "max_date": "2021-10-17T10:45:00Z", "count_points": 1, "latitude": 48.21249, "longitude": 29.40631, "city": "Chechelnyk", "images": []}, {"id": 490717, "min_date": "2021-10-17T22:59:00Z", "max_date": "2021-10-17T22:59:00Z", "count_points": 1, "latitude": 49.41486, "longitude": 38.59109, "city": "Bilokurakyne", "images": []}, {"id": 490718, "min_date": "2021-10-17T22:59:00Z", "max_date": "2021-10-17T22:59:00Z", "count_points": 2, "latitude": 48.06457, "longitude": 36.72891, "city": "Mezhova", "images": []}, {"id": 490719, "min_date": "2021-10-17T23:01:00Z", "max_date": "2021-10-17T23:01:00Z", "count_points": 1, "latitude": 47.35981, "longitude": 33.61594, "city": "Vysokopillya", "images": []}]