[{"id": 471114, "min_date": "2021-03-15T09:00:00Z", "max_date": "2021-03-15T10:38:00Z", "count_points": 15, "latitude": 47.42007, "longitude": 36.22171, "city": "Polohy", "images": []}, {"id": 471115, "min_date": "2021-03-15T09:00:00Z", "max_date": "2021-03-15T10:38:00Z", "count_points": 6, "latitude": 47.78706, "longitude": 33.98067, "city": "Sholokhove", "images": [{"image_url": "471115.jpg", "timestamp": "2021-03-15T10:38:00Z"}, {"image_url": "471115.jpg", "timestamp": "2021-03-15T10:38:00Z"}]}, {"id": 471116, "min_date": "2021-03-15T09:00:00Z", "max_date": "2021-03-15T10:38:00Z", "count_points": 6, "latitude": 47.21901, "longitude": 37.63683, "city": "Sartana", "images": []}, {"id": 471117, "min_date": "2021-03-15T09:00:00Z", "max_date": "2021-03-15T08:53:00Z", "count_points": 13, "latitude": 47.09277, "longitude": 36.67585, "city": "Osypenko", "images": []}, {"id": 471118, "min_date": "2021-03-15T09:00:00Z", "max_date": "2021-03-15T08:53:00Z", "count_points": 3, "latitude": 47.17611, "longitude": 36.36604, "city": "Chernihivka", "images": []}, {"id": 471119, "min_date": "2021-03-15T10:42:00Z", "max_date": "2021-03-15T10:39:00Z", "count_points": 3, "latitude": 48.90593, "longitude": 36.41188, "city": "Lozova", "images": []}, {"id": 471120, "min_date": "2021-03-15T10:42:00Z", "max_date": "2021-03-15T11:30:00Z", "count_points": 3, "latitude": 48.46068, "longitude": 36.3813, "city": "Petropavlivka", "images": []}, {"id": 471121, "min_date": "2021-03-15T10:42:00Z", "max_date": "2021-03-15T09:54:00Z", "count_points": 4, "latitude": 48.14861, "longitude": 34.73551, "city": "Surs\u2019ko-Mykhaylivka", "images": []}, {"id": 471122, "min_date": "2021-03-15T10:42:00Z", "max_date": "2021-03-15T10:42:00Z", "count_points": 1, "latitude": 47.25665, "longitude": 35.69397, "city": "Tokmak", "images": []}, {"id": 471123, "min_date": "2021-03-15T10:42:00Z", "max_date": "2021-03-15T09:54:00Z", "count_points": 2, "latitude": 47.97864, "longitude": 37.39781, "city": "Kurakhovo", "images": []}, {"id": 471124, "min_date": "2021-03-15T10:42:00Z", "max_date": "2021-03-15T10:42:00Z", "count_points": 1, "latitude": 47.83249, "longitude": 38.01338, "city": "Novyy Svit", "images": []}, {"id": 471125, "min_date": "2021-03-15T10:42:00Z", "max_date": "2021-03-15T10:38:00Z", "count_points": 5, "latitude": 47.34026, "longitude": 36.22257, "city": "Polohy", "images": []}, {"id": 471126, "min_date": "2021-03-15T10:42:00Z", "max_date": "2021-03-15T10:42:00Z", "count_points": 1, "latitude": 47.90859, "longitude": 38.83392, "city": "Dmytrivka", "images": []}, {"id": 471127, "min_date": "2021-03-15T10:42:00Z", "max_date": "2021-03-15T10:42:00Z", "count_points": 1, "latitude": 47.9352, "longitude": 35.06655, "city": "Zaporizhia", "images": []}, {"id": 471128, "min_date": "2021-03-15T10:42:00Z", "max_date": "2021-03-15T10:42:00Z", "count_points": 1, "latitude": 47.45005, "longitude": 36.37799, "city": "Chapayevka", "images": []}, {"id": 471129, "min_date": "2021-03-15T10:42:00Z", "max_date": "2021-03-15T10:38:00Z", "count_points": 14, "latitude": 46.98332, "longitude": 37.03347, "city": "Urzuf", "images": []}, {"id": 471130, "min_date": "2021-03-15T10:42:00Z", "max_date": "2021-03-15T10:38:00Z", "count_points": 3, "latitude": 47.07361, "longitude": 37.28674, "city": "Manhush", "images": []}, {"id": 471131, "min_date": "2021-03-15T10:42:00Z", "max_date": "2021-03-15T10:38:00Z", "count_points": 2, "latitude": 47.11902, "longitude": 36.39378, "city": "Chernihivka", "images": []}, {"id": 471132, "min_date": "2021-03-15T10:42:00Z", "max_date": "2021-03-15T09:54:00Z", "count_points": 3, "latitude": 49.46255, "longitude": 35.55961, "city": "Verbivka", "images": []}, {"id": 471133, "min_date": "2021-03-15T10:42:00Z", "max_date": "2021-03-15T10:42:00Z", "count_points": 1, "latitude": 49.40186, "longitude": 35.68495, "city": "Berezivka", "images": []}, {"id": 471134, "min_date": "2021-03-15T10:42:00Z", "max_date": "2021-03-15T10:42:00Z", "count_points": 3, "latitude": 47.66404, "longitude": 36.30594, "city": "Hulyaypole", "images": []}, {"id": 471135, "min_date": "2021-03-15T10:42:00Z", "max_date": "2021-03-15T10:38:00Z", "count_points": 3, "latitude": 47.24408, "longitude": 38.2649, "city": "Syedove", "images": []}, {"id": 471136, "min_date": "2021-03-15T10:42:00Z", "max_date": "2021-03-15T10:38:00Z", "count_points": 3, "latitude": 47.69731, "longitude": 37.93091, "city": "Starobesheve", "images": []}, {"id": 471137, "min_date": "2021-03-15T10:42:00Z", "max_date": "2021-03-15T10:38:00Z", "count_points": 2, "latitude": 46.19796, "longitude": 32.23439, "city": "Bekhtery", "images": []}, {"id": 471138, "min_date": "2021-03-15T10:42:00Z", "max_date": "2021-03-15T10:42:00Z", "count_points": 2, "latitude": 46.20099, "longitude": 33.09353, "city": "Skadovs\u2019k", "images": []}, {"id": 471139, "min_date": "2021-03-15T10:42:00Z", "max_date": "2021-03-15T10:42:00Z", "count_points": 1, "latitude": 47.99413, "longitude": 34.24532, "city": "Novopokrovka", "images": []}, {"id": 471140, "min_date": "2021-03-15T10:42:00Z", "max_date": "2021-03-15T10:42:00Z", "count_points": 2, "latitude": 46.33034, "longitude": 30.34396, "city": "Mayaky", "images": []}, {"id": 471141, "min_date": "2021-03-15T10:42:00Z", "max_date": "2021-03-15T10:39:00Z", "count_points": 5, "latitude": 49.72682, "longitude": 38.29272, "city": "Troyits\u2019ke", "images": []}, {"id": 471142, "min_date": "2021-03-15T10:42:00Z", "max_date": "2021-03-15T11:30:00Z", "count_points": 3, "latitude": 47.42839, "longitude": 38.19268, "city": "Tel\u2019manove", "images": []}, {"id": 471143, "min_date": "2021-03-15T10:42:00Z", "max_date": "2021-03-15T10:38:00Z", "count_points": 3, "latitude": 46.25998, "longitude": 33.35585, "city": "Kalanchak", "images": []}, {"id": 471144, "min_date": "2021-03-15T10:42:00Z", "max_date": "2021-03-15T10:42:00Z", "count_points": 1, "latitude": 49.55153, "longitude": 36.04076, "city": "Utkivka", "images": []}, {"id": 471145, "min_date": "2021-03-15T10:42:00Z", "max_date": "2021-03-15T10:38:00Z", "count_points": 5, "latitude": 46.95582, "longitude": 36.90042, "city": "Osypenko", "images": []}, {"id": 471146, "min_date": "2021-03-15T10:42:00Z", "max_date": "2021-03-15T10:38:00Z", "count_points": 2, "latitude": 47.0999, "longitude": 36.80745, "city": "Osypenko", "images": []}, {"id": 471147, "min_date": "2021-03-15T10:42:00Z", "max_date": "2021-03-15T10:38:00Z", "count_points": 5, "latitude": 46.66258, "longitude": 32.83754, "city": "Tsyurupyns\u2019k", "images": []}, {"id": 471148, "min_date": "2021-03-15T10:42:00Z", "max_date": "2021-03-15T10:42:00Z", "count_points": 1, "latitude": 48.34286, "longitude": 34.95516, "city": "Aviatorske", "images": []}, {"id": 471149, "min_date": "2021-03-15T10:42:00Z", "max_date": "2021-03-16T10:24:00Z", "count_points": 2, "latitude": 47.22878, "longitude": 37.67296, "city": "Sartana", "images": []}, {"id": 471150, "min_date": "2021-03-15T10:42:00Z", "max_date": "2021-03-15T10:42:00Z", "count_points": 1, "latitude": 47.08574, "longitude": 37.70468, "city": "Sartana", "images": []}, {"id": 471151, "min_date": "2021-03-15T10:42:00Z", "max_date": "2021-03-15T10:38:00Z", "count_points": 2, "latitude": 48.02303, "longitude": 35.70927, "city": "Novomykolayivka", "images": []}, {"id": 471152, "min_date": "2021-03-15T10:42:00Z", "max_date": "2021-03-15T10:38:00Z", "count_points": 5, "latitude": 47.30507, "longitude": 37.75135, "city": "Sartana", "images": []}, {"id": 471153, "min_date": "2021-03-15T10:42:00Z", "max_date": "2021-03-15T11:30:00Z", "count_points": 3, "latitude": 46.02054, "longitude": 33.86906, "city": "Krasnoperekops\u2019k", "images": []}, {"id": 471154, "min_date": "2021-03-15T22:54:00Z", "max_date": "2021-03-15T22:54:00Z", "count_points": 2, "latitude": 50.43942, "longitude": 33.61594, "city": "Lypova Dolyna", "images": []}, {"id": 471155, "min_date": "2021-03-15T22:54:00Z", "max_date": "2021-03-15T22:54:00Z", "count_points": 1, "latitude": 48.57417, "longitude": 35.4064, "city": "Melioratyvne", "images": []}, {"id": 471156, "min_date": "2021-03-15T23:00:00Z", "max_date": "2021-03-15T23:00:00Z", "count_points": 1, "latitude": 47.02292, "longitude": 35.43615, "city": "Terpinnya", "images": []}, {"id": 471157, "min_date": "2021-03-15T23:00:00Z", "max_date": "2021-03-15T23:00:00Z", "count_points": 1, "latitude": 47.46935, "longitude": 36.12852, "city": "Polohy", "images": []}, {"id": 471158, "min_date": "2021-03-16T10:24:00Z", "max_date": "2021-03-16T09:36:00Z", "count_points": 3, "latitude": 48.62141, "longitude": 34.07362, "city": "Lykhivka", "images": []}, {"id": 471159, "min_date": "2021-03-16T10:24:00Z", "max_date": "2021-03-16T11:12:00Z", "count_points": 3, "latitude": 48.98053, "longitude": 33.07562, "city": "Svitlovods\u2019k", "images": []}, {"id": 471160, "min_date": "2021-03-16T10:24:00Z", "max_date": "2021-03-16T10:24:00Z", "count_points": 1, "latitude": 49.22098, "longitude": 33.14238, "city": "Hradyz\u2019k", "images": []}, {"id": 471161, "min_date": "2021-03-16T10:24:00Z", "max_date": "2021-03-16T10:24:00Z", "count_points": 1, "latitude": 46.94751, "longitude": 35.40553, "city": "Terpinnya", "images": []}, {"id": 471162, "min_date": "2021-03-16T10:24:00Z", "max_date": "2021-03-16T10:24:00Z", "count_points": 2, "latitude": 47.9908, "longitude": 33.94123, "city": "Sofiyivka", "images": []}, {"id": 471163, "min_date": "2021-03-16T10:24:00Z", "max_date": "2021-03-16T10:24:00Z", "count_points": 2, "latitude": 48.56059, "longitude": 34.40414, "city": "Novomykolayivka", "images": []}, {"id": 471164, "min_date": "2021-03-16T10:24:00Z", "max_date": "2021-03-16T10:24:00Z", "count_points": 1, "latitude": 48.36117, "longitude": 34.44508, "city": "Krynychky", "images": []}, {"id": 471165, "min_date": "2021-03-16T10:24:00Z", "max_date": "2021-03-16T10:24:00Z", "count_points": 2, "latitude": 48.69982, "longitude": 32.93303, "city": "Pantayivka", "images": []}, {"id": 471166, "min_date": "2021-03-16T10:24:00Z", "max_date": "2021-03-16T10:24:00Z", "count_points": 1, "latitude": 48.58737, "longitude": 30.84636, "city": "Novoarkhanhel\u2019s\u2019k", "images": []}, {"id": 471167, "min_date": "2021-03-16T10:24:00Z", "max_date": "2021-03-16T11:21:00Z", "count_points": 20, "latitude": 47.91901, "longitude": 35.78126, "city": "Novomykolayivka", "images": []}, {"id": 471168, "min_date": "2021-03-16T10:24:00Z", "max_date": "2021-03-16T10:24:00Z", "count_points": 1, "latitude": 47.49118, "longitude": 36.64793, "city": "Kuybysheve", "images": []}, {"id": 471169, "min_date": "2021-03-16T10:24:00Z", "max_date": "2021-03-16T10:24:00Z", "count_points": 1, "latitude": 47.95489, "longitude": 34.85348, "city": "Tomakivka", "images": []}, {"id": 471170, "min_date": "2021-03-16T10:24:00Z", "max_date": "2021-03-16T10:24:00Z", "count_points": 1, "latitude": 47.93288, "longitude": 34.12535, "city": "Sholokhove", "images": []}, {"id": 471171, "min_date": "2021-03-16T10:24:00Z", "max_date": "2021-03-16T11:12:00Z", "count_points": 2, "latitude": 48.72413, "longitude": 34.62097, "city": "Petrykivka", "images": []}, {"id": 471172, "min_date": "2021-03-16T10:24:00Z", "max_date": "2021-03-16T10:24:00Z", "count_points": 1, "latitude": 48.64607, "longitude": 34.71478, "city": "Petrykivka", "images": []}, {"id": 471173, "min_date": "2021-03-16T10:24:00Z", "max_date": "2021-03-16T10:24:00Z", "count_points": 1, "latitude": 49.0336, "longitude": 32.51751, "city": "Chyhyryn", "images": []}, {"id": 471174, "min_date": "2021-03-16T10:24:00Z", "max_date": "2021-03-16T10:24:00Z", "count_points": 1, "latitude": 46.81902, "longitude": 35.37133, "city": "Melitopol", "images": []}, {"id": 471175, "min_date": "2021-03-16T10:24:00Z", "max_date": "2021-03-16T10:24:00Z", "count_points": 1, "latitude": 48.24456, "longitude": 31.70413, "city": "Rivne", "images": []}, {"id": 471176, "min_date": "2021-03-16T10:24:00Z", "max_date": "2021-03-16T10:24:00Z", "count_points": 1, "latitude": 48.60303, "longitude": 34.23762, "city": "Verkhn\u2019odniprovs\u2019k", "images": []}, {"id": 471177, "min_date": "2021-03-16T10:24:00Z", "max_date": "2021-03-16T10:24:00Z", "count_points": 1, "latitude": 46.90984, "longitude": 31.95114, "city": "Mykolayiv", "images": []}, {"id": 471178, "min_date": "2021-03-18T23:42:00Z", "max_date": "2021-03-18T22:48:00Z", "count_points": 3, "latitude": 50.0602, "longitude": 35.63133, "city": "Bohodukhiv", "images": []}, {"id": 471224, "min_date": "2021-03-15T09:54:00Z", "max_date": "2021-03-15T09:54:00Z", "count_points": 1, "latitude": 49.58968, "longitude": 35.28708, "city": "Varvarivka", "images": []}, {"id": 471225, "min_date": "2021-03-15T09:54:00Z", "max_date": "2021-03-15T09:54:00Z", "count_points": 1, "latitude": 48.74455, "longitude": 35.24873, "city": "Hubynykha", "images": []}, {"id": 471226, "min_date": "2021-03-15T09:54:00Z", "max_date": "2021-03-15T09:54:00Z", "count_points": 1, "latitude": 47.66457, "longitude": 36.75524, "city": "Velyka Novosilka", "images": []}, {"id": 471227, "min_date": "2021-03-15T09:54:00Z", "max_date": "2021-03-15T09:54:00Z", "count_points": 1, "latitude": 49.33632, "longitude": 38.00536, "city": "Svatove", "images": []}, {"id": 471228, "min_date": "2021-03-15T09:54:00Z", "max_date": "2021-03-15T10:38:00Z", "count_points": 2, "latitude": 47.58465, "longitude": 32.98047, "city": "Shyroke", "images": []}, {"id": 471229, "min_date": "2021-03-15T09:54:00Z", "max_date": "2021-03-15T10:38:00Z", "count_points": 4, "latitude": 47.90662, "longitude": 38.90993, "city": "Dmytrivka", "images": []}, {"id": 471230, "min_date": "2021-03-15T09:54:00Z", "max_date": "2021-03-15T08:53:00Z", "count_points": 2, "latitude": 48.05264, "longitude": 39.19374, "city": "Millerovo", "images": []}, {"id": 471231, "min_date": "2021-03-15T09:54:00Z", "max_date": "2021-03-15T10:39:00Z", "count_points": 2, "latitude": 48.54205, "longitude": 35.30081, "city": "Novomoskovs\u2019k", "images": []}, {"id": 471232, "min_date": "2021-03-15T09:54:00Z", "max_date": "2021-03-15T10:38:00Z", "count_points": 2, "latitude": 46.24236, "longitude": 32.30859, "city": "Bekhtery", "images": []}, {"id": 471233, "min_date": "2021-03-15T09:54:00Z", "max_date": "2021-03-15T09:54:00Z", "count_points": 1, "latitude": 45.33275, "longitude": 34.18847, "city": "Poltavka", "images": []}, {"id": 471234, "min_date": "2021-03-15T09:54:00Z", "max_date": "2021-03-15T09:54:00Z", "count_points": 2, "latitude": 46.91896, "longitude": 36.02303, "city": "Rozivka", "images": []}, {"id": 471235, "min_date": "2021-03-15T09:54:00Z", "max_date": "2021-03-15T09:54:00Z", "count_points": 1, "latitude": 47.27024, "longitude": 36.20701, "city": "Chernihivka", "images": []}, {"id": 471236, "min_date": "2021-03-15T09:54:00Z", "max_date": "2021-03-15T09:54:00Z", "count_points": 1, "latitude": 48.01924, "longitude": 39.10401, "city": "Kripens\u2019kyy", "images": []}, {"id": 471237, "min_date": "2021-03-15T11:30:00Z", "max_date": "2021-03-15T11:30:00Z", "count_points": 2, "latitude": 46.76676, "longitude": 32.3984, "city": "Bilozerka", "images": []}, {"id": 471238, "min_date": "2021-03-15T11:30:00Z", "max_date": "2021-03-15T11:30:00Z", "count_points": 2, "latitude": 48.20088, "longitude": 34.81877, "city": "Solone", "images": []}, {"id": 471239, "min_date": "2021-03-15T11:30:00Z", "max_date": "2021-03-15T11:30:00Z", "count_points": 1, "latitude": 44.96948, "longitude": 33.97591, "city": "Aeroflotskiy", "images": []}, {"id": 471240, "min_date": "2021-03-15T11:30:00Z", "max_date": "2021-03-15T11:30:00Z", "count_points": 1, "latitude": 45.40561, "longitude": 34.94734, "city": "Nekrasovka", "images": []}, {"id": 471241, "min_date": "2021-03-15T23:48:00Z", "max_date": "2021-03-15T23:48:00Z", "count_points": 1, "latitude": 50.42472, "longitude": 33.58693, "city": "Lypova Dolyna", "images": []}, {"id": 471242, "min_date": "2021-03-16T09:36:00Z", "max_date": "2021-03-16T09:36:00Z", "count_points": 2, "latitude": 47.62776, "longitude": 35.70724, "city": "Kirove", "images": []}, {"id": 471243, "min_date": "2021-03-16T09:36:00Z", "max_date": "2021-03-16T09:36:00Z", "count_points": 1, "latitude": 47.99046, "longitude": 33.57582, "city": "Kryvyi Rih", "images": []}, {"id": 471244, "min_date": "2021-03-16T09:36:00Z", "max_date": "2021-03-16T09:36:00Z", "count_points": 1, "latitude": 47.25557, "longitude": 32.47942, "city": "Bashtanka", "images": []}, {"id": 471245, "min_date": "2021-03-16T09:36:00Z", "max_date": "2021-03-16T09:36:00Z", "count_points": 2, "latitude": 48.51511, "longitude": 35.58401, "city": "Melioratyvne", "images": []}, {"id": 471246, "min_date": "2021-03-16T11:12:00Z", "max_date": "2021-03-16T11:12:00Z", "count_points": 1, "latitude": 47.85574, "longitude": 35.79561, "city": "Novomykolayivka", "images": []}, {"id": 471247, "min_date": "2021-03-16T11:12:00Z", "max_date": "2021-03-16T11:12:00Z", "count_points": 1, "latitude": 48.6041, "longitude": 31.73153, "city": "Mala Vyska", "images": []}, {"id": 471248, "min_date": "2021-03-16T11:12:00Z", "max_date": "2021-03-16T11:12:00Z", "count_points": 1, "latitude": 47.02363, "longitude": 31.0947, "city": "Kurisove", "images": []}, {"id": 471249, "min_date": "2021-03-16T11:12:00Z", "max_date": "2021-03-16T11:12:00Z", "count_points": 1, "latitude": 48.35635, "longitude": 33.21347, "city": "Petrove", "images": []}, {"id": 471250, "min_date": "2021-03-16T11:12:00Z", "max_date": "2021-03-16T11:12:00Z", "count_points": 1, "latitude": 47.32888, "longitude": 37.66709, "city": "Sartana", "images": []}, {"id": 471251, "min_date": "2021-03-16T11:12:00Z", "max_date": "2021-03-16T11:22:00Z", "count_points": 3, "latitude": 48.65764, "longitude": 34.652, "city": "Petrykivka", "images": []}, {"id": 471252, "min_date": "2021-03-16T23:30:00Z", "max_date": "2021-03-16T23:30:00Z", "count_points": 1, "latitude": 45.27504, "longitude": 34.70735, "city": "Prudy", "images": []}, {"id": 471253, "min_date": "2021-03-18T10:36:00Z", "max_date": "2021-03-18T10:36:00Z", "count_points": 2, "latitude": 51.44429, "longitude": 23.94415, "city": "Shats\u2019k", "images": []}, {"id": 471254, "min_date": "2021-03-18T10:36:00Z", "max_date": "2021-03-18T10:36:00Z", "count_points": 1, "latitude": 48.37448, "longitude": 22.84087, "city": "Chynadiyovo", "images": []}, {"id": 471284, "min_date": "2021-03-15T08:53:00Z", "max_date": "2021-03-15T08:53:00Z", "count_points": 1, "latitude": 47.3958, "longitude": 35.0159, "city": "Dniprorudne", "images": []}, {"id": 471285, "min_date": "2021-03-15T08:53:00Z", "max_date": "2021-03-15T08:53:00Z", "count_points": 1, "latitude": 47.192, "longitude": 34.945, "city": "Mala Bilozerka", "images": []}, {"id": 471286, "min_date": "2021-03-15T08:53:00Z", "max_date": "2021-03-15T08:53:00Z", "count_points": 1, "latitude": 46.8728, "longitude": 36.295, "city": "Prymors\u2019k", "images": []}, {"id": 471287, "min_date": "2021-03-15T08:53:00Z", "max_date": "2021-03-15T08:53:00Z", "count_points": 1, "latitude": 49.4945, "longitude": 35.3194, "city": "Varvarivka", "images": []}, {"id": 471288, "min_date": "2021-03-15T08:53:00Z", "max_date": "2021-03-15T08:53:00Z", "count_points": 1, "latitude": 48.0596, "longitude": 35.5159, "city": "Vil\u2019nyans\u2019k", "images": []}, {"id": 471289, "min_date": "2021-03-15T08:53:00Z", "max_date": "2021-03-15T08:53:00Z", "count_points": 1, "latitude": 47.2118, "longitude": 36.3852, "city": "Chernihivka", "images": []}, {"id": 471290, "min_date": "2021-03-15T08:54:00Z", "max_date": "2021-03-15T08:54:00Z", "count_points": 1, "latitude": 44.8834, "longitude": 33.74, "city": "Prudovoye", "images": []}, {"id": 471291, "min_date": "2021-03-15T10:38:00Z", "max_date": "2021-03-15T10:38:00Z", "count_points": 1, "latitude": 46.8369, "longitude": 33.6599, "city": "Lyubymivka", "images": []}, {"id": 471292, "min_date": "2021-03-15T10:38:00Z", "max_date": "2021-03-15T10:38:00Z", "count_points": 1, "latitude": 47.1022, "longitude": 33.7467, "city": "Dudchany", "images": []}, {"id": 471293, "min_date": "2021-03-15T10:38:00Z", "max_date": "2021-03-15T10:38:00Z", "count_points": 2, "latitude": 47.487, "longitude": 36.23865, "city": "Polohy", "images": []}, {"id": 471294, "min_date": "2021-03-15T10:38:00Z", "max_date": "2021-03-15T10:38:00Z", "count_points": 1, "latitude": 47.0105, "longitude": 32.7957, "city": "Snihurivka", "images": []}, {"id": 471295, "min_date": "2021-03-15T10:38:00Z", "max_date": "2021-03-15T10:38:00Z", "count_points": 1, "latitude": 47.9174, "longitude": 38.2722, "city": "Shyroke", "images": []}, {"id": 471296, "min_date": "2021-03-15T10:38:00Z", "max_date": "2021-03-15T10:38:00Z", "count_points": 2, "latitude": 47.7603, "longitude": 33.46775, "city": "Kryvyi Rih", "images": []}, {"id": 471297, "min_date": "2021-03-15T10:39:00Z", "max_date": "2021-03-15T10:39:00Z", "count_points": 1, "latitude": 48.8839, "longitude": 35.8494, "city": "Yur\u201dyivka", "images": []}, {"id": 471298, "min_date": "2021-03-15T10:39:00Z", "max_date": "2021-03-15T10:39:00Z", "count_points": 1, "latitude": 48.1378, "longitude": 34.0097, "city": "Sofiyivka", "images": []}, {"id": 471112, "min_date": "2021-03-21T09:54:00Z", "max_date": "2021-03-21T09:54:00Z", "count_points": 14, "latitude": 50.35847, "longitude": 23.99417, "city": "Belz", "images": []}, {"id": 471113, "min_date": "2021-03-21T09:54:00Z", "max_date": "2021-03-21T10:30:00Z", "count_points": 4, "latitude": 50.3907, "longitude": 23.94808, "city": "Belz", "images": []}, {"id": 471183, "min_date": "2021-03-20T10:48:00Z", "max_date": "2021-03-20T10:48:00Z", "count_points": 1, "latitude": 50.93605, "longitude": 24.75112, "city": "Lokachi", "images": []}, {"id": 471184, "min_date": "2021-03-20T10:48:00Z", "max_date": "2021-03-20T10:48:00Z", "count_points": 1, "latitude": 48.38681, "longitude": 22.51574, "city": "Strabychovo", "images": []}, {"id": 471185, "min_date": "2021-03-20T10:48:00Z", "max_date": "2021-03-21T09:42:00Z", "count_points": 4, "latitude": 51.18226, "longitude": 30.97413, "city": "Oster", "images": [{"image_url": "471185.jpg", "timestamp": "2021-03-21T09:42:00Z"}, {"image_url": "471185.jpg", "timestamp": "2021-03-21T09:42:00Z"}]}, {"id": 471186, "min_date": "2021-03-21T00:42:00Z", "max_date": "2021-03-21T10:30:00Z", "count_points": 2, "latitude": 50.54373, "longitude": 26.26895, "city": "Zdolbuniv", "images": []}, {"id": 471187, "min_date": "2021-03-21T00:42:00Z", "max_date": "2021-03-21T00:42:00Z", "count_points": 1, "latitude": 48.97655, "longitude": 28.11575, "city": "Zhmerynka", "images": []}, {"id": 471188, "min_date": "2021-03-21T00:42:00Z", "max_date": "2021-03-21T00:42:00Z", "count_points": 2, "latitude": 47.97729, "longitude": 33.51148, "city": "Kryvyi Rih", "images": []}, {"id": 471189, "min_date": "2021-03-21T00:42:00Z", "max_date": "2021-03-21T00:42:00Z", "count_points": 1, "latitude": 50.84627, "longitude": 26.45405, "city": "Kostopil\u2019", "images": []}, {"id": 471190, "min_date": "2021-03-21T10:30:00Z", "max_date": "2021-03-21T09:42:00Z", "count_points": 4, "latitude": 49.17853, "longitude": 26.03754, "city": "Khorostkiv", "images": []}, {"id": 471191, "min_date": "2021-03-21T10:30:00Z", "max_date": "2021-03-21T09:42:00Z", "count_points": 4, "latitude": 48.1866, "longitude": 23.20812, "city": "Kryva", "images": []}, {"id": 471192, "min_date": "2021-03-21T10:30:00Z", "max_date": "2021-03-21T10:30:00Z", "count_points": 1, "latitude": 49.4743, "longitude": 29.28097, "city": "Pohrebyshche", "images": []}, {"id": 471193, "min_date": "2021-03-21T10:30:00Z", "max_date": "2021-03-21T10:30:00Z", "count_points": 1, "latitude": 49.36464, "longitude": 24.2284, "city": "Zhydachiv", "images": []}, {"id": 471194, "min_date": "2021-03-21T10:30:00Z", "max_date": "2021-03-21T10:30:00Z", "count_points": 1, "latitude": 50.29434, "longitude": 30.06087, "city": "Borova", "images": []}, {"id": 471195, "min_date": "2021-03-21T10:30:00Z", "max_date": "2021-03-21T10:30:00Z", "count_points": 1, "latitude": 49.44091, "longitude": 38.22502, "city": "Svatove", "images": []}, {"id": 471196, "min_date": "2021-03-21T10:30:00Z", "max_date": "2021-03-21T10:30:00Z", "count_points": 2, "latitude": 51.50141, "longitude": 30.66606, "city": "Slavutych", "images": []}, {"id": 471197, "min_date": "2021-03-21T10:30:00Z", "max_date": "2021-03-21T10:30:00Z", "count_points": 1, "latitude": 50.81145, "longitude": 24.33398, "city": "Volodymyr-Volynskyi", "images": []}, {"id": 471198, "min_date": "2021-03-21T10:30:00Z", "max_date": "2021-03-21T10:30:00Z", "count_points": 1, "latitude": 48.68803, "longitude": 22.79352, "city": "Poroshkovo", "images": []}, {"id": 471199, "min_date": "2021-03-21T10:30:00Z", "max_date": "2021-03-21T11:18:00Z", "count_points": 2, "latitude": 49.324, "longitude": 23.4235, "city": "Boryslav", "images": []}, {"id": 471200, "min_date": "2021-03-21T10:30:00Z", "max_date": "2021-03-21T10:30:00Z", "count_points": 2, "latitude": 50.318, "longitude": 31.0403, "city": "Kirove", "images": []}, {"id": 471201, "min_date": "2021-03-21T10:30:00Z", "max_date": "2021-03-21T10:30:00Z", "count_points": 1, "latitude": 51.33166, "longitude": 31.97572, "city": "Nizhyn", "images": []}, {"id": 471202, "min_date": "2021-03-21T10:30:00Z", "max_date": "2021-03-21T10:30:00Z", "count_points": 2, "latitude": 50.63554, "longitude": 24.96672, "city": "Horokhiv", "images": []}, {"id": 471203, "min_date": "2021-03-21T10:30:00Z", "max_date": "2021-03-21T11:18:00Z", "count_points": 3, "latitude": 49.95659, "longitude": 23.44003, "city": "Yavoriv", "images": []}, {"id": 471204, "min_date": "2021-03-21T10:30:00Z", "max_date": "2021-03-21T09:42:00Z", "count_points": 2, "latitude": 49.67516, "longitude": 23.19203, "city": "Pnikut", "images": []}, {"id": 471205, "min_date": "2021-03-21T10:30:00Z", "max_date": "2021-03-21T09:54:00Z", "count_points": 6, "latitude": 49.759, "longitude": 23.04105, "city": "Pnikut", "images": []}, {"id": 471206, "min_date": "2021-03-21T10:30:00Z", "max_date": "2021-03-21T10:30:00Z", "count_points": 1, "latitude": 49.29507, "longitude": 23.934, "city": "Stryi", "images": []}, {"id": 471207, "min_date": "2021-03-21T10:30:00Z", "max_date": "2021-03-21T10:30:00Z", "count_points": 1, "latitude": 50.27452, "longitude": 29.54741, "city": "Brusyliv", "images": []}, {"id": 471208, "min_date": "2021-03-21T10:30:00Z", "max_date": "2021-03-21T10:30:00Z", "count_points": 1, "latitude": 51.51572, "longitude": 31.6751, "city": "Berezna", "images": []}, {"id": 471209, "min_date": "2021-03-21T10:30:00Z", "max_date": "2021-03-21T10:30:00Z", "count_points": 1, "latitude": 49.01149, "longitude": 26.82756, "city": "Dunayivtsi", "images": []}, {"id": 471210, "min_date": "2021-03-21T12:12:00Z", "max_date": "2021-03-21T12:12:00Z", "count_points": 2, "latitude": 50.06598, "longitude": 23.55585, "city": "Starychi", "images": []}, {"id": 471211, "min_date": "2021-03-21T12:12:00Z", "max_date": "2021-03-21T12:12:00Z", "count_points": 2, "latitude": 49.3684, "longitude": 23.31343, "city": "Pidbuzh", "images": []}, {"id": 471212, "min_date": "2021-03-21T12:12:00Z", "max_date": "2021-03-21T12:12:00Z", "count_points": 2, "latitude": 49.50052, "longitude": 23.85874, "city": "Rozvadiv", "images": []}, {"id": 471213, "min_date": "2021-03-21T12:12:00Z", "max_date": "2021-03-21T11:18:00Z", "count_points": 2, "latitude": 48.44862, "longitude": 22.65054, "city": "Nove Davydkovo", "images": []}, {"id": 471214, "min_date": "2021-03-21T12:12:00Z", "max_date": "2021-03-21T12:12:00Z", "count_points": 1, "latitude": 48.60758, "longitude": 22.21793, "city": "Storozhnytsya", "images": []}, {"id": 471215, "min_date": "2021-03-21T12:12:00Z", "max_date": "2021-03-21T11:41:00Z", "count_points": 3, "latitude": 49.93711, "longitude": 24.14557, "city": "Dublyany", "images": []}, {"id": 471216, "min_date": "2021-03-21T12:12:00Z", "max_date": "2021-03-21T11:18:00Z", "count_points": 6, "latitude": 48.55053, "longitude": 22.96102, "city": "Svalyava", "images": []}, {"id": 471217, "min_date": "2021-03-21T12:12:00Z", "max_date": "2021-03-21T11:18:00Z", "count_points": 2, "latitude": 48.09422, "longitude": 23.44005, "city": "Vyshkovo", "images": []}, {"id": 471218, "min_date": "2021-03-21T12:12:00Z", "max_date": "2021-03-21T12:12:00Z", "count_points": 2, "latitude": 49.29861, "longitude": 23.5253, "city": "Truskavets\u2019", "images": []}, {"id": 471219, "min_date": "2021-03-21T12:12:00Z", "max_date": "2021-03-21T12:12:00Z", "count_points": 1, "latitude": 50.76638, "longitude": 25.96592, "city": "Klevan\u2019", "images": []}, {"id": 471220, "min_date": "2021-03-21T12:12:00Z", "max_date": "2021-03-21T11:40:00Z", "count_points": 3, "latitude": 48.4175, "longitude": 22.92984, "city": "Chynadiyovo", "images": []}, {"id": 471221, "min_date": "2021-03-21T12:12:00Z", "max_date": "2021-03-21T11:40:00Z", "count_points": 7, "latitude": 48.03028, "longitude": 23.45177, "city": "Bushtyno", "images": [{"image_url": "471221.jpg", "timestamp": "2021-03-21T11:40:00Z"}]}, {"id": 471222, "min_date": "2021-03-21T12:12:00Z", "max_date": "2021-03-21T12:12:00Z", "count_points": 1, "latitude": 49.39243, "longitude": 27.87171, "city": "Khmilnyk", "images": []}, {"id": 471223, "min_date": "2021-03-21T22:42:00Z", "max_date": "2021-03-21T22:42:00Z", "count_points": 3, "latitude": 48.55164, "longitude": 35.98259, "city": "Pavlohrad", "images": []}, {"id": 471256, "min_date": "2021-03-20T10:00:00Z", "max_date": "2021-03-20T10:00:00Z", "count_points": 1, "latitude": 49.33444, "longitude": 38.49013, "city": "Bilokurakyne", "images": []}, {"id": 471257, "min_date": "2021-03-20T23:54:00Z", "max_date": "2021-03-20T23:54:00Z", "count_points": 2, "latitude": 48.35062, "longitude": 24.45952, "city": "Yablunytsya", "images": []}, {"id": 471258, "min_date": "2021-03-21T09:36:00Z", "max_date": "2021-03-21T09:36:00Z", "count_points": 1, "latitude": 45.08107, "longitude": 35.41474, "city": "Beregovoye", "images": []}, {"id": 471259, "min_date": "2021-03-21T09:42:00Z", "max_date": "2021-03-21T09:42:00Z", "count_points": 1, "latitude": 49.45947, "longitude": 38.28814, "city": "Svatove", "images": []}, {"id": 471260, "min_date": "2021-03-21T09:42:00Z", "max_date": "2021-03-21T09:42:00Z", "count_points": 1, "latitude": 48.02985, "longitude": 23.51382, "city": "Bushtyno", "images": []}, {"id": 471261, "min_date": "2021-03-21T09:42:00Z", "max_date": "2021-03-21T09:42:00Z", "count_points": 1, "latitude": 49.59487, "longitude": 28.81023, "city": "Kozyatyn", "images": []}, {"id": 471262, "min_date": "2021-03-21T09:42:00Z", "max_date": "2021-03-21T09:42:00Z", "count_points": 2, "latitude": 46.9611, "longitude": 30.96511, "city": "Kurisove", "images": []}, {"id": 471263, "min_date": "2021-03-21T11:18:00Z", "max_date": "2021-03-21T11:18:00Z", "count_points": 1, "latitude": 48.10949, "longitude": 22.97636, "city": "Pidvynohradiv", "images": []}, {"id": 471264, "min_date": "2021-03-21T11:18:00Z", "max_date": "2021-03-21T11:18:00Z", "count_points": 2, "latitude": 49.25943, "longitude": 23.88576, "city": "Stryi", "images": []}, {"id": 471265, "min_date": "2021-03-21T11:18:00Z", "max_date": "2021-03-21T11:18:00Z", "count_points": 1, "latitude": 49.75055, "longitude": 28.6701, "city": "Berdychiv", "images": []}, {"id": 471266, "min_date": "2021-03-21T11:18:00Z", "max_date": "2021-03-21T11:18:00Z", "count_points": 2, "latitude": 48.11593, "longitude": 23.32924, "city": "Khust", "images": []}, {"id": 471267, "min_date": "2021-03-21T11:18:00Z", "max_date": "2021-03-21T11:18:00Z", "count_points": 1, "latitude": 46.21382, "longitude": 29.66077, "city": "Plakhtiyivka", "images": []}, {"id": 471268, "min_date": "2021-03-21T11:18:00Z", "max_date": "2021-03-21T11:18:00Z", "count_points": 1, "latitude": 48.6139, "longitude": 25.17084, "city": "Obertyn", "images": []}, {"id": 471269, "min_date": "2021-03-21T11:18:00Z", "max_date": "2021-03-21T11:18:00Z", "count_points": 1, "latitude": 48.52056, "longitude": 23.51732, "city": "Volovo", "images": []}, {"id": 471270, "min_date": "2021-03-21T11:18:00Z", "max_date": "2021-03-21T11:18:00Z", "count_points": 1, "latitude": 50.20008, "longitude": 24.3385, "city": "Staryy Dobrotvir", "images": []}, {"id": 471271, "min_date": "2021-03-21T11:18:00Z", "max_date": "2021-03-21T11:18:00Z", "count_points": 1, "latitude": 50.26967, "longitude": 24.49941, "city": "Staryy Dobrotvir", "images": []}, {"id": 471272, "min_date": "2021-03-21T11:18:00Z", "max_date": "2021-03-21T11:18:00Z", "count_points": 1, "latitude": 48.69582, "longitude": 25.47468, "city": "Horodenka", "images": []}, {"id": 471273, "min_date": "2021-03-21T11:18:00Z", "max_date": "2021-03-21T11:18:00Z", "count_points": 1, "latitude": 48.76626, "longitude": 22.50108, "city": "Perechyn", "images": []}, {"id": 471274, "min_date": "2021-03-21T11:18:00Z", "max_date": "2021-03-21T11:18:00Z", "count_points": 1, "latitude": 49.99686, "longitude": 34.27418, "city": "Zin\u2019kiv", "images": []}, {"id": 471275, "min_date": "2021-03-21T11:18:00Z", "max_date": "2021-03-21T11:18:00Z", "count_points": 1, "latitude": 49.1891, "longitude": 23.8405, "city": "Morshyn", "images": []}, {"id": 471299, "min_date": "2021-03-20T09:11:00Z", "max_date": "2021-03-20T09:11:00Z", "count_points": 1, "latitude": 51.0202, "longitude": 30.8298, "city": "Oster", "images": []}, {"id": 471300, "min_date": "2021-03-21T09:54:00Z", "max_date": "2021-03-21T09:54:00Z", "count_points": 1, "latitude": 50.2902, "longitude": 28.9903, "city": "Korostyshiv", "images": []}, {"id": 471276, "min_date": "2021-03-21T11:18:00Z", "max_date": "2021-03-21T11:18:00Z", "count_points": 2, "latitude": 49.6062, "longitude": 23.05117, "city": "Voyutychi", "images": []}, {"id": 471277, "min_date": "2021-03-21T11:18:00Z", "max_date": "2021-03-21T11:18:00Z", "count_points": 1, "latitude": 49.36143, "longitude": 24.73012, "city": "Rohatyn", "images": []}, {"id": 471278, "min_date": "2021-03-21T11:18:00Z", "max_date": "2021-03-21T11:18:00Z", "count_points": 1, "latitude": 49.2315, "longitude": 23.59684, "city": "Ulychne", "images": []}, {"id": 471279, "min_date": "2021-03-21T11:18:00Z", "max_date": "2021-03-21T11:18:00Z", "count_points": 2, "latitude": 48.502, "longitude": 22.77517, "city": "Chynadiyovo", "images": []}, {"id": 471280, "min_date": "2021-03-21T11:24:00Z", "max_date": "2021-03-21T11:41:00Z", "count_points": 2, "latitude": 50.67047, "longitude": 24.17404, "city": "Novovolyns\u2019k", "images": []}, {"id": 471281, "min_date": "2021-03-21T11:24:00Z", "max_date": "2021-03-21T11:24:00Z", "count_points": 1, "latitude": 51.43354, "longitude": 32.44899, "city": "Sosnytsya", "images": []}, {"id": 471282, "min_date": "2021-03-21T11:24:00Z", "max_date": "2021-03-21T11:24:00Z", "count_points": 1, "latitude": 50.68382, "longitude": 24.89512, "city": "Horokhiv", "images": []}, {"id": 471283, "min_date": "2021-03-21T11:24:00Z", "max_date": "2021-03-21T11:24:00Z", "count_points": 1, "latitude": 50.82881, "longitude": 24.49343, "city": "Volodymyr-Volynskyi", "images": []}]