[{"id": 477443, "min_date": "2021-06-28T08:45:00Z", "max_date": "2021-06-28T08:45:00Z", "count_points": 1, "latitude": 48.956, "longitude": 33.242, "city": "Svitlovods\u2019k", "images": []}, {"id": 477444, "min_date": "2021-06-28T10:30:00Z", "max_date": "2021-06-28T10:30:00Z", "count_points": 1, "latitude": 46.319, "longitude": 34.673, "city": "Partyzany", "images": []}, {"id": 477445, "min_date": "2021-06-29T09:25:00Z", "max_date": "2021-06-29T09:25:00Z", "count_points": 1, "latitude": 49.866, "longitude": 23.94, "city": "Bryukhovychi", "images": []}, {"id": 477446, "min_date": "2021-06-29T09:25:00Z", "max_date": "2021-06-29T09:25:00Z", "count_points": 1, "latitude": 49.352, "longitude": 26.641, "city": "Narkevychi", "images": []}, {"id": 477447, "min_date": "2021-06-29T11:15:00Z", "max_date": "2021-06-29T11:15:00Z", "count_points": 1, "latitude": 48.516, "longitude": 25.547, "city": "Stetseva", "images": []}, {"id": 477448, "min_date": "2021-06-29T11:15:00Z", "max_date": "2021-06-29T11:15:00Z", "count_points": 1, "latitude": 50.391, "longitude": 24.215, "city": "Chervonohrad", "images": []}, {"id": 477449, "min_date": "2021-06-29T11:15:00Z", "max_date": "2021-06-29T11:15:00Z", "count_points": 1, "latitude": 51.849, "longitude": 26.186, "city": "Zarichne", "images": []}, {"id": 477450, "min_date": "2021-06-29T11:15:00Z", "max_date": "2021-06-29T11:15:00Z", "count_points": 1, "latitude": 46.473, "longitude": 34.7, "city": "Partyzany", "images": []}, {"id": 477451, "min_date": "2021-06-30T08:30:00Z", "max_date": "2021-06-30T08:30:00Z", "count_points": 1, "latitude": 45.256, "longitude": 36.258, "city": "Gornostayevka", "images": []}, {"id": 477452, "min_date": "2021-06-30T08:30:00Z", "max_date": "2021-06-30T08:30:00Z", "count_points": 1, "latitude": 48.367, "longitude": 39.649, "city": "Molodohvardiys\u2019k", "images": []}, {"id": 477453, "min_date": "2021-06-30T08:30:00Z", "max_date": "2021-06-30T08:30:00Z", "count_points": 1, "latitude": 47.014, "longitude": 30.848, "city": "Kurisove", "images": []}, {"id": 477454, "min_date": "2021-06-30T08:30:00Z", "max_date": "2021-07-02T08:20:00Z", "count_points": 3, "latitude": 48.35333, "longitude": 37.779, "city": "Shcherbynivka", "images": []}, {"id": 477455, "min_date": "2021-06-30T10:20:00Z", "max_date": "2021-06-30T10:20:00Z", "count_points": 1, "latitude": 47.117, "longitude": 36.322, "city": "Chernihivka", "images": []}, {"id": 477456, "min_date": "2021-07-01T09:15:00Z", "max_date": "2021-07-01T09:15:00Z", "count_points": 1, "latitude": 49.761, "longitude": 36.096, "city": "Utkivka", "images": []}, {"id": 477457, "min_date": "2021-07-01T09:15:00Z", "max_date": "2021-07-01T09:15:00Z", "count_points": 1, "latitude": 49.834, "longitude": 36.862, "city": "Pechenihy", "images": []}, {"id": 477458, "min_date": "2021-07-01T11:00:00Z", "max_date": "2021-07-01T11:00:00Z", "count_points": 1, "latitude": 49.154, "longitude": 30.545, "city": "Buky", "images": []}, {"id": 477459, "min_date": "2021-07-01T11:00:00Z", "max_date": "2021-07-01T11:06:00Z", "count_points": 5, "latitude": 48.18744, "longitude": 31.19884, "city": "Lysa Hora", "images": []}, {"id": 477460, "min_date": "2021-07-02T08:20:00Z", "max_date": "2021-07-02T08:20:00Z", "count_points": 1, "latitude": 48.712, "longitude": 39.414, "city": "Stanytsya Luhans\u2019ka", "images": []}, {"id": 477461, "min_date": "2021-07-02T10:05:00Z", "max_date": "2021-07-02T10:05:00Z", "count_points": 1, "latitude": 49.566, "longitude": 39.464, "city": "Markivka", "images": []}, {"id": 477462, "min_date": "2021-07-02T10:05:00Z", "max_date": "2021-07-02T10:48:00Z", "count_points": 7, "latitude": 49.9159, "longitude": 34.60387, "city": "Oposhnya", "images": []}, {"id": 477463, "min_date": "2021-07-02T10:05:00Z", "max_date": "2021-07-02T10:05:00Z", "count_points": 1, "latitude": 47.53, "longitude": 35.587, "city": "Kirove", "images": []}, {"id": 477464, "min_date": "2021-07-02T10:05:00Z", "max_date": "2021-07-02T10:48:00Z", "count_points": 3, "latitude": 47.30446, "longitude": 31.93311, "city": "Nova Odesa", "images": []}, {"id": 477465, "min_date": "2021-07-03T09:00:00Z", "max_date": "2021-07-03T10:30:00Z", "count_points": 4, "latitude": 46.28399, "longitude": 34.60722, "city": "Novooleksiyivka", "images": []}, {"id": 477466, "min_date": "2021-07-03T09:00:00Z", "max_date": "2021-07-03T09:00:00Z", "count_points": 1, "latitude": 47.037, "longitude": 30.545, "city": "Ivanivka", "images": []}, {"id": 477467, "min_date": "2021-07-03T09:00:00Z", "max_date": "2021-07-03T09:00:00Z", "count_points": 1, "latitude": 49.919, "longitude": 38.118, "city": "Troyits\u2019ke", "images": []}, {"id": 477468, "min_date": "2021-07-03T10:50:00Z", "max_date": "2021-07-03T10:30:00Z", "count_points": 3, "latitude": 47.31679, "longitude": 32.94817, "city": "Bereznehuvate", "images": []}, {"id": 477469, "min_date": "2021-07-04T19:15:00Z", "max_date": "2021-06-30T11:30:00Z", "count_points": 2, "latitude": 49.99474, "longitude": 34.28556, "city": "Zin\u2019kiv", "images": []}, {"id": 477470, "min_date": "2021-06-28T23:30:00Z", "max_date": "2021-06-30T23:42:00Z", "count_points": 5, "latitude": 50.22948, "longitude": 33.40251, "city": "Sencha", "images": []}, {"id": 477471, "min_date": "2021-06-29T01:06:00Z", "max_date": "2021-06-29T01:06:00Z", "count_points": 2, "latitude": 50.4759, "longitude": 26.88553, "city": "Slavuta", "images": []}, {"id": 477472, "min_date": "2021-06-29T01:06:00Z", "max_date": "2021-07-04T00:24:00Z", "count_points": 15, "latitude": 50.01384, "longitude": 34.07485, "city": "Velyki Sorochyntsi", "images": []}, {"id": 477473, "min_date": "2021-06-29T10:54:00Z", "max_date": "2021-06-29T10:06:00Z", "count_points": 5, "latitude": 46.56419, "longitude": 34.97742, "city": "Yakymivka", "images": []}, {"id": 477474, "min_date": "2021-06-29T10:54:00Z", "max_date": "2021-06-29T10:06:00Z", "count_points": 2, "latitude": 49.6729, "longitude": 25.52347, "city": "Ternopil", "images": []}, {"id": 477475, "min_date": "2021-06-29T10:54:00Z", "max_date": "2021-06-29T10:54:00Z", "count_points": 1, "latitude": 48.86356, "longitude": 26.05808, "city": "Borshchiv", "images": []}, {"id": 477476, "min_date": "2021-06-29T10:54:00Z", "max_date": "2021-06-29T10:54:00Z", "count_points": 1, "latitude": 48.70662, "longitude": 25.26986, "city": "Obertyn", "images": []}, {"id": 477477, "min_date": "2021-06-29T10:54:00Z", "max_date": "2021-06-29T10:54:00Z", "count_points": 2, "latitude": 49.44602, "longitude": 25.36373, "city": "Ozerna", "images": []}, {"id": 477478, "min_date": "2021-06-29T10:54:00Z", "max_date": "2021-06-29T10:54:00Z", "count_points": 1, "latitude": 48.50756, "longitude": 26.89038, "city": "Kel\u2019mentsi", "images": []}, {"id": 477479, "min_date": "2021-06-29T10:54:00Z", "max_date": "2021-06-29T10:54:00Z", "count_points": 1, "latitude": 49.86157, "longitude": 24.05037, "city": "Lviv", "images": []}, {"id": 477480, "min_date": "2021-06-29T10:54:00Z", "max_date": "2021-06-29T10:54:00Z", "count_points": 1, "latitude": 50.51547, "longitude": 30.12951, "city": "Vorzel\u2019", "images": []}, {"id": 477481, "min_date": "2021-06-29T10:54:00Z", "max_date": "2021-07-01T11:06:00Z", "count_points": 4, "latitude": 50.39678, "longitude": 27.08782, "city": "Shepetivka", "images": []}, {"id": 477482, "min_date": "2021-06-29T10:54:00Z", "max_date": "2021-06-29T10:54:00Z", "count_points": 1, "latitude": 48.99737, "longitude": 24.08685, "city": "Dolyna", "images": []}, {"id": 477483, "min_date": "2021-06-29T23:12:00Z", "max_date": "2021-06-30T00:00:00Z", "count_points": 4, "latitude": 48.54452, "longitude": 37.1473, "city": "Dobropillya", "images": []}, {"id": 477484, "min_date": "2021-06-29T23:12:00Z", "max_date": "2021-06-29T23:12:00Z", "count_points": 3, "latitude": 46.6387, "longitude": 33.33708, "city": "Chornyanka", "images": []}, {"id": 477485, "min_date": "2021-06-30T00:48:00Z", "max_date": "2021-06-30T23:42:00Z", "count_points": 5, "latitude": 49.1728, "longitude": 33.46403, "city": "Kremenchuk", "images": []}, {"id": 477486, "min_date": "2021-06-30T00:54:00Z", "max_date": "2021-06-30T01:42:00Z", "count_points": 2, "latitude": 48.123, "longitude": 23.02094, "city": "Vynohradiv", "images": []}, {"id": 477487, "min_date": "2021-06-30T10:36:00Z", "max_date": "2021-06-30T09:48:00Z", "count_points": 2, "latitude": 51.33711, "longitude": 24.33608, "city": "Stara Vyzhivka", "images": []}, {"id": 477488, "min_date": "2021-06-30T10:36:00Z", "max_date": "2021-06-30T10:36:00Z", "count_points": 1, "latitude": 51.60294, "longitude": 30.85496, "city": "Slavutych", "images": []}, {"id": 477489, "min_date": "2021-06-30T10:36:00Z", "max_date": "2021-06-30T10:36:00Z", "count_points": 2, "latitude": 45.07685, "longitude": 36.13246, "city": "Maryevka", "images": []}, {"id": 477490, "min_date": "2021-06-30T10:36:00Z", "max_date": "2021-06-30T10:36:00Z", "count_points": 1, "latitude": 49.53916, "longitude": 33.51025, "city": "Hlobyne", "images": []}, {"id": 477491, "min_date": "2021-06-30T10:36:00Z", "max_date": "2021-06-30T10:36:00Z", "count_points": 1, "latitude": 48.86876, "longitude": 30.88069, "city": "Glybochek", "images": []}, {"id": 477492, "min_date": "2021-06-30T10:36:00Z", "max_date": "2021-06-30T10:36:00Z", "count_points": 1, "latitude": 50.28541, "longitude": 29.62745, "city": "Brusyliv", "images": []}, {"id": 477493, "min_date": "2021-06-30T10:36:00Z", "max_date": "2021-06-30T10:36:00Z", "count_points": 1, "latitude": 49.26529, "longitude": 30.40977, "city": "Kalynove", "images": []}, {"id": 477494, "min_date": "2021-06-30T10:36:00Z", "max_date": "2021-06-30T10:36:00Z", "count_points": 1, "latitude": 50.59301, "longitude": 29.18635, "city": "Radomyshl", "images": []}, {"id": 477495, "min_date": "2021-07-01T00:30:00Z", "max_date": "2021-07-01T01:24:00Z", "count_points": 6, "latitude": 49.06448, "longitude": 24.28854, "city": "Kalush", "images": []}, {"id": 477496, "min_date": "2021-07-01T10:18:00Z", "max_date": "2021-07-01T10:18:00Z", "count_points": 1, "latitude": 49.71215, "longitude": 35.99488, "city": "Utkivka", "images": []}, {"id": 477497, "min_date": "2021-07-01T10:18:00Z", "max_date": "2021-07-01T10:18:00Z", "count_points": 1, "latitude": 50.27752, "longitude": 35.04464, "city": "Kyrykivka", "images": []}, {"id": 477498, "min_date": "2021-07-01T10:18:00Z", "max_date": "2021-07-01T10:18:00Z", "count_points": 2, "latitude": 50.35664, "longitude": 34.82449, "city": "Okhtyrka", "images": []}, {"id": 477499, "min_date": "2021-07-01T10:18:00Z", "max_date": "2021-07-01T10:18:00Z", "count_points": 2, "latitude": 51.03482, "longitude": 30.6944, "city": "Desna", "images": []}, {"id": 477500, "min_date": "2021-07-01T10:18:00Z", "max_date": "2021-07-01T10:18:00Z", "count_points": 1, "latitude": 51.00331, "longitude": 34.76218, "city": "Sumy", "images": []}, {"id": 477501, "min_date": "2021-07-01T22:30:00Z", "max_date": "2021-07-01T23:24:00Z", "count_points": 4, "latitude": 49.56349, "longitude": 34.29195, "city": "Reshetylivka", "images": []}, {"id": 477502, "min_date": "2021-07-01T22:30:00Z", "max_date": "2021-07-01T22:30:00Z", "count_points": 1, "latitude": 48.82291, "longitude": 38.56404, "city": "Toshkivka", "images": []}, {"id": 477503, "min_date": "2021-07-02T00:12:00Z", "max_date": "2021-07-04T00:24:00Z", "count_points": 5, "latitude": 49.49429, "longitude": 36.74284, "city": "Balakliya", "images": []}, {"id": 477504, "min_date": "2021-07-02T10:00:00Z", "max_date": "2021-07-02T10:00:00Z", "count_points": 1, "latitude": 48.73589, "longitude": 33.7832, "city": "Lykhivka", "images": []}, {"id": 477505, "min_date": "2021-07-02T10:00:00Z", "max_date": "2021-07-02T10:00:00Z", "count_points": 1, "latitude": 48.53033, "longitude": 37.79586, "city": "Chasiv Yar", "images": []}, {"id": 477506, "min_date": "2021-07-02T10:00:00Z", "max_date": "2021-07-02T10:48:00Z", "count_points": 3, "latitude": 48.99373, "longitude": 34.88133, "city": "Mahdalynivka", "images": []}, {"id": 477507, "min_date": "2021-07-02T10:00:00Z", "max_date": "2021-07-02T10:00:00Z", "count_points": 1, "latitude": 48.32396, "longitude": 35.70253, "city": "Synel\u2019nykove", "images": []}, {"id": 477508, "min_date": "2021-07-02T10:00:00Z", "max_date": "2021-07-02T10:00:00Z", "count_points": 1, "latitude": 50.80371, "longitude": 34.94072, "city": "Verkhnya Syrovatka", "images": []}, {"id": 477509, "min_date": "2021-07-03T11:18:00Z", "max_date": "2021-07-03T11:18:00Z", "count_points": 4, "latitude": 46.24395, "longitude": 34.57112, "city": "Novooleksiyivka", "images": []}, {"id": 477510, "min_date": "2021-07-03T11:18:00Z", "max_date": "2021-07-03T10:30:00Z", "count_points": 4, "latitude": 46.605, "longitude": 33.67962, "city": "Lyubymivka", "images": []}, {"id": 477511, "min_date": "2021-07-04T09:24:00Z", "max_date": "2021-07-04T09:24:00Z", "count_points": 1, "latitude": 49.57678, "longitude": 35.23341, "city": "Varvarivka", "images": []}, {"id": 477512, "min_date": "2021-07-04T11:00:00Z", "max_date": "2021-07-04T11:00:00Z", "count_points": 1, "latitude": 48.51495, "longitude": 27.47086, "city": "Sokyryany", "images": []}, {"id": 477513, "min_date": "2021-07-04T23:18:00Z", "max_date": "2021-07-04T22:24:00Z", "count_points": 2, "latitude": 49.53204, "longitude": 37.72343, "city": "Kivsharivka", "images": []}, {"id": 477514, "min_date": "2021-07-04T23:18:00Z", "max_date": "2021-07-04T23:18:00Z", "count_points": 2, "latitude": 51.22097, "longitude": 25.6349, "city": "Manevychi", "images": []}, {"id": 477515, "min_date": "2021-06-28T10:24:00Z", "max_date": "2021-06-28T10:24:00Z", "count_points": 1, "latitude": 46.79905, "longitude": 35.42397, "city": "Kostyantynivka", "images": []}, {"id": 477516, "min_date": "2021-06-29T00:18:00Z", "max_date": "2021-06-29T00:18:00Z", "count_points": 1, "latitude": 49.79473, "longitude": 26.41519, "city": "Teofipol", "images": []}, {"id": 477517, "min_date": "2021-06-29T00:18:00Z", "max_date": "2021-06-29T00:18:00Z", "count_points": 4, "latitude": 50.31407, "longitude": 30.29928, "city": "Boyarka", "images": []}, {"id": 477518, "min_date": "2021-06-29T00:18:00Z", "max_date": "2021-06-29T00:18:00Z", "count_points": 1, "latitude": 48.8239, "longitude": 26.15255, "city": "Skala-Podil\u2019s\u2019ka", "images": []}, {"id": 477519, "min_date": "2021-06-29T10:06:00Z", "max_date": "2021-06-29T10:06:00Z", "count_points": 1, "latitude": 47.84, "longitude": 32.64938, "city": "Ustynivka", "images": []}, {"id": 477520, "min_date": "2021-06-29T10:06:00Z", "max_date": "2021-06-29T10:06:00Z", "count_points": 2, "latitude": 50.2839, "longitude": 27.32134, "city": "Poninka", "images": []}, {"id": 477521, "min_date": "2021-06-29T10:06:00Z", "max_date": "2021-06-29T10:06:00Z", "count_points": 1, "latitude": 45.50874, "longitude": 34.20314, "city": "Klepinino", "images": []}, {"id": 477522, "min_date": "2021-06-29T11:48:00Z", "max_date": "2021-06-29T11:48:00Z", "count_points": 1, "latitude": 48.11068, "longitude": 29.88191, "city": "Peschana", "images": []}, {"id": 477523, "min_date": "2021-06-29T22:18:00Z", "max_date": "2021-06-29T22:18:00Z", "count_points": 1, "latitude": 48.114, "longitude": 38.91739, "city": "Krasnyy Luch", "images": []}, {"id": 477524, "min_date": "2021-06-30T00:00:00Z", "max_date": "2021-06-30T00:00:00Z", "count_points": 2, "latitude": 49.91845, "longitude": 28.55966, "city": "Hryshkivtsi", "images": []}, {"id": 477525, "min_date": "2021-06-30T09:48:00Z", "max_date": "2021-06-30T09:48:00Z", "count_points": 1, "latitude": 49.34769, "longitude": 38.52226, "city": "Bilokurakyne", "images": []}, {"id": 477526, "min_date": "2021-06-30T11:30:00Z", "max_date": "2021-06-30T11:30:00Z", "count_points": 1, "latitude": 51.61408, "longitude": 26.62072, "city": "Dubrovytsya", "images": []}, {"id": 477527, "min_date": "2021-06-30T23:42:00Z", "max_date": "2021-06-30T23:42:00Z", "count_points": 1, "latitude": 49.83592, "longitude": 36.65926, "city": "Chuhuyiv", "images": []}, {"id": 477528, "min_date": "2021-07-01T09:30:00Z", "max_date": "2021-07-01T09:30:00Z", "count_points": 1, "latitude": 49.95348, "longitude": 38.23547, "city": "Troyits\u2019ke", "images": []}, {"id": 477529, "min_date": "2021-07-01T11:06:00Z", "max_date": "2021-07-01T11:06:00Z", "count_points": 1, "latitude": 49.91609, "longitude": 28.60301, "city": "Berdychiv", "images": []}, {"id": 477530, "min_date": "2021-07-02T01:00:00Z", "max_date": "2021-07-02T01:00:00Z", "count_points": 1, "latitude": 50.60166, "longitude": 30.89375, "city": "Velyka Dymerka", "images": []}, {"id": 477531, "min_date": "2021-07-02T23:06:00Z", "max_date": "2021-07-02T23:06:00Z", "count_points": 1, "latitude": 48.35454, "longitude": 28.54973, "city": "Klembivka", "images": []}, {"id": 477532, "min_date": "2021-07-03T10:30:00Z", "max_date": "2021-07-03T10:30:00Z", "count_points": 3, "latitude": 46.9209, "longitude": 32.30595, "city": "Shevchenkove", "images": []}, {"id": 477533, "min_date": "2021-07-03T10:30:00Z", "max_date": "2021-07-03T10:30:00Z", "count_points": 1, "latitude": 49.2854, "longitude": 32.34939, "city": "Chervona Sloboda", "images": []}, {"id": 477534, "min_date": "2021-07-03T10:30:00Z", "max_date": "2021-07-03T10:30:00Z", "count_points": 2, "latitude": 47.1553, "longitude": 36.20804, "city": "Chernihivka", "images": []}, {"id": 477535, "min_date": "2021-07-04T10:12:00Z", "max_date": "2021-07-04T10:12:00Z", "count_points": 1, "latitude": 50.02682, "longitude": 32.22523, "city": "Drabiv", "images": []}, {"id": 477536, "min_date": "2021-07-04T10:12:00Z", "max_date": "2021-07-04T10:12:00Z", "count_points": 1, "latitude": 49.88649, "longitude": 32.11631, "city": "Drabiv", "images": []}, {"id": 477537, "min_date": "2021-07-04T10:12:00Z", "max_date": "2021-07-04T10:12:00Z", "count_points": 1, "latitude": 51.18392, "longitude": 33.6318, "city": "Sloboda", "images": []}, {"id": 477538, "min_date": "2021-07-04T10:12:00Z", "max_date": "2021-07-04T10:12:00Z", "count_points": 1, "latitude": 49.12557, "longitude": 32.06627, "city": "Kamianka", "images": []}, {"id": 477539, "min_date": "2021-07-04T10:12:00Z", "max_date": "2021-07-04T10:12:00Z", "count_points": 1, "latitude": 49.67182, "longitude": 36.54608, "city": "Komsomol\u2019s\u2019ke", "images": []}]