[{"id": 477201, "min_date": "2021-06-08T09:10:00Z", "max_date": "2021-06-08T09:10:00Z", "count_points": 1, "latitude": 50.486, "longitude": 26.868, "city": "Velyki Mezhyrichi", "images": []}, {"id": 477202, "min_date": "2021-06-08T09:10:00Z", "max_date": "2021-06-08T09:10:00Z", "count_points": 1, "latitude": 49.767, "longitude": 25.768, "city": "Zbarazh", "images": []}, {"id": 477203, "min_date": "2021-06-08T09:10:00Z", "max_date": "2021-06-08T09:10:00Z", "count_points": 1, "latitude": 49.991, "longitude": 24.705, "city": "Bus\u2019k", "images": []}, {"id": 477204, "min_date": "2021-06-08T09:10:00Z", "max_date": "2021-06-08T09:10:00Z", "count_points": 1, "latitude": 47.504, "longitude": 29.531, "city": "Okny", "images": []}, {"id": 477205, "min_date": "2021-06-08T10:55:00Z", "max_date": "2021-06-08T10:55:00Z", "count_points": 1, "latitude": 49.59, "longitude": 31.198, "city": "Korsun-Shevchenkivskyi", "images": []}, {"id": 477206, "min_date": "2021-06-08T10:55:00Z", "max_date": "2021-06-08T10:55:00Z", "count_points": 1, "latitude": 47.066, "longitude": 32.139, "city": "Mykolayiv", "images": []}, {"id": 477207, "min_date": "2021-06-09T08:10:00Z", "max_date": "2021-06-09T08:10:00Z", "count_points": 1, "latitude": 50.445, "longitude": 35.402, "city": "Velyka Pysarivka", "images": []}, {"id": 477208, "min_date": "2021-06-09T08:15:00Z", "max_date": "2021-06-09T08:15:00Z", "count_points": 1, "latitude": 49.457, "longitude": 37.245, "city": "Savyntsi", "images": []}, {"id": 477209, "min_date": "2021-06-09T09:50:00Z", "max_date": "2021-06-09T09:50:00Z", "count_points": 1, "latitude": 48.336, "longitude": 28.334, "city": "Klembivka", "images": []}, {"id": 477210, "min_date": "2021-06-09T10:00:00Z", "max_date": "2021-06-09T10:00:00Z", "count_points": 1, "latitude": 50.149, "longitude": 36.018, "city": "Derhachi", "images": []}, {"id": 477211, "min_date": "2021-06-10T08:55:00Z", "max_date": "2021-06-10T08:55:00Z", "count_points": 1, "latitude": 47.444, "longitude": 34.745, "city": "Energodar", "images": []}, {"id": 477212, "min_date": "2021-06-10T08:55:00Z", "max_date": "2021-06-10T08:55:00Z", "count_points": 1, "latitude": 50.063, "longitude": 35.053, "city": "Krasnokuts\u2019k", "images": []}, {"id": 477213, "min_date": "2021-06-10T08:55:00Z", "max_date": "2021-06-10T08:55:00Z", "count_points": 1, "latitude": 49.4, "longitude": 39.319, "city": "Novopskov", "images": []}, {"id": 477214, "min_date": "2021-06-10T10:40:00Z", "max_date": "2021-06-10T10:40:00Z", "count_points": 1, "latitude": 46.961, "longitude": 31.694, "city": "Olshanskoye", "images": []}, {"id": 477215, "min_date": "2021-06-10T10:40:00Z", "max_date": "2021-06-10T10:40:00Z", "count_points": 1, "latitude": 45.477, "longitude": 32.946, "city": "Krasnaya Polyana", "images": []}, {"id": 477216, "min_date": "2021-06-10T10:40:00Z", "max_date": "2021-06-10T10:40:00Z", "count_points": 1, "latitude": 46.848, "longitude": 33.352, "city": "Beryslav", "images": []}, {"id": 477217, "min_date": "2021-06-10T10:45:00Z", "max_date": "2021-06-10T10:45:00Z", "count_points": 1, "latitude": 51.24, "longitude": 31.97, "city": "Nizhyn", "images": []}, {"id": 477218, "min_date": "2021-06-10T10:45:00Z", "max_date": "2021-06-10T10:45:00Z", "count_points": 1, "latitude": 50.285, "longitude": 37.559, "city": "Prykolotne", "images": []}, {"id": 477219, "min_date": "2021-06-10T10:45:00Z", "max_date": "2021-06-10T10:45:00Z", "count_points": 1, "latitude": 51.073, "longitude": 32.037, "city": "Kruty", "images": []}, {"id": 477220, "min_date": "2021-06-11T11:25:00Z", "max_date": "2021-06-11T11:25:00Z", "count_points": 1, "latitude": 49.339, "longitude": 29.002, "city": "Lypovets", "images": []}, {"id": 477221, "min_date": "2021-06-12T08:45:00Z", "max_date": "2021-06-12T08:45:00Z", "count_points": 1, "latitude": 46.153, "longitude": 29.485, "city": "Artsyz", "images": []}, {"id": 477222, "min_date": "2021-06-12T08:45:00Z", "max_date": "2021-06-12T08:45:00Z", "count_points": 1, "latitude": 48.077, "longitude": 29.63, "city": "Peschana", "images": []}, {"id": 477223, "min_date": "2021-06-12T10:30:00Z", "max_date": "2021-06-12T10:30:00Z", "count_points": 1, "latitude": 48.599, "longitude": 29.164, "city": "Ladyzhyn", "images": []}, {"id": 477224, "min_date": "2021-06-07T23:24:00Z", "max_date": "2021-06-07T23:24:00Z", "count_points": 1, "latitude": 50.30617, "longitude": 33.90056, "city": "Hadyach", "images": []}, {"id": 477226, "min_date": "2021-06-08T01:06:00Z", "max_date": "2021-06-08T00:12:00Z", "count_points": 4, "latitude": 49.06271, "longitude": 24.29407, "city": "Kalush", "images": []}, {"id": 477227, "min_date": "2021-06-08T10:48:00Z", "max_date": "2021-06-08T23:54:00Z", "count_points": 4, "latitude": 49.91705, "longitude": 28.55911, "city": "Berdychiv", "images": []}, {"id": 477228, "min_date": "2021-06-08T10:48:00Z", "max_date": "2021-06-08T10:48:00Z", "count_points": 1, "latitude": 50.13028, "longitude": 26.06177, "city": "Shumsk", "images": []}, {"id": 477229, "min_date": "2021-06-08T10:48:00Z", "max_date": "2021-06-08T10:48:00Z", "count_points": 1, "latitude": 50.46892, "longitude": 25.81438, "city": "Dubno", "images": []}, {"id": 477230, "min_date": "2021-06-08T10:48:00Z", "max_date": "2021-06-09T09:42:00Z", "count_points": 3, "latitude": 49.15212, "longitude": 30.53426, "city": "Buky", "images": []}, {"id": 477231, "min_date": "2021-06-08T10:48:00Z", "max_date": "2021-06-08T10:48:00Z", "count_points": 1, "latitude": 50.63834, "longitude": 26.68993, "city": "Hoshcha", "images": []}, {"id": 477232, "min_date": "2021-06-08T10:48:00Z", "max_date": "2021-06-08T10:48:00Z", "count_points": 2, "latitude": 50.10581, "longitude": 27.54126, "city": "Polonne", "images": []}, {"id": 477234, "min_date": "2021-06-09T00:42:00Z", "max_date": "2021-06-08T23:54:00Z", "count_points": 2, "latitude": 49.93737, "longitude": 23.43067, "city": "Yavoriv", "images": []}, {"id": 477235, "min_date": "2021-06-09T00:42:00Z", "max_date": "2021-06-08T23:54:00Z", "count_points": 2, "latitude": 51.68087, "longitude": 25.3538, "city": "Lyubeshiv", "images": []}, {"id": 477236, "min_date": "2021-06-09T10:30:00Z", "max_date": "2021-06-09T10:30:00Z", "count_points": 1, "latitude": 50.30017, "longitude": 31.36142, "city": "Baryshivka", "images": []}, {"id": 477237, "min_date": "2021-06-09T10:30:00Z", "max_date": "2021-06-10T10:12:00Z", "count_points": 4, "latitude": 47.82579, "longitude": 34.51651, "city": "Chervonohryhorivka", "images": [{"image_url": "477237.jpg", "timestamp": "2021-06-10T10:12:00Z"}]}, {"id": 477238, "min_date": "2021-06-09T10:30:00Z", "max_date": "2021-06-09T10:30:00Z", "count_points": 1, "latitude": 49.28697, "longitude": 32.34616, "city": "Chervona Sloboda", "images": []}, {"id": 477239, "min_date": "2021-06-09T10:30:00Z", "max_date": "2021-06-09T10:30:00Z", "count_points": 1, "latitude": 48.15805, "longitude": 30.7016, "city": "Pobugskoye", "images": []}, {"id": 477240, "min_date": "2021-06-10T00:24:00Z", "max_date": "2021-06-10T00:24:00Z", "count_points": 1, "latitude": 47.97201, "longitude": 28.93085, "city": "Zagnitkiv", "images": []}, {"id": 477241, "min_date": "2021-06-10T10:12:00Z", "max_date": "2021-06-10T10:12:00Z", "count_points": 3, "latitude": 48.30799, "longitude": 22.72311, "city": "Velyki Berehy", "images": []}, {"id": 477242, "min_date": "2021-06-10T10:12:00Z", "max_date": "2021-06-10T10:12:00Z", "count_points": 1, "latitude": 49.44498, "longitude": 26.58773, "city": "Narkevychi", "images": []}, {"id": 477243, "min_date": "2021-06-10T10:12:00Z", "max_date": "2021-06-10T10:12:00Z", "count_points": 1, "latitude": 50.07815, "longitude": 36.61958, "city": "Staryy Saltiv", "images": []}, {"id": 477244, "min_date": "2021-06-10T10:12:00Z", "max_date": "2021-06-10T10:12:00Z", "count_points": 1, "latitude": 46.11607, "longitude": 30.35855, "city": "Shabo", "images": []}, {"id": 477245, "min_date": "2021-06-10T10:12:00Z", "max_date": "2021-06-10T10:12:00Z", "count_points": 1, "latitude": 50.03039, "longitude": 31.58518, "city": "Tsybli", "images": []}, {"id": 477246, "min_date": "2021-06-10T10:12:00Z", "max_date": "2021-06-10T10:12:00Z", "count_points": 1, "latitude": 49.60756, "longitude": 32.36645, "city": "Chornobay", "images": []}, {"id": 477247, "min_date": "2021-06-11T09:54:00Z", "max_date": "2021-06-11T09:54:00Z", "count_points": 1, "latitude": 47.45339, "longitude": 35.96199, "city": "Mala Tokmachka", "images": []}, {"id": 477248, "min_date": "2021-06-11T23:48:00Z", "max_date": "2021-06-11T23:48:00Z", "count_points": 1, "latitude": 48.74345, "longitude": 30.16474, "city": "Uman\u2019", "images": []}, {"id": 477249, "min_date": "2021-06-11T23:48:00Z", "max_date": "2021-06-11T23:48:00Z", "count_points": 1, "latitude": 50.48925, "longitude": 30.83747, "city": "Brovary", "images": []}, {"id": 477250, "min_date": "2021-06-11T23:48:00Z", "max_date": "2021-06-11T23:48:00Z", "count_points": 1, "latitude": 47.89375, "longitude": 33.92091, "city": "Sofiyivka", "images": []}, {"id": 477251, "min_date": "2021-06-12T01:30:00Z", "max_date": "2021-06-12T00:36:00Z", "count_points": 4, "latitude": 51.28297, "longitude": 26.09046, "city": "Volodymyrets\u2019", "images": []}, {"id": 477252, "min_date": "2021-06-12T11:12:00Z", "max_date": "2021-06-12T10:24:00Z", "count_points": 3, "latitude": 48.67458, "longitude": 29.52054, "city": "Haisyn", "images": []}, {"id": 477253, "min_date": "2021-06-12T11:18:00Z", "max_date": "2021-06-12T11:18:00Z", "count_points": 1, "latitude": 50.53535, "longitude": 27.55513, "city": "Novohrad-Volynskyi", "images": []}, {"id": 477255, "min_date": "2021-06-12T23:30:00Z", "max_date": "2021-06-13T00:18:00Z", "count_points": 4, "latitude": 48.94752, "longitude": 32.49452, "city": "Yelyzavethradka", "images": []}, {"id": 477256, "min_date": "2021-06-12T23:30:00Z", "max_date": "2021-06-12T23:30:00Z", "count_points": 1, "latitude": 49.8894, "longitude": 36.42245, "city": "Kulynychi", "images": []}, {"id": 477257, "min_date": "2021-06-13T10:54:00Z", "max_date": "2021-06-13T10:54:00Z", "count_points": 2, "latitude": 50.05926, "longitude": 35.63063, "city": "Staryy Merchyk", "images": []}, {"id": 477258, "min_date": "2021-06-07T10:18:00Z", "max_date": "2021-06-07T10:18:00Z", "count_points": 1, "latitude": 48.73197, "longitude": 36.79402, "city": "Oleksandrivka", "images": []}, {"id": 477259, "min_date": "2021-06-07T10:18:00Z", "max_date": "2021-06-07T10:18:00Z", "count_points": 1, "latitude": 50.39724, "longitude": 27.09065, "city": "Shepetivka", "images": []}, {"id": 477260, "min_date": "2021-06-07T10:18:00Z", "max_date": "2021-06-07T10:18:00Z", "count_points": 1, "latitude": 50.69663, "longitude": 28.83275, "city": "Chopovychi", "images": []}, {"id": 477261, "min_date": "2021-06-07T10:18:00Z", "max_date": "2021-06-07T10:18:00Z", "count_points": 1, "latitude": 49.55678, "longitude": 29.70822, "city": "Skvyra", "images": []}, {"id": 477262, "min_date": "2021-06-07T10:18:00Z", "max_date": "2021-06-07T10:18:00Z", "count_points": 1, "latitude": 49.02092, "longitude": 37.30833, "city": "Studenok", "images": []}, {"id": 477263, "min_date": "2021-06-07T22:30:00Z", "max_date": "2021-06-07T22:30:00Z", "count_points": 2, "latitude": 50.22818, "longitude": 33.40055, "city": "Sencha", "images": []}, {"id": 477264, "min_date": "2021-06-08T10:00:00Z", "max_date": "2021-06-08T10:00:00Z", "count_points": 3, "latitude": 50.84907, "longitude": 24.99206, "city": "Ho\u0142oby", "images": []}, {"id": 477265, "min_date": "2021-06-08T11:42:00Z", "max_date": "2021-06-08T11:42:00Z", "count_points": 2, "latitude": 52.04708, "longitude": 33.77447, "city": "Yampil\u2019", "images": []}, {"id": 477266, "min_date": "2021-06-09T11:24:00Z", "max_date": "2021-06-09T11:24:00Z", "count_points": 1, "latitude": 50.22323, "longitude": 24.89052, "city": "Lopatyn", "images": []}, {"id": 477267, "min_date": "2021-06-09T11:24:00Z", "max_date": "2021-06-09T11:24:00Z", "count_points": 1, "latitude": 50.54277, "longitude": 25.04953, "city": "Berestechko", "images": []}, {"id": 477268, "min_date": "2021-06-09T23:36:00Z", "max_date": "2021-06-09T23:36:00Z", "count_points": 1, "latitude": 49.11113, "longitude": 23.7611, "city": "Bolekhiv", "images": []}, {"id": 477269, "min_date": "2021-06-12T00:36:00Z", "max_date": "2021-06-12T00:36:00Z", "count_points": 2, "latitude": 47.97857, "longitude": 33.51074, "city": "Kryvyi Rih", "images": []}, {"id": 477270, "min_date": "2021-06-12T10:24:00Z", "max_date": "2021-06-12T10:24:00Z", "count_points": 1, "latitude": 51.51307, "longitude": 32.19796, "city": "Mena", "images": []}, {"id": 477271, "min_date": "2021-06-12T10:24:00Z", "max_date": "2021-06-12T10:24:00Z", "count_points": 1, "latitude": 45.34401, "longitude": 28.79695, "city": "Broska", "images": []}, {"id": 477272, "min_date": "2021-06-13T00:18:00Z", "max_date": "2021-06-13T00:18:00Z", "count_points": 1, "latitude": 49.6396, "longitude": 34.35181, "city": "Poltava", "images": []}, {"id": 477273, "min_date": "2021-06-13T10:06:00Z", "max_date": "2021-06-13T10:06:00Z", "count_points": 1, "latitude": 48.66939, "longitude": 34.67287, "city": "Petrykivka", "images": []}, {"id": 477274, "min_date": "2021-06-13T10:06:00Z", "max_date": "2021-06-13T10:06:00Z", "count_points": 2, "latitude": 46.86066, "longitude": 34.89871, "city": "Vesele", "images": []}]