[{"id": 476048, "min_date": "2021-04-21T11:42:00Z", "max_date": "2021-04-21T11:42:00Z", "count_points": 1, "latitude": 50.37609, "longitude": 23.95179, "city": "Belz", "images": []}, {"id": 476049, "min_date": "2021-04-19T09:48:00Z", "max_date": "2021-04-19T10:36:00Z", "count_points": 11, "latitude": 49.30598, "longitude": 29.04672, "city": "Lypovets", "images": []}, {"id": 476050, "min_date": "2021-04-19T09:48:00Z", "max_date": "2021-04-19T09:23:00Z", "count_points": 3, "latitude": 50.36253, "longitude": 26.0311, "city": "Mizoch", "images": []}, {"id": 476051, "min_date": "2021-04-19T11:30:00Z", "max_date": "2021-04-19T09:23:00Z", "count_points": 4, "latitude": 50.68625, "longitude": 25.2025, "city": "Lutsk", "images": []}, {"id": 476052, "min_date": "2021-04-19T11:30:00Z", "max_date": "2021-04-19T11:30:00Z", "count_points": 1, "latitude": 48.97377, "longitude": 28.96923, "city": "Nemyriv", "images": []}, {"id": 476053, "min_date": "2021-04-19T11:30:00Z", "max_date": "2021-04-19T11:30:00Z", "count_points": 1, "latitude": 49.89713, "longitude": 28.64279, "city": "Berdychiv", "images": []}, {"id": 476054, "min_date": "2021-04-19T23:42:00Z", "max_date": "2021-04-19T23:42:00Z", "count_points": 1, "latitude": 49.97008, "longitude": 35.26306, "city": "Kolomak", "images": []}, {"id": 476055, "min_date": "2021-04-20T11:06:00Z", "max_date": "2021-04-20T11:06:00Z", "count_points": 1, "latitude": 48.4891, "longitude": 23.51924, "city": "Mizhhiria", "images": []}, {"id": 476056, "min_date": "2021-04-20T11:06:00Z", "max_date": "2021-04-20T11:06:00Z", "count_points": 1, "latitude": 48.73692, "longitude": 26.70805, "city": "Makiv", "images": []}, {"id": 476057, "min_date": "2021-04-20T23:24:00Z", "max_date": "2021-04-21T00:12:00Z", "count_points": 3, "latitude": 48.7439, "longitude": 30.16205, "city": "Uman\u2019", "images": []}, {"id": 476058, "min_date": "2021-04-21T01:00:00Z", "max_date": "2021-04-23T01:12:00Z", "count_points": 2, "latitude": 49.06928, "longitude": 24.29225, "city": "Kalush", "images": []}, {"id": 476059, "min_date": "2021-04-21T10:48:00Z", "max_date": "2021-04-21T11:42:00Z", "count_points": 2, "latitude": 48.91608, "longitude": 28.30811, "city": "Sutysky", "images": []}, {"id": 476060, "min_date": "2021-04-21T10:48:00Z", "max_date": "2021-04-21T10:48:00Z", "count_points": 1, "latitude": 51.83275, "longitude": 24.85941, "city": "Rakiv Lis", "images": []}, {"id": 476061, "min_date": "2021-04-21T10:48:00Z", "max_date": "2021-04-21T10:48:00Z", "count_points": 1, "latitude": 49.26662, "longitude": 24.5191, "city": "Burshtyn", "images": []}, {"id": 476062, "min_date": "2021-04-21T10:48:00Z", "max_date": "2021-04-21T10:57:00Z", "count_points": 8, "latitude": 46.72808, "longitude": 31.84516, "city": "Parutyne", "images": [{"image_url": "476062.jpg", "timestamp": "2021-04-21T10:57:00Z"}]}, {"id": 476063, "min_date": "2021-04-21T10:48:00Z", "max_date": "2021-04-21T10:48:00Z", "count_points": 1, "latitude": 48.87321, "longitude": 24.14392, "city": "Rozhnyativ", "images": []}, {"id": 476064, "min_date": "2021-04-21T10:48:00Z", "max_date": "2021-04-21T10:48:00Z", "count_points": 2, "latitude": 48.60591, "longitude": 22.3559, "city": "Onokivtsi", "images": []}, {"id": 476065, "min_date": "2021-04-21T10:48:00Z", "max_date": "2021-04-21T10:48:00Z", "count_points": 1, "latitude": 49.02033, "longitude": 24.41053, "city": "Kalush", "images": []}, {"id": 476066, "min_date": "2021-04-21T12:30:00Z", "max_date": "2021-04-21T12:30:00Z", "count_points": 3, "latitude": 48.50555, "longitude": 22.16027, "city": "Chop", "images": []}, {"id": 476067, "min_date": "2021-04-21T23:00:00Z", "max_date": "2021-04-21T23:54:00Z", "count_points": 5, "latitude": 50.17861, "longitude": 34.76001, "city": "Kotel\u2019va", "images": []}, {"id": 476068, "min_date": "2021-04-21T23:06:00Z", "max_date": "2021-04-21T23:06:00Z", "count_points": 1, "latitude": 48.52861, "longitude": 35.9096, "city": "Pavlohrad", "images": []}, {"id": 476069, "min_date": "2021-04-21T23:06:00Z", "max_date": "2021-04-24T22:54:00Z", "count_points": 7, "latitude": 49.49463, "longitude": 36.74373, "city": "Balakliya", "images": []}, {"id": 476070, "min_date": "2021-04-21T23:06:00Z", "max_date": "2021-04-21T23:06:00Z", "count_points": 2, "latitude": 46.33611, "longitude": 30.09013, "city": "Starokozache", "images": []}, {"id": 476071, "min_date": "2021-04-22T00:42:00Z", "max_date": "2021-04-22T00:42:00Z", "count_points": 1, "latitude": 49.80636, "longitude": 34.7842, "city": "Oposhnya", "images": []}, {"id": 476072, "min_date": "2021-04-22T10:30:00Z", "max_date": "2021-04-22T10:30:00Z", "count_points": 1, "latitude": 49.14321, "longitude": 30.69273, "city": "Lysyanka", "images": []}, {"id": 476073, "min_date": "2021-04-22T10:30:00Z", "max_date": "2021-04-22T10:30:00Z", "count_points": 1, "latitude": 49.30434, "longitude": 29.46626, "city": "Orativ", "images": []}, {"id": 476074, "min_date": "2021-04-22T10:30:00Z", "max_date": "2021-04-22T10:30:00Z", "count_points": 1, "latitude": 49.18358, "longitude": 24.72052, "city": "Bilshivtsi", "images": []}, {"id": 476075, "min_date": "2021-04-22T10:30:00Z", "max_date": "2021-04-22T10:30:00Z", "count_points": 1, "latitude": 51.35798, "longitude": 32.27481, "city": "Mena", "images": []}, {"id": 476076, "min_date": "2021-04-22T10:30:00Z", "max_date": "2021-04-22T11:18:00Z", "count_points": 3, "latitude": 49.38478, "longitude": 33.91588, "city": "Lutovynivka", "images": []}, {"id": 476077, "min_date": "2021-04-22T10:30:00Z", "max_date": "2021-04-22T09:42:00Z", "count_points": 4, "latitude": 49.54468, "longitude": 33.73523, "city": "Velyka Bahachka", "images": []}, {"id": 476078, "min_date": "2021-04-22T10:30:00Z", "max_date": "2021-04-22T10:30:00Z", "count_points": 1, "latitude": 49.17862, "longitude": 30.06066, "city": "Zhashkiv", "images": []}, {"id": 476079, "min_date": "2021-04-22T10:30:00Z", "max_date": "2021-04-22T10:30:00Z", "count_points": 2, "latitude": 48.39931, "longitude": 26.38901, "city": "Klishkivtsi", "images": []}, {"id": 476080, "min_date": "2021-04-22T10:30:00Z", "max_date": "2021-04-22T10:30:00Z", "count_points": 1, "latitude": 48.64246, "longitude": 34.49265, "city": "Auly", "images": []}, {"id": 476081, "min_date": "2021-04-22T10:30:00Z", "max_date": "2021-04-22T10:30:00Z", "count_points": 2, "latitude": 49.91278, "longitude": 29.54424, "city": "Popilnya", "images": []}, {"id": 476082, "min_date": "2021-04-22T10:30:00Z", "max_date": "2021-04-22T10:30:00Z", "count_points": 2, "latitude": 50.47525, "longitude": 33.05764, "city": "Lokhvytsya", "images": []}, {"id": 476083, "min_date": "2021-04-22T10:30:00Z", "max_date": "2021-04-22T10:30:00Z", "count_points": 1, "latitude": 48.86079, "longitude": 36.52272, "city": "Blyznyuky", "images": []}, {"id": 476084, "min_date": "2021-04-22T10:30:00Z", "max_date": "2021-04-22T10:30:00Z", "count_points": 2, "latitude": 50.71549, "longitude": 31.15404, "city": "Kozelets\u2019", "images": []}, {"id": 476085, "min_date": "2021-04-22T10:30:00Z", "max_date": "2021-04-22T10:30:00Z", "count_points": 1, "latitude": 48.65225, "longitude": 28.52057, "city": "Tomashpil\u2019", "images": []}, {"id": 476086, "min_date": "2021-04-22T10:30:00Z", "max_date": "2021-04-22T10:30:00Z", "count_points": 1, "latitude": 51.11399, "longitude": 31.61697, "city": "Nosivka", "images": []}, {"id": 476087, "min_date": "2021-04-22T10:30:00Z", "max_date": "2021-04-22T10:30:00Z", "count_points": 1, "latitude": 48.76883, "longitude": 31.98026, "city": "Kamianka", "images": []}, {"id": 476088, "min_date": "2021-04-22T10:30:00Z", "max_date": "2021-04-22T10:30:00Z", "count_points": 1, "latitude": 49.21648, "longitude": 30.55856, "city": "Kalynove", "images": []}, {"id": 476089, "min_date": "2021-04-22T22:42:00Z", "max_date": "2021-04-25T23:30:00Z", "count_points": 2, "latitude": 50.22631, "longitude": 33.33819, "city": "Sencha", "images": []}, {"id": 476090, "min_date": "2021-04-22T22:42:00Z", "max_date": "2021-04-22T23:36:00Z", "count_points": 2, "latitude": 49.55802, "longitude": 31.7204, "city": "Moshny", "images": []}, {"id": 476091, "min_date": "2021-04-23T00:24:00Z", "max_date": "2021-04-23T00:24:00Z", "count_points": 2, "latitude": 51.16085, "longitude": 33.61765, "city": "Sloboda", "images": []}, {"id": 476092, "min_date": "2021-04-23T00:24:00Z", "max_date": "2021-04-22T23:36:00Z", "count_points": 2, "latitude": 49.54078, "longitude": 32.70259, "city": "Orzhytsya", "images": []}, {"id": 476093, "min_date": "2021-04-23T10:12:00Z", "max_date": "2021-04-23T10:12:00Z", "count_points": 1, "latitude": 48.13337, "longitude": 36.76092, "city": "Mezhova", "images": []}, {"id": 476094, "min_date": "2021-04-23T10:12:00Z", "max_date": "2021-04-23T10:12:00Z", "count_points": 1, "latitude": 48.47282, "longitude": 38.86441, "city": "Pereval\u2019s\u2019k", "images": []}, {"id": 476095, "min_date": "2021-04-23T10:12:00Z", "max_date": "2021-04-23T10:12:00Z", "count_points": 1, "latitude": 49.13185, "longitude": 35.72667, "city": "Sakhnovshchyna", "images": []}, {"id": 476096, "min_date": "2021-04-23T10:12:00Z", "max_date": "2021-04-23T10:12:00Z", "count_points": 1, "latitude": 47.6544, "longitude": 38.11557, "city": "Starobesheve", "images": []}, {"id": 476097, "min_date": "2021-04-23T10:12:00Z", "max_date": "2021-04-23T10:12:00Z", "count_points": 1, "latitude": 48.65665, "longitude": 35.47163, "city": "Melioratyvne", "images": []}, {"id": 476098, "min_date": "2021-04-23T10:12:00Z", "max_date": "2021-04-23T10:45:00Z", "count_points": 2, "latitude": 49.02298, "longitude": 35.77133, "city": "Sakhnovshchyna", "images": []}, {"id": 476099, "min_date": "2021-04-23T10:12:00Z", "max_date": "2021-04-23T10:12:00Z", "count_points": 1, "latitude": 47.85583, "longitude": 35.0208, "city": "Zaporizhia", "images": []}, {"id": 476100, "min_date": "2021-04-23T10:12:00Z", "max_date": "2021-04-22T09:54:00Z", "count_points": 3, "latitude": 47.66518, "longitude": 33.37803, "city": "Shyroke", "images": []}, {"id": 476101, "min_date": "2021-04-23T10:12:00Z", "max_date": "2021-04-23T08:59:00Z", "count_points": 2, "latitude": 49.02707, "longitude": 35.81788, "city": "Sakhnovshchyna", "images": []}, {"id": 476102, "min_date": "2021-04-23T10:12:00Z", "max_date": "2021-04-23T09:18:00Z", "count_points": 2, "latitude": 48.74405, "longitude": 36.65125, "city": "Blyznyuky", "images": []}, {"id": 476103, "min_date": "2021-04-23T10:12:00Z", "max_date": "2021-04-23T10:12:00Z", "count_points": 1, "latitude": 48.97159, "longitude": 35.69255, "city": "Sakhnovshchyna", "images": []}, {"id": 476104, "min_date": "2021-04-23T10:12:00Z", "max_date": "2021-04-23T10:12:00Z", "count_points": 2, "latitude": 47.86274, "longitude": 33.52484, "city": "Kryvyi Rih", "images": []}, {"id": 476105, "min_date": "2021-04-23T11:54:00Z", "max_date": "2021-04-23T11:54:00Z", "count_points": 2, "latitude": 48.55248, "longitude": 25.66405, "city": "Verenchanka", "images": []}, {"id": 476106, "min_date": "2021-04-24T00:06:00Z", "max_date": "2021-04-24T00:54:00Z", "count_points": 3, "latitude": 49.26289, "longitude": 28.48577, "city": "Vinnytsia", "images": []}, {"id": 476107, "min_date": "2021-04-24T09:54:00Z", "max_date": "2021-04-24T09:54:00Z", "count_points": 3, "latitude": 46.91163, "longitude": 36.74897, "city": "Osypenko", "images": []}, {"id": 476108, "min_date": "2021-04-24T09:54:00Z", "max_date": "2021-04-25T10:24:00Z", "count_points": 2, "latitude": 49.67003, "longitude": 34.30172, "city": "Reshetylivka", "images": []}, {"id": 476109, "min_date": "2021-04-24T09:54:00Z", "max_date": "2021-04-24T09:54:00Z", "count_points": 2, "latitude": 48.39043, "longitude": 37.80587, "city": "Shcherbynivka", "images": []}, {"id": 476110, "min_date": "2021-04-24T09:54:00Z", "max_date": "2021-04-24T09:54:00Z", "count_points": 1, "latitude": 47.16069, "longitude": 37.65265, "city": "Sartana", "images": []}, {"id": 476111, "min_date": "2021-04-24T09:54:00Z", "max_date": "2021-04-24T09:54:00Z", "count_points": 1, "latitude": 50.45028, "longitude": 26.72671, "city": "Netishyn", "images": []}, {"id": 476112, "min_date": "2021-04-24T09:54:00Z", "max_date": "2021-04-24T09:54:00Z", "count_points": 1, "latitude": 47.8035, "longitude": 38.30954, "city": "Kuteynykove", "images": []}, {"id": 476113, "min_date": "2021-04-24T11:30:00Z", "max_date": "2021-04-24T11:27:00Z", "count_points": 2, "latitude": 45.63018, "longitude": 34.34038, "city": "Yarkoye Pole", "images": []}, {"id": 476114, "min_date": "2021-04-24T11:36:00Z", "max_date": "2021-04-22T09:42:00Z", "count_points": 4, "latitude": 49.31112, "longitude": 30.97586, "city": "Stebl\u00ebv", "images": []}, {"id": 476115, "min_date": "2021-04-24T11:36:00Z", "max_date": "2021-04-24T10:42:00Z", "count_points": 9, "latitude": 51.16751, "longitude": 31.35455, "city": "Olyshivka", "images": []}, {"id": 476116, "min_date": "2021-04-24T11:36:00Z", "max_date": "2021-04-24T11:36:00Z", "count_points": 1, "latitude": 50.26937, "longitude": 30.55914, "city": "Khotiv", "images": []}, {"id": 476117, "min_date": "2021-04-24T11:36:00Z", "max_date": "2021-04-24T11:36:00Z", "count_points": 1, "latitude": 47.55836, "longitude": 37.45335, "city": "Volnovakha", "images": []}, {"id": 476118, "min_date": "2021-04-24T22:06:00Z", "max_date": "2021-04-24T22:54:00Z", "count_points": 6, "latitude": 48.94637, "longitude": 38.40058, "city": "Lysychans\u2019k", "images": []}, {"id": 476119, "min_date": "2021-04-24T23:48:00Z", "max_date": "2021-04-24T23:48:00Z", "count_points": 1, "latitude": 50.06139, "longitude": 35.63178, "city": "Bohodukhiv", "images": []}, {"id": 476120, "min_date": "2021-04-24T23:48:00Z", "max_date": "2021-04-24T23:48:00Z", "count_points": 1, "latitude": 49.24419, "longitude": 30.31525, "city": "Buky", "images": []}, {"id": 476121, "min_date": "2021-04-25T01:24:00Z", "max_date": "2021-04-25T01:24:00Z", "count_points": 1, "latitude": 50.81576, "longitude": 29.91467, "city": "Ivankiv", "images": []}, {"id": 476122, "min_date": "2021-04-25T09:36:00Z", "max_date": "2021-04-25T10:24:00Z", "count_points": 2, "latitude": 48.27401, "longitude": 38.25595, "city": "Vuhlehirs\u2019k", "images": []}, {"id": 476123, "min_date": "2021-04-25T09:36:00Z", "max_date": "2021-04-25T09:36:00Z", "count_points": 2, "latitude": 47.40108, "longitude": 33.18984, "city": "Velyka Oleksandrivka", "images": []}, {"id": 476124, "min_date": "2021-04-25T09:36:00Z", "max_date": "2021-04-25T11:18:00Z", "count_points": 2, "latitude": 51.20195, "longitude": 31.21927, "city": "Olyshivka", "images": []}, {"id": 476125, "min_date": "2021-04-25T09:36:00Z", "max_date": "2021-04-25T10:32:00Z", "count_points": 4, "latitude": 49.30148, "longitude": 39.96265, "city": "Milove", "images": []}, {"id": 476126, "min_date": "2021-04-25T09:36:00Z", "max_date": "2021-04-25T09:36:00Z", "count_points": 1, "latitude": 48.18854, "longitude": 39.56507, "city": "Krasnodon", "images": []}, {"id": 476127, "min_date": "2021-04-25T09:36:00Z", "max_date": "2021-04-25T10:24:00Z", "count_points": 2, "latitude": 48.13566, "longitude": 37.90359, "city": "Yasynuvata", "images": []}, {"id": 476128, "min_date": "2021-04-25T09:36:00Z", "max_date": "2021-04-25T09:36:00Z", "count_points": 1, "latitude": 48.94607, "longitude": 36.34012, "city": "Lozova", "images": []}, {"id": 476129, "min_date": "2021-04-25T09:36:00Z", "max_date": "2021-04-25T08:47:00Z", "count_points": 2, "latitude": 47.30012, "longitude": 36.76676, "city": "Komysh-Zorya", "images": []}, {"id": 476130, "min_date": "2021-04-25T09:36:00Z", "max_date": "2021-04-25T09:36:00Z", "count_points": 1, "latitude": 49.66282, "longitude": 38.49263, "city": "Pavlivka", "images": []}, {"id": 476131, "min_date": "2021-04-25T09:36:00Z", "max_date": "2021-04-25T10:24:00Z", "count_points": 2, "latitude": 47.1139, "longitude": 34.12964, "city": "Velyka Lepetykha", "images": []}, {"id": 476132, "min_date": "2021-04-25T11:12:00Z", "max_date": "2021-04-25T10:32:00Z", "count_points": 4, "latitude": 47.25666, "longitude": 37.25281, "city": "Volodars\u2019ke", "images": []}, {"id": 476133, "min_date": "2021-04-25T11:12:00Z", "max_date": "2021-04-25T11:12:00Z", "count_points": 1, "latitude": 48.24961, "longitude": 33.47567, "city": "Zhovti Vody", "images": []}, {"id": 476134, "min_date": "2021-04-25T11:12:00Z", "max_date": "2021-04-25T11:12:00Z", "count_points": 1, "latitude": 49.91254, "longitude": 35.14992, "city": "Krasnokuts\u2019k", "images": []}, {"id": 476135, "min_date": "2021-04-25T11:12:00Z", "max_date": "2021-04-25T11:12:00Z", "count_points": 2, "latitude": 47.70757, "longitude": 38.33151, "city": "Kuteynykove", "images": []}, {"id": 476136, "min_date": "2021-04-25T11:12:00Z", "max_date": "2021-04-25T11:12:00Z", "count_points": 1, "latitude": 48.139, "longitude": 34.27536, "city": "Krynychky", "images": []}, {"id": 476137, "min_date": "2021-04-25T11:12:00Z", "max_date": "2021-04-25T11:12:00Z", "count_points": 1, "latitude": 45.45171, "longitude": 29.42278, "city": "Shevchenkove", "images": []}, {"id": 476138, "min_date": "2021-04-25T11:12:00Z", "max_date": "2021-04-25T11:12:00Z", "count_points": 1, "latitude": 45.74858, "longitude": 34.42564, "city": "Izumrudnoye", "images": []}, {"id": 476139, "min_date": "2021-04-25T11:18:00Z", "max_date": "2021-04-25T10:24:00Z", "count_points": 3, "latitude": 51.32819, "longitude": 26.1646, "city": "Volodymyrets\u2019", "images": []}, {"id": 476140, "min_date": "2021-04-25T11:18:00Z", "max_date": "2021-04-25T10:24:00Z", "count_points": 4, "latitude": 50.28312, "longitude": 37.22754, "city": "Prykolotne", "images": []}, {"id": 476141, "min_date": "2021-04-25T11:18:00Z", "max_date": "2021-04-25T11:18:00Z", "count_points": 1, "latitude": 51.20868, "longitude": 27.88874, "city": "Novi Bilokorovychi", "images": []}, {"id": 476142, "min_date": "2021-04-25T11:18:00Z", "max_date": "2021-04-25T11:18:00Z", "count_points": 1, "latitude": 51.10558, "longitude": 32.24228, "city": "Kruty", "images": []}, {"id": 476143, "min_date": "2021-04-25T23:30:00Z", "max_date": "2021-04-25T23:30:00Z", "count_points": 1, "latitude": 47.81283, "longitude": 37.46569, "city": "Blahodatne", "images": []}, {"id": 476144, "min_date": "2021-04-25T23:30:00Z", "max_date": "2021-04-25T23:30:00Z", "count_points": 3, "latitude": 48.75758, "longitude": 39.02339, "city": "Tr\u2019okhizbenka", "images": []}, {"id": 476145, "min_date": "2021-04-19T00:48:00Z", "max_date": "2021-04-19T00:48:00Z", "count_points": 1, "latitude": 50.30055, "longitude": 33.84575, "city": "Hadyach", "images": []}, {"id": 476146, "min_date": "2021-04-19T10:36:00Z", "max_date": "2021-04-19T10:36:00Z", "count_points": 1, "latitude": 49.98215, "longitude": 27.5416, "city": "Novoselytsya", "images": []}, {"id": 476147, "min_date": "2021-04-19T10:36:00Z", "max_date": "2021-04-19T10:36:00Z", "count_points": 2, "latitude": 49.42944, "longitude": 38.1564, "city": "Svatove", "images": []}, {"id": 476148, "min_date": "2021-04-19T10:36:00Z", "max_date": "2021-04-19T10:36:00Z", "count_points": 1, "latitude": 49.48169, "longitude": 32.77974, "city": "Orzhytsya", "images": []}, {"id": 476149, "min_date": "2021-04-19T10:36:00Z", "max_date": "2021-04-19T10:36:00Z", "count_points": 1, "latitude": 49.59374, "longitude": 27.22291, "city": "Starokostiantyniv", "images": []}, {"id": 476150, "min_date": "2021-04-19T10:36:00Z", "max_date": "2021-04-19T10:36:00Z", "count_points": 1, "latitude": 49.51104, "longitude": 26.82786, "city": "Narkevychi", "images": []}, {"id": 476151, "min_date": "2021-04-19T10:36:00Z", "max_date": "2021-04-19T10:36:00Z", "count_points": 1, "latitude": 50.47282, "longitude": 25.2631, "city": "Demydivka", "images": []}, {"id": 476152, "min_date": "2021-04-19T10:36:00Z", "max_date": "2021-04-19T10:36:00Z", "count_points": 1, "latitude": 49.53497, "longitude": 28.32313, "city": "Pavlovka", "images": []}, {"id": 476153, "min_date": "2021-04-19T22:48:00Z", "max_date": "2021-04-19T22:48:00Z", "count_points": 1, "latitude": 49.64646, "longitude": 39.31344, "city": "Novopskov", "images": []}, {"id": 476154, "min_date": "2021-04-20T10:18:00Z", "max_date": "2021-04-20T10:18:00Z", "count_points": 1, "latitude": 49.1796, "longitude": 28.14631, "city": "Brailiv", "images": []}, {"id": 476155, "min_date": "2021-04-20T10:18:00Z", "max_date": "2021-04-20T10:18:00Z", "count_points": 1, "latitude": 49.75251, "longitude": 25.81591, "city": "Zbarazh", "images": []}, {"id": 476156, "min_date": "2021-04-20T10:18:00Z", "max_date": "2021-04-20T10:18:00Z", "count_points": 1, "latitude": 50.38629, "longitude": 26.13408, "city": "Mizoch", "images": []}, {"id": 476157, "min_date": "2021-04-20T12:00:00Z", "max_date": "2021-04-20T12:00:00Z", "count_points": 1, "latitude": 48.01059, "longitude": 23.60164, "city": "Tyachiv", "images": []}, {"id": 476158, "min_date": "2021-04-20T12:00:00Z", "max_date": "2021-04-20T12:00:00Z", "count_points": 1, "latitude": 49.44399, "longitude": 23.68959, "city": "Medenychi", "images": []}, {"id": 476159, "min_date": "2021-04-21T10:00:00Z", "max_date": "2021-04-21T10:58:00Z", "count_points": 4, "latitude": 49.19586, "longitude": 24.23172, "city": "Broshniv-Osada", "images": []}, {"id": 476160, "min_date": "2021-04-21T11:36:00Z", "max_date": "2021-04-21T11:36:00Z", "count_points": 1, "latitude": 47.10403, "longitude": 31.66483, "city": "Olshanskoye", "images": []}, {"id": 476161, "min_date": "2021-04-21T11:42:00Z", "max_date": "2021-04-21T11:42:00Z", "count_points": 1, "latitude": 49.10727, "longitude": 31.68528, "city": "Tsvetkovo", "images": []}, {"id": 476162, "min_date": "2021-04-21T11:42:00Z", "max_date": "2021-04-21T11:42:00Z", "count_points": 1, "latitude": 49.32362, "longitude": 26.19371, "city": "Hrymayliv", "images": []}, {"id": 476163, "min_date": "2021-04-21T11:42:00Z", "max_date": "2021-04-21T11:42:00Z", "count_points": 2, "latitude": 49.5298, "longitude": 23.72716, "city": "Komarno", "images": []}, {"id": 476164, "min_date": "2021-04-21T23:54:00Z", "max_date": "2021-04-21T23:54:00Z", "count_points": 1, "latitude": 50.01217, "longitude": 34.06348, "city": "Velyki Sorochyntsi", "images": []}, {"id": 476165, "min_date": "2021-04-22T09:42:00Z", "max_date": "2021-04-22T09:42:00Z", "count_points": 3, "latitude": 47.17297, "longitude": 30.4537, "city": "Ivanivka", "images": []}, {"id": 476166, "min_date": "2021-04-22T09:42:00Z", "max_date": "2021-04-22T09:42:00Z", "count_points": 1, "latitude": 49.62959, "longitude": 35.80247, "city": "Nova Vodolaha", "images": []}, {"id": 476167, "min_date": "2021-04-22T09:42:00Z", "max_date": "2021-04-22T09:42:00Z", "count_points": 1, "latitude": 48.89539, "longitude": 35.20008, "city": "Hubynykha", "images": []}, {"id": 476168, "min_date": "2021-04-22T09:42:00Z", "max_date": "2021-04-22T09:42:00Z", "count_points": 1, "latitude": 50.66033, "longitude": 32.95891, "city": "Sribne", "images": []}, {"id": 476169, "min_date": "2021-04-22T11:18:00Z", "max_date": "2021-04-22T11:18:00Z", "count_points": 1, "latitude": 51.63919, "longitude": 34.01035, "city": "Hlukhiv", "images": []}, {"id": 476170, "min_date": "2021-04-22T11:18:00Z", "max_date": "2021-04-22T11:18:00Z", "count_points": 1, "latitude": 47.98111, "longitude": 29.76355, "city": "Balta", "images": []}, {"id": 476171, "min_date": "2021-04-22T11:18:00Z", "max_date": "2021-04-22T11:18:00Z", "count_points": 1, "latitude": 49.43867, "longitude": 29.73546, "city": "Tetiiv", "images": []}, {"id": 476172, "min_date": "2021-04-22T11:18:00Z", "max_date": "2021-04-22T11:18:00Z", "count_points": 1, "latitude": 48.85343, "longitude": 29.03444, "city": "Bratslav", "images": []}, {"id": 476173, "min_date": "2021-04-22T11:18:00Z", "max_date": "2021-04-22T11:18:00Z", "count_points": 1, "latitude": 48.54265, "longitude": 33.86805, "city": "Vyshneve", "images": []}, {"id": 476174, "min_date": "2021-04-22T11:18:00Z", "max_date": "2021-04-22T11:18:00Z", "count_points": 1, "latitude": 49.28669, "longitude": 26.9905, "city": "Khmelnytskyi", "images": []}, {"id": 476175, "min_date": "2021-04-22T11:18:00Z", "max_date": "2021-04-22T11:18:00Z", "count_points": 1, "latitude": 48.47836, "longitude": 22.21479, "city": "Chop", "images": []}, {"id": 476176, "min_date": "2021-04-23T09:18:00Z", "max_date": "2021-04-23T09:18:00Z", "count_points": 1, "latitude": 48.25694, "longitude": 34.27245, "city": "Krynychky", "images": []}, {"id": 476177, "min_date": "2021-04-23T09:18:00Z", "max_date": "2021-04-23T09:18:00Z", "count_points": 1, "latitude": 47.99982, "longitude": 34.87872, "city": "Solone", "images": []}, {"id": 476178, "min_date": "2021-04-23T09:18:00Z", "max_date": "2021-04-23T09:18:00Z", "count_points": 1, "latitude": 48.22642, "longitude": 36.52888, "city": "Mezhova", "images": []}, {"id": 476179, "min_date": "2021-04-24T00:54:00Z", "max_date": "2021-04-24T00:54:00Z", "count_points": 1, "latitude": 46.32771, "longitude": 30.55338, "city": "Oleksandrivka", "images": []}, {"id": 476180, "min_date": "2021-04-24T09:00:00Z", "max_date": "2021-04-24T09:00:00Z", "count_points": 2, "latitude": 46.76315, "longitude": 35.1623, "city": "Yakymivka", "images": []}, {"id": 476181, "min_date": "2021-04-24T10:42:00Z", "max_date": "2021-04-24T10:42:00Z", "count_points": 2, "latitude": 50.23592, "longitude": 24.49957, "city": "Staryy Dobrotvir", "images": []}, {"id": 476182, "min_date": "2021-04-24T10:42:00Z", "max_date": "2021-04-24T10:42:00Z", "count_points": 1, "latitude": 48.25217, "longitude": 22.73605, "city": "Velyki Berehy", "images": []}, {"id": 476183, "min_date": "2021-04-24T10:42:00Z", "max_date": "2021-04-24T10:42:00Z", "count_points": 1, "latitude": 48.689, "longitude": 31.13264, "city": "Lypnyazhka", "images": []}, {"id": 476184, "min_date": "2021-04-24T10:42:00Z", "max_date": "2021-04-24T10:42:00Z", "count_points": 2, "latitude": 52.04122, "longitude": 32.77425, "city": "Semenivka", "images": []}, {"id": 476185, "min_date": "2021-04-24T10:42:00Z", "max_date": "2021-04-24T10:42:00Z", "count_points": 1, "latitude": 49.90604, "longitude": 29.76851, "city": "Kozhanka", "images": []}, {"id": 476186, "min_date": "2021-04-24T10:42:00Z", "max_date": "2021-04-24T10:42:00Z", "count_points": 1, "latitude": 48.13824, "longitude": 26.23968, "city": "Novoselytsya", "images": []}, {"id": 476187, "min_date": "2021-04-24T10:42:00Z", "max_date": "2021-04-24T10:42:00Z", "count_points": 1, "latitude": 50.01474, "longitude": 24.00127, "city": "Zhovkva", "images": []}, {"id": 476188, "min_date": "2021-04-24T10:42:00Z", "max_date": "2021-04-24T10:42:00Z", "count_points": 1, "latitude": 50.91074, "longitude": 29.16167, "city": "Malyn", "images": []}, {"id": 476189, "min_date": "2021-04-24T22:54:00Z", "max_date": "2021-04-24T22:54:00Z", "count_points": 1, "latitude": 49.9916, "longitude": 31.75555, "city": "Tsybli", "images": []}, {"id": 476190, "min_date": "2021-04-24T22:54:00Z", "max_date": "2021-04-24T22:54:00Z", "count_points": 1, "latitude": 50.03109, "longitude": 35.33781, "city": "Huty", "images": []}, {"id": 476191, "min_date": "2021-04-25T08:42:00Z", "max_date": "2021-04-25T08:42:00Z", "count_points": 1, "latitude": 47.98944, "longitude": 37.99945, "city": "Makiyivka", "images": []}, {"id": 476192, "min_date": "2021-04-25T10:24:00Z", "max_date": "2021-04-25T10:24:00Z", "count_points": 2, "latitude": 49.28423, "longitude": 35.94002, "city": "Chapayeve", "images": []}, {"id": 476193, "min_date": "2021-04-25T10:24:00Z", "max_date": "2021-04-25T10:24:00Z", "count_points": 1, "latitude": 48.68309, "longitude": 25.96988, "city": "Borshchiv", "images": []}, {"id": 476194, "min_date": "2021-04-25T10:24:00Z", "max_date": "2021-04-25T10:32:00Z", "count_points": 3, "latitude": 48.21558, "longitude": 36.68744, "city": "Mezhova", "images": []}, {"id": 476195, "min_date": "2021-04-25T10:24:00Z", "max_date": "2021-04-25T10:24:00Z", "count_points": 1, "latitude": 48.61692, "longitude": 25.93631, "city": "Zastavna", "images": []}, {"id": 476196, "min_date": "2021-04-25T10:24:00Z", "max_date": "2021-04-25T10:24:00Z", "count_points": 1, "latitude": 50.60321, "longitude": 34.86331, "city": "Boromlya", "images": []}, {"id": 476197, "min_date": "2021-04-25T10:24:00Z", "max_date": "2021-04-25T10:24:00Z", "count_points": 1, "latitude": 48.63447, "longitude": 35.41833, "city": "Melioratyvne", "images": []}, {"id": 476198, "min_date": "2021-04-25T10:24:00Z", "max_date": "2021-04-25T10:24:00Z", "count_points": 1, "latitude": 50.07317, "longitude": 37.67224, "city": "Dvorichna", "images": []}, {"id": 476199, "min_date": "2021-04-25T10:24:00Z", "max_date": "2021-04-25T10:24:00Z", "count_points": 1, "latitude": 49.45599, "longitude": 32.82669, "city": "Orzhytsya", "images": []}, {"id": 476200, "min_date": "2021-04-25T10:24:00Z", "max_date": "2021-04-25T10:24:00Z", "count_points": 1, "latitude": 48.22165, "longitude": 38.99572, "city": "Krasnyy Luch", "images": []}, {"id": 476201, "min_date": "2021-04-25T10:24:00Z", "max_date": "2021-04-25T10:24:00Z", "count_points": 2, "latitude": 49.75289, "longitude": 35.67837, "city": "Valky", "images": []}, {"id": 476202, "min_date": "2021-04-25T10:24:00Z", "max_date": "2021-04-25T10:32:00Z", "count_points": 2, "latitude": 47.94545, "longitude": 38.81411, "city": "Zalesnoye", "images": []}, {"id": 476203, "min_date": "2021-04-25T10:24:00Z", "max_date": "2021-04-25T10:24:00Z", "count_points": 1, "latitude": 48.17721, "longitude": 36.72327, "city": "Mezhova", "images": []}, {"id": 476204, "min_date": "2021-04-25T10:24:00Z", "max_date": "2021-04-25T10:24:00Z", "count_points": 1, "latitude": 48.61908, "longitude": 28.94418, "city": "Tulchyn", "images": []}, {"id": 476205, "min_date": "2021-04-25T10:24:00Z", "max_date": "2021-04-25T10:24:00Z", "count_points": 2, "latitude": 48.7686, "longitude": 31.06017, "city": "Katerynopil", "images": []}, {"id": 476206, "min_date": "2021-04-25T10:24:00Z", "max_date": "2021-04-25T10:24:00Z", "count_points": 1, "latitude": 48.4018, "longitude": 25.6422, "city": "Sniatyn", "images": []}, {"id": 476207, "min_date": "2021-04-25T10:24:00Z", "max_date": "2021-04-25T10:32:00Z", "count_points": 2, "latitude": 48.90952, "longitude": 37.62197, "city": "Sloviansk", "images": []}, {"id": 476208, "min_date": "2021-04-19T09:23:00Z", "max_date": "2021-04-19T09:23:00Z", "count_points": 1, "latitude": 49.9332, "longitude": 29.6937, "city": "Kozhanka", "images": []}, {"id": 476209, "min_date": "2021-04-19T11:09:00Z", "max_date": "2021-04-19T11:09:00Z", "count_points": 2, "latitude": 48.7591, "longitude": 33.04085, "city": "Pryyutivka", "images": []}, {"id": 476210, "min_date": "2021-04-19T11:10:00Z", "max_date": "2021-04-19T11:10:00Z", "count_points": 2, "latitude": 49.63165, "longitude": 26.5007, "city": "Bazaliya", "images": []}, {"id": 476211, "min_date": "2021-04-21T10:57:00Z", "max_date": "2021-04-21T10:57:00Z", "count_points": 1, "latitude": 47.0392, "longitude": 29.83, "city": "Velyka Mykhaylivka", "images": []}, {"id": 476212, "min_date": "2021-04-22T10:02:00Z", "max_date": "2021-04-22T10:02:00Z", "count_points": 2, "latitude": 49.5557, "longitude": 38.70415, "city": "Bilokurakyne", "images": []}, {"id": 476213, "min_date": "2021-04-22T11:40:00Z", "max_date": "2021-04-22T11:40:00Z", "count_points": 1, "latitude": 47.9455, "longitude": 29.3516, "city": "Slobidka", "images": []}, {"id": 476214, "min_date": "2021-04-22T19:26:00Z", "max_date": "2021-04-22T19:26:00Z", "count_points": 2, "latitude": 50.4504, "longitude": 31.91985, "city": "Zgurovka", "images": []}, {"id": 476215, "min_date": "2021-04-23T10:45:00Z", "max_date": "2021-04-23T10:45:00Z", "count_points": 1, "latitude": 47.9622, "longitude": 34.257, "city": "Sholokhove", "images": []}, {"id": 476216, "min_date": "2021-04-23T10:45:00Z", "max_date": "2021-04-23T10:45:00Z", "count_points": 1, "latitude": 49.8678, "longitude": 36.8193, "city": "Kochetok", "images": []}, {"id": 476217, "min_date": "2021-04-23T10:45:00Z", "max_date": "2021-04-23T10:45:00Z", "count_points": 2, "latitude": 49.894, "longitude": 36.57735, "city": "Novopokrovka", "images": []}, {"id": 476218, "min_date": "2021-04-24T11:28:00Z", "max_date": "2021-04-24T11:28:00Z", "count_points": 1, "latitude": 49.9319, "longitude": 27.3777, "city": "Novoselytsya", "images": []}, {"id": 476219, "min_date": "2021-04-25T08:46:00Z", "max_date": "2021-04-25T08:46:00Z", "count_points": 1, "latitude": 49.1388, "longitude": 35.692, "city": "Kehychivka", "images": []}, {"id": 476220, "min_date": "2021-04-25T08:46:00Z", "max_date": "2021-04-25T08:46:00Z", "count_points": 1, "latitude": 48.4159, "longitude": 37.1549, "city": "Bilyts\u2019ke", "images": []}, {"id": 476221, "min_date": "2021-04-25T08:46:00Z", "max_date": "2021-04-25T08:46:00Z", "count_points": 1, "latitude": 48.5972, "longitude": 34.656, "city": "Kamianske", "images": []}, {"id": 476222, "min_date": "2021-04-25T08:46:00Z", "max_date": "2021-04-25T08:46:00Z", "count_points": 1, "latitude": 48.1267, "longitude": 37.0508, "city": "Krasnoarmiys\u2019k", "images": []}]