[{"id": 487433, "min_date": "2021-09-20T10:51:00Z", "max_date": "2021-09-20T10:51:00Z", "count_points": 1, "latitude": 45.67051, "longitude": 29.58878, "city": "Tatarbunary", "images": []}, {"id": 487434, "min_date": "2021-09-20T10:51:00Z", "max_date": "2021-09-20T10:51:00Z", "count_points": 2, "latitude": 45.92927, "longitude": 29.06204, "city": "Dmytrivka", "images": []}, {"id": 487435, "min_date": "2021-09-20T10:51:00Z", "max_date": "2021-09-20T10:51:00Z", "count_points": 2, "latitude": 46.68485, "longitude": 34.65789, "city": "Ivanivka", "images": []}, {"id": 487436, "min_date": "2021-09-20T10:51:00Z", "max_date": "2021-09-20T10:02:00Z", "count_points": 4, "latitude": 46.27948, "longitude": 29.27104, "city": "Borodino", "images": []}, {"id": 487437, "min_date": "2021-09-20T10:51:00Z", "max_date": "2021-09-20T10:51:00Z", "count_points": 1, "latitude": 46.68081, "longitude": 31.27052, "city": "Kobleve", "images": []}, {"id": 487438, "min_date": "2021-09-20T10:51:00Z", "max_date": "2021-09-20T10:51:00Z", "count_points": 1, "latitude": 47.10282, "longitude": 34.57807, "city": "Velyka Bilozerka", "images": []}, {"id": 487439, "min_date": "2021-09-20T10:51:00Z", "max_date": "2021-09-20T10:51:00Z", "count_points": 1, "latitude": 47.26233, "longitude": 34.94703, "city": "Mala Bilozerka", "images": []}, {"id": 487440, "min_date": "2021-09-20T10:51:00Z", "max_date": "2021-09-20T10:51:00Z", "count_points": 2, "latitude": 46.97538, "longitude": 29.58286, "city": "Velykoploske", "images": []}, {"id": 487441, "min_date": "2021-09-20T10:51:00Z", "max_date": "2021-09-20T10:51:00Z", "count_points": 1, "latitude": 47.11315, "longitude": 29.87925, "city": "Velyka Mykhaylivka", "images": []}, {"id": 487442, "min_date": "2021-09-20T10:51:00Z", "max_date": "2021-09-20T10:51:00Z", "count_points": 1, "latitude": 47.1902, "longitude": 30.38107, "city": "Ivanivka", "images": []}, {"id": 487443, "min_date": "2021-09-20T10:51:00Z", "max_date": "2021-09-20T10:51:00Z", "count_points": 1, "latitude": 47.20942, "longitude": 29.69787, "city": "Kuchurhan", "images": []}, {"id": 487444, "min_date": "2021-09-21T10:34:00Z", "max_date": "2021-09-21T10:34:00Z", "count_points": 1, "latitude": 47.41185, "longitude": 35.49376, "city": "Vasylivka", "images": []}, {"id": 487463, "min_date": "2021-09-20T08:20:00Z", "max_date": "2021-09-20T08:20:00Z", "count_points": 1, "latitude": 46.31924, "longitude": 34.47704, "city": "Novotroyits\u2019ke", "images": []}, {"id": 487465, "min_date": "2021-09-20T10:02:00Z", "max_date": "2021-09-20T10:02:00Z", "count_points": 1, "latitude": 46.37897, "longitude": 33.15688, "city": "Brylivka", "images": []}, {"id": 487466, "min_date": "2021-09-20T10:02:00Z", "max_date": "2021-09-20T10:02:00Z", "count_points": 1, "latitude": 46.37783, "longitude": 35.04024, "city": "Partyzany", "images": []}, {"id": 487467, "min_date": "2021-09-20T10:02:00Z", "max_date": "2021-09-20T10:02:00Z", "count_points": 1, "latitude": 46.07588, "longitude": 29.4776, "city": "Artsyz", "images": []}, {"id": 487468, "min_date": "2021-09-20T10:02:00Z", "max_date": "2021-09-20T10:02:00Z", "count_points": 1, "latitude": 46.35662, "longitude": 29.18772, "city": "Borodino", "images": []}, {"id": 487469, "min_date": "2021-09-20T11:42:00Z", "max_date": "2021-09-20T11:42:00Z", "count_points": 1, "latitude": 45.98559, "longitude": 29.08014, "city": "Dmytrivka", "images": []}, {"id": 487470, "min_date": "2021-09-20T11:42:00Z", "max_date": "2021-09-20T11:42:00Z", "count_points": 1, "latitude": 46.49219, "longitude": 34.23888, "city": "Novotroyits\u2019ke", "images": []}, {"id": 487445, "min_date": "2021-09-23T00:09:00Z", "max_date": "2021-09-23T00:09:00Z", "count_points": 1, "latitude": 47.72691, "longitude": 29.25103, "city": "Slobidka", "images": []}, {"id": 487446, "min_date": "2021-09-23T23:50:00Z", "max_date": "2021-09-23T23:50:00Z", "count_points": 1, "latitude": 49.38056, "longitude": 32.08121, "city": "Cherkasy", "images": []}, {"id": 487447, "min_date": "2021-09-23T23:52:00Z", "max_date": "2021-09-23T22:59:00Z", "count_points": 4, "latitude": 47.34404, "longitude": 35.62484, "city": "Tokmak", "images": []}, {"id": 487448, "min_date": "2021-09-24T09:37:00Z", "max_date": "2021-09-24T09:37:00Z", "count_points": 1, "latitude": 50.36447, "longitude": 29.16618, "city": "Korostyshiv", "images": []}, {"id": 487449, "min_date": "2021-09-24T09:37:00Z", "max_date": "2021-09-24T09:37:00Z", "count_points": 1, "latitude": 51.21457, "longitude": 30.70517, "city": "Desna", "images": []}, {"id": 487450, "min_date": "2021-09-24T23:31:00Z", "max_date": "2021-09-24T23:31:00Z", "count_points": 1, "latitude": 49.63988, "longitude": 34.35302, "city": "Poltava", "images": []}, {"id": 487451, "min_date": "2021-09-25T10:58:00Z", "max_date": "2021-09-25T10:58:00Z", "count_points": 1, "latitude": 45.51649, "longitude": 28.92517, "city": "Izmayil", "images": []}, {"id": 487452, "min_date": "2021-09-25T10:58:00Z", "max_date": "2021-09-25T11:47:00Z", "count_points": 4, "latitude": 45.85513, "longitude": 29.0646, "city": "Dmytrivka", "images": []}, {"id": 487453, "min_date": "2021-09-25T11:00:00Z", "max_date": "2021-09-25T11:00:00Z", "count_points": 1, "latitude": 48.34779, "longitude": 29.62888, "city": "Bershad", "images": []}, {"id": 487454, "min_date": "2021-09-26T10:41:00Z", "max_date": "2021-09-26T10:41:00Z", "count_points": 1, "latitude": 45.58815, "longitude": 28.6653, "city": "Bolhrad", "images": []}, {"id": 487455, "min_date": "2021-09-26T10:41:00Z", "max_date": "2021-09-26T10:41:00Z", "count_points": 1, "latitude": 49.45754, "longitude": 30.51526, "city": "Kalynove", "images": []}, {"id": 487456, "min_date": "2021-09-26T10:41:00Z", "max_date": "2021-09-26T10:41:00Z", "count_points": 1, "latitude": 50.03227, "longitude": 31.07791, "city": "Rzhyshchiv", "images": []}, {"id": 487457, "min_date": "2021-09-26T10:41:00Z", "max_date": "2021-09-26T11:30:00Z", "count_points": 5, "latitude": 50.43875, "longitude": 29.65784, "city": "Stavyshche", "images": []}, {"id": 487458, "min_date": "2021-09-26T10:43:00Z", "max_date": "2021-09-26T10:43:00Z", "count_points": 1, "latitude": 51.33557, "longitude": 29.37531, "city": "Narodychi", "images": []}, {"id": 487459, "min_date": "2021-09-26T10:43:00Z", "max_date": "2021-09-26T11:10:00Z", "count_points": 2, "latitude": 51.32834, "longitude": 29.33601, "city": "Narodychi", "images": []}, {"id": 487460, "min_date": "2021-09-26T10:43:00Z", "max_date": "2021-09-26T10:43:00Z", "count_points": 1, "latitude": 51.16692, "longitude": 28.18875, "city": "Novi Bilokorovychi", "images": []}, {"id": 487461, "min_date": "2021-09-26T22:54:00Z", "max_date": "2021-09-26T22:54:00Z", "count_points": 2, "latitude": 50.01299, "longitude": 34.07226, "city": "Velyki Sorochyntsi", "images": []}, {"id": 487462, "min_date": "2021-09-26T22:54:00Z", "max_date": "2021-09-26T22:54:00Z", "count_points": 2, "latitude": 47.60983, "longitude": 33.54908, "city": "Vysokopillya", "images": []}, {"id": 487464, "min_date": "2021-09-26T09:22:00Z", "max_date": "2021-09-26T09:22:00Z", "count_points": 1, "latitude": 47.5224, "longitude": 35.60033, "city": "Kirove", "images": []}, {"id": 487471, "min_date": "2021-09-24T00:39:00Z", "max_date": "2021-09-24T00:39:00Z", "count_points": 1, "latitude": 49.07937, "longitude": 34.88899, "city": "Hupalivka", "images": []}, {"id": 487472, "min_date": "2021-09-24T10:26:00Z", "max_date": "2021-09-24T10:26:00Z", "count_points": 1, "latitude": 48.23721, "longitude": 36.1957, "city": "Vasyl\u2019kivka", "images": []}, {"id": 487473, "min_date": "2021-09-24T10:28:00Z", "max_date": "2021-09-24T10:28:00Z", "count_points": 1, "latitude": 51.87197, "longitude": 31.31921, "city": "Dobryanka", "images": []}, {"id": 487474, "min_date": "2021-09-24T10:28:00Z", "max_date": "2021-09-24T10:28:00Z", "count_points": 1, "latitude": 50.34082, "longitude": 29.29666, "city": "Radomyshl", "images": []}, {"id": 487475, "min_date": "2021-09-26T00:01:00Z", "max_date": "2021-09-26T00:01:00Z", "count_points": 1, "latitude": 50.23205, "longitude": 33.37595, "city": "Sencha", "images": []}, {"id": 487476, "min_date": "2021-09-26T11:30:00Z", "max_date": "2021-09-26T11:30:00Z", "count_points": 1, "latitude": 48.64871, "longitude": 30.31979, "city": "Uman\u2019", "images": []}, {"id": 487477, "min_date": "2021-09-26T11:30:00Z", "max_date": "2021-09-26T11:30:00Z", "count_points": 1, "latitude": 46.47882, "longitude": 33.09849, "city": "Brylivka", "images": []}, {"id": 487478, "min_date": "2021-09-26T11:30:00Z", "max_date": "2021-09-26T11:30:00Z", "count_points": 1, "latitude": 47.10878, "longitude": 35.07859, "city": "Matviyivka", "images": []}, {"id": 487479, "min_date": "2021-09-26T11:30:00Z", "max_date": "2021-09-26T11:30:00Z", "count_points": 2, "latitude": 45.81506, "longitude": 29.12058, "city": "Dmytrivka", "images": []}, {"id": 487480, "min_date": "2021-09-26T11:30:00Z", "max_date": "2021-09-26T11:30:00Z", "count_points": 2, "latitude": 47.38376, "longitude": 37.89518, "city": "Tel\u2019manove", "images": []}, {"id": 487481, "min_date": "2021-09-26T11:32:00Z", "max_date": "2021-09-26T11:32:00Z", "count_points": 1, "latitude": 51.01094, "longitude": 27.57013, "city": "Olevs\u2019k", "images": []}, {"id": 487482, "min_date": "2021-09-26T23:44:00Z", "max_date": "2021-09-26T23:44:00Z", "count_points": 1, "latitude": 51.2884, "longitude": 26.09961, "city": "Volodymyrets\u2019", "images": []}, {"id": 487483, "min_date": "2021-09-26T23:44:00Z", "max_date": "2021-09-26T23:44:00Z", "count_points": 1, "latitude": 48.86888, "longitude": 38.48917, "city": "Lysychans\u2019k", "images": []}]