[{"id": 470751, "min_date": "2021-03-03T11:06:00Z", "max_date": "2021-03-03T10:18:00Z", "count_points": 3, "latitude": 47.84186, "longitude": 35.27286, "city": "Zaporizhia", "images": []}, {"id": 470752, "min_date": "2021-03-03T11:06:00Z", "max_date": "2021-03-03T10:18:00Z", "count_points": 6, "latitude": 46.15977, "longitude": 33.07483, "city": "Skadovs\u2019k", "images": [{"image_url": "470752.jpg", "timestamp": "2021-03-03T10:18:00Z"}]}, {"id": 470753, "min_date": "2021-03-03T11:06:00Z", "max_date": "2021-03-03T11:06:00Z", "count_points": 1, "latitude": 49.66814, "longitude": 34.35174, "city": "Poltava", "images": []}, {"id": 470754, "min_date": "2021-03-03T11:06:00Z", "max_date": "2021-03-03T10:18:00Z", "count_points": 2, "latitude": 47.04701, "longitude": 35.88909, "city": "Rozivka", "images": []}, {"id": 470755, "min_date": "2021-03-03T23:24:00Z", "max_date": "2021-03-03T23:24:00Z", "count_points": 1, "latitude": 49.53178, "longitude": 37.0673, "city": "Savyntsi", "images": []}, {"id": 470756, "min_date": "2021-03-04T10:48:00Z", "max_date": "2021-03-04T10:57:00Z", "count_points": 6, "latitude": 48.00722, "longitude": 36.27103, "city": "Pokrovs\u2019ke", "images": []}, {"id": 470757, "min_date": "2021-03-04T10:48:00Z", "max_date": "2021-03-04T10:48:00Z", "count_points": 1, "latitude": 49.10049, "longitude": 27.46752, "city": "Derazhnya", "images": []}, {"id": 470758, "min_date": "2021-03-04T10:48:00Z", "max_date": "2021-03-04T10:57:00Z", "count_points": 2, "latitude": 47.11839, "longitude": 36.61763, "city": "Komysh-Zorya", "images": []}, {"id": 470759, "min_date": "2021-03-04T10:48:00Z", "max_date": "2021-03-04T10:00:00Z", "count_points": 3, "latitude": 45.12878, "longitude": 33.87725, "city": "Shkol\u2019noye", "images": []}, {"id": 470760, "min_date": "2021-03-04T10:48:00Z", "max_date": "2021-03-04T10:48:00Z", "count_points": 1, "latitude": 47.41665, "longitude": 35.99745, "city": "Mala Tokmachka", "images": []}, {"id": 470761, "min_date": "2021-03-04T10:48:00Z", "max_date": "2021-03-04T10:48:00Z", "count_points": 1, "latitude": 47.15997, "longitude": 35.53966, "city": "Tokmak", "images": []}, {"id": 470762, "min_date": "2021-03-04T10:48:00Z", "max_date": "2021-03-04T10:48:00Z", "count_points": 1, "latitude": 47.84942, "longitude": 37.99378, "city": "Novyy Svit", "images": []}, {"id": 470763, "min_date": "2021-03-04T10:48:00Z", "max_date": "2021-03-04T10:48:00Z", "count_points": 1, "latitude": 48.70089, "longitude": 29.12199, "city": "Ladyzhyn", "images": []}, {"id": 470764, "min_date": "2021-03-04T10:48:00Z", "max_date": "2021-03-03T10:18:00Z", "count_points": 3, "latitude": 48.971, "longitude": 33.18664, "city": "Svitlovods\u2019k", "images": []}, {"id": 470765, "min_date": "2021-03-04T10:48:00Z", "max_date": "2021-03-04T10:48:00Z", "count_points": 1, "latitude": 48.56925, "longitude": 36.9531, "city": "Novodonets\u2019ke", "images": []}, {"id": 470766, "min_date": "2021-03-04T10:48:00Z", "max_date": "2021-03-04T10:48:00Z", "count_points": 1, "latitude": 48.21807, "longitude": 22.74455, "city": "Velyki Berehy", "images": []}, {"id": 470767, "min_date": "2021-03-04T10:48:00Z", "max_date": "2021-03-04T10:48:00Z", "count_points": 1, "latitude": 47.25683, "longitude": 30.13638, "city": "Shyryayeve", "images": []}, {"id": 470768, "min_date": "2021-03-05T10:30:00Z", "max_date": "2021-03-05T10:30:00Z", "count_points": 1, "latitude": 46.69296, "longitude": 32.62963, "city": "Kherson", "images": []}, {"id": 470769, "min_date": "2021-03-05T10:30:00Z", "max_date": "2021-03-05T10:30:00Z", "count_points": 2, "latitude": 46.7538, "longitude": 32.90868, "city": "Kozachi Laheri", "images": []}, {"id": 470770, "min_date": "2021-03-05T10:30:00Z", "max_date": "2021-03-05T10:30:00Z", "count_points": 1, "latitude": 46.62525, "longitude": 32.80309, "city": "Tsyurupyns\u2019k", "images": []}, {"id": 470771, "min_date": "2021-03-05T10:30:00Z", "max_date": "2021-03-05T10:30:00Z", "count_points": 1, "latitude": 44.87611, "longitude": 34.12748, "city": "Ukrainka", "images": []}, {"id": 470772, "min_date": "2021-03-05T10:30:00Z", "max_date": "2021-03-05T10:30:00Z", "count_points": 1, "latitude": 47.17946, "longitude": 32.26516, "city": "Bashtanka", "images": []}, {"id": 470773, "min_date": "2021-03-05T10:30:00Z", "max_date": "2021-03-05T10:30:00Z", "count_points": 1, "latitude": 45.62044, "longitude": 34.77347, "city": "Chkalovo", "images": []}, {"id": 470774, "min_date": "2021-03-05T10:30:00Z", "max_date": "2021-03-05T10:30:00Z", "count_points": 1, "latitude": 46.6147, "longitude": 32.75942, "city": "Tsyurupyns\u2019k", "images": []}, {"id": 470775, "min_date": "2021-03-05T10:30:00Z", "max_date": "2021-03-05T10:30:00Z", "count_points": 1, "latitude": 46.09682, "longitude": 32.47521, "city": "Lazurne", "images": []}, {"id": 470776, "min_date": "2021-03-05T10:30:00Z", "max_date": "2021-03-05T09:42:00Z", "count_points": 2, "latitude": 45.54007, "longitude": 34.83441, "city": "Akimovka", "images": []}, {"id": 470777, "min_date": "2021-03-06T10:12:00Z", "max_date": "2021-03-06T10:12:00Z", "count_points": 1, "latitude": 50.21997, "longitude": 34.3882, "city": "Zin\u2019kiv", "images": []}, {"id": 470778, "min_date": "2021-03-06T10:12:00Z", "max_date": "2021-03-06T10:12:00Z", "count_points": 1, "latitude": 50.68213, "longitude": 33.40244, "city": "Romny", "images": []}, {"id": 470779, "min_date": "2021-03-06T22:24:00Z", "max_date": "2021-03-06T23:18:00Z", "count_points": 4, "latitude": 49.84096, "longitude": 33.44373, "city": "Khorol", "images": []}, {"id": 470780, "min_date": "2021-03-07T00:06:00Z", "max_date": "2021-03-07T00:54:00Z", "count_points": 3, "latitude": 50.61846, "longitude": 32.52198, "city": "Ladan", "images": []}, {"id": 470781, "min_date": "2021-03-07T09:54:00Z", "max_date": "2021-03-07T11:27:00Z", "count_points": 2, "latitude": 47.21658, "longitude": 32.85233, "city": "Bereznehuvate", "images": []}, {"id": 470782, "min_date": "2021-03-07T09:54:00Z", "max_date": "2021-03-07T09:54:00Z", "count_points": 1, "latitude": 47.58661, "longitude": 32.99017, "city": "Shyroke", "images": []}, {"id": 470783, "min_date": "2021-03-07T09:54:00Z", "max_date": "2021-03-07T09:54:00Z", "count_points": 1, "latitude": 46.63107, "longitude": 33.32078, "city": "Chornyanka", "images": []}, {"id": 470784, "min_date": "2021-03-07T09:54:00Z", "max_date": "2021-03-07T09:54:00Z", "count_points": 1, "latitude": 46.52138, "longitude": 30.68982, "city": "Usatove", "images": []}, {"id": 470785, "min_date": "2021-03-07T09:54:00Z", "max_date": "2021-03-07T10:42:00Z", "count_points": 2, "latitude": 45.01001, "longitude": 33.80368, "city": "Novosyolovka", "images": []}, {"id": 470786, "min_date": "2021-03-07T11:30:00Z", "max_date": "2021-03-07T11:30:00Z", "count_points": 2, "latitude": 45.45788, "longitude": 29.44008, "city": "Shevchenkove", "images": []}, {"id": 470787, "min_date": "2021-03-07T11:30:00Z", "max_date": "2021-03-07T10:42:00Z", "count_points": 3, "latitude": 46.51315, "longitude": 32.5611, "city": "Hola Prystan\u2019", "images": []}, {"id": 470788, "min_date": "2021-03-07T11:30:00Z", "max_date": "2021-03-07T11:30:00Z", "count_points": 1, "latitude": 46.64806, "longitude": 32.83454, "city": "Tsyurupyns\u2019k", "images": []}, {"id": 470789, "min_date": "2021-03-07T11:30:00Z", "max_date": "2021-03-07T10:42:00Z", "count_points": 5, "latitude": 46.46666, "longitude": 30.04297, "city": "Starokozache", "images": []}, {"id": 470790, "min_date": "2021-03-07T11:30:00Z", "max_date": "2021-03-07T10:42:00Z", "count_points": 3, "latitude": 46.78047, "longitude": 32.26272, "city": "Shevchenkove", "images": []}, {"id": 470791, "min_date": "2021-03-07T11:30:00Z", "max_date": "2021-03-07T11:30:00Z", "count_points": 1, "latitude": 45.45462, "longitude": 29.2326, "city": "Kiliya", "images": []}, {"id": 470792, "min_date": "2021-03-07T11:30:00Z", "max_date": "2021-03-07T10:42:00Z", "count_points": 9, "latitude": 46.54876, "longitude": 32.55864, "city": "Hola Prystan\u2019", "images": []}, {"id": 470793, "min_date": "2021-03-07T11:36:00Z", "max_date": "2021-03-07T11:36:00Z", "count_points": 1, "latitude": 49.10189, "longitude": 34.68276, "city": "Hupalivka", "images": []}, {"id": 470794, "min_date": "2021-03-07T11:36:00Z", "max_date": "2021-03-07T11:36:00Z", "count_points": 2, "latitude": 48.56945, "longitude": 26.07118, "city": "Klishkivtsi", "images": []}, {"id": 470795, "min_date": "2021-03-07T11:36:00Z", "max_date": "2021-03-07T11:36:00Z", "count_points": 1, "latitude": 49.13174, "longitude": 33.51736, "city": "Kremenchuk", "images": []}, {"id": 470796, "min_date": "2021-03-02T08:54:00Z", "max_date": "2021-03-02T08:54:00Z", "count_points": 1, "latitude": 46.91335, "longitude": 36.55374, "city": "Osypenko", "images": []}, {"id": 470797, "min_date": "2021-03-02T10:36:00Z", "max_date": "2021-03-02T10:36:00Z", "count_points": 1, "latitude": 48.05658, "longitude": 23.43905, "city": "Vyshkovo", "images": []}, {"id": 470798, "min_date": "2021-03-02T10:36:00Z", "max_date": "2021-03-02T10:36:00Z", "count_points": 1, "latitude": 46.60716, "longitude": 32.66979, "city": "Tsyurupyns\u2019k", "images": []}, {"id": 470799, "min_date": "2021-03-02T10:36:00Z", "max_date": "2021-03-02T10:36:00Z", "count_points": 1, "latitude": 48.06784, "longitude": 38.35321, "city": "Shakhtars\u2019k", "images": []}, {"id": 470800, "min_date": "2021-03-02T10:36:00Z", "max_date": "2021-03-02T10:36:00Z", "count_points": 1, "latitude": 48.40272, "longitude": 22.57298, "city": "Strabychovo", "images": []}, {"id": 470801, "min_date": "2021-03-02T10:36:00Z", "max_date": "2021-03-02T10:36:00Z", "count_points": 1, "latitude": 48.02358, "longitude": 37.38656, "city": "Kurakhovo", "images": []}, {"id": 470802, "min_date": "2021-03-02T10:36:00Z", "max_date": "2021-03-02T10:36:00Z", "count_points": 1, "latitude": 48.21394, "longitude": 23.4443, "city": "Nyzhnye Selyshche", "images": []}, {"id": 470803, "min_date": "2021-03-02T12:18:00Z", "max_date": "2021-03-02T12:18:00Z", "count_points": 2, "latitude": 47.97397, "longitude": 23.91058, "city": "Serednye Vodyane", "images": []}, {"id": 470804, "min_date": "2021-03-02T12:18:00Z", "max_date": "2021-03-02T12:18:00Z", "count_points": 1, "latitude": 48.12765, "longitude": 23.60363, "city": "Tyachiv", "images": []}, {"id": 470805, "min_date": "2021-03-02T12:18:00Z", "max_date": "2021-03-02T12:18:00Z", "count_points": 2, "latitude": 48.53645, "longitude": 26.91639, "city": "Kel\u2019mentsi", "images": []}, {"id": 470806, "min_date": "2021-03-03T00:30:00Z", "max_date": "2021-03-03T00:30:00Z", "count_points": 1, "latitude": 50.30189, "longitude": 33.84302, "city": "Hadyach", "images": []}, {"id": 470807, "min_date": "2021-03-03T10:18:00Z", "max_date": "2021-03-03T10:18:00Z", "count_points": 1, "latitude": 47.99799, "longitude": 34.14999, "city": "Sofiyivka", "images": []}, {"id": 470808, "min_date": "2021-03-03T10:18:00Z", "max_date": "2021-03-03T10:18:00Z", "count_points": 1, "latitude": 46.63861, "longitude": 35.40232, "city": "Kostyantynivka", "images": []}, {"id": 470809, "min_date": "2021-03-03T10:18:00Z", "max_date": "2021-03-03T10:18:00Z", "count_points": 1, "latitude": 48.19775, "longitude": 34.48534, "city": "Krynychky", "images": []}, {"id": 470810, "min_date": "2021-03-03T10:18:00Z", "max_date": "2021-03-03T10:18:00Z", "count_points": 1, "latitude": 46.76363, "longitude": 35.64376, "city": "Pryazovs\u2019ke", "images": []}, {"id": 470811, "min_date": "2021-03-03T10:18:00Z", "max_date": "2021-03-03T10:18:00Z", "count_points": 1, "latitude": 46.89686, "longitude": 36.80555, "city": "Osypenko", "images": []}, {"id": 470812, "min_date": "2021-03-03T10:18:00Z", "max_date": "2021-03-03T10:18:00Z", "count_points": 1, "latitude": 49.03824, "longitude": 25.05265, "city": "Monastyrys\u2019ka", "images": []}, {"id": 470813, "min_date": "2021-03-03T10:18:00Z", "max_date": "2021-03-03T10:18:00Z", "count_points": 1, "latitude": 46.16689, "longitude": 33.1654, "city": "Kalanchak", "images": []}, {"id": 470814, "min_date": "2021-03-03T10:18:00Z", "max_date": "2021-03-03T10:18:00Z", "count_points": 2, "latitude": 44.80975, "longitude": 33.64281, "city": "Solnechniy", "images": []}, {"id": 470815, "min_date": "2021-03-03T10:18:00Z", "max_date": "2021-03-03T10:18:00Z", "count_points": 1, "latitude": 48.4148, "longitude": 33.8932, "city": "Vyshneve", "images": []}, {"id": 470816, "min_date": "2021-03-03T10:18:00Z", "max_date": "2021-03-03T10:18:00Z", "count_points": 1, "latitude": 47.18306, "longitude": 37.71804, "city": "Sartana", "images": []}, {"id": 470817, "min_date": "2021-03-03T10:18:00Z", "max_date": "2021-03-03T10:18:00Z", "count_points": 1, "latitude": 46.16047, "longitude": 33.13183, "city": "Kalanchak", "images": []}, {"id": 470818, "min_date": "2021-03-03T12:00:00Z", "max_date": "2021-03-03T12:00:00Z", "count_points": 1, "latitude": 48.75137, "longitude": 24.94906, "city": "Otyniya", "images": []}, {"id": 470819, "min_date": "2021-03-03T12:00:00Z", "max_date": "2021-03-03T12:00:00Z", "count_points": 1, "latitude": 48.36292, "longitude": 25.16153, "city": "Khymchyn", "images": []}, {"id": 470820, "min_date": "2021-03-03T12:00:00Z", "max_date": "2021-03-03T12:00:00Z", "count_points": 2, "latitude": 45.46332, "longitude": 29.18313, "city": "Kiliya", "images": []}, {"id": 470821, "min_date": "2021-03-04T10:00:00Z", "max_date": "2021-03-04T10:00:00Z", "count_points": 1, "latitude": 48.09106, "longitude": 34.10426, "city": "Sofiyivka", "images": []}, {"id": 470822, "min_date": "2021-03-04T10:00:00Z", "max_date": "2021-03-04T10:00:00Z", "count_points": 1, "latitude": 47.70013, "longitude": 36.21298, "city": "Hulyaypole", "images": []}, {"id": 470823, "min_date": "2021-03-04T10:00:00Z", "max_date": "2021-03-04T10:00:00Z", "count_points": 1, "latitude": 47.74307, "longitude": 38.46469, "city": "Amvrosiyivka", "images": []}, {"id": 470824, "min_date": "2021-03-04T10:00:00Z", "max_date": "2021-03-04T10:00:00Z", "count_points": 3, "latitude": 47.74989, "longitude": 34.56229, "city": "Chervonohryhorivka", "images": []}, {"id": 470825, "min_date": "2021-03-04T10:00:00Z", "max_date": "2021-03-04T10:00:00Z", "count_points": 1, "latitude": 47.96902, "longitude": 35.46571, "city": "Vil\u2019nyans\u2019k", "images": []}, {"id": 470826, "min_date": "2021-03-04T10:00:00Z", "max_date": "2021-03-04T10:00:00Z", "count_points": 1, "latitude": 47.71308, "longitude": 33.77379, "city": "Apostolove", "images": []}, {"id": 470827, "min_date": "2021-03-04T10:00:00Z", "max_date": "2021-03-04T10:00:00Z", "count_points": 1, "latitude": 48.06039, "longitude": 33.15202, "city": "Lozuvatka", "images": []}, {"id": 470828, "min_date": "2021-03-04T10:00:00Z", "max_date": "2021-03-04T10:00:00Z", "count_points": 1, "latitude": 48.42606, "longitude": 33.68178, "city": "Piatykhatky", "images": []}, {"id": 470829, "min_date": "2021-03-04T10:00:00Z", "max_date": "2021-03-04T10:00:00Z", "count_points": 1, "latitude": 47.48852, "longitude": 38.18485, "city": "Tel\u2019manove", "images": []}, {"id": 470830, "min_date": "2021-03-04T10:00:00Z", "max_date": "2021-03-04T10:00:00Z", "count_points": 2, "latitude": 47.51129, "longitude": 36.9915, "city": "Rozivka", "images": []}, {"id": 470831, "min_date": "2021-03-04T10:00:00Z", "max_date": "2021-03-04T10:00:00Z", "count_points": 1, "latitude": 47.96913, "longitude": 37.44398, "city": "Mareyka", "images": []}, {"id": 470832, "min_date": "2021-03-04T11:36:00Z", "max_date": "2021-03-04T11:36:00Z", "count_points": 4, "latitude": 47.13196, "longitude": 30.95171, "city": "Berezivka", "images": []}, {"id": 470833, "min_date": "2021-03-04T11:42:00Z", "max_date": "2021-03-04T10:57:00Z", "count_points": 2, "latitude": 47.55181, "longitude": 36.08317, "city": "Zaliznychne", "images": []}, {"id": 470834, "min_date": "2021-03-05T09:36:00Z", "max_date": "2021-03-05T09:36:00Z", "count_points": 1, "latitude": 45.31064, "longitude": 35.12998, "city": "Tokarevo", "images": []}, {"id": 470835, "min_date": "2021-03-06T09:24:00Z", "max_date": "2021-03-06T09:24:00Z", "count_points": 1, "latitude": 50.85195, "longitude": 33.71251, "city": "Nedryhayliv", "images": []}, {"id": 470836, "min_date": "2021-03-06T11:00:00Z", "max_date": "2021-03-06T11:00:00Z", "count_points": 1, "latitude": 49.84325, "longitude": 36.0857, "city": "Merefa", "images": []}, {"id": 470837, "min_date": "2021-03-06T23:18:00Z", "max_date": "2021-03-06T23:18:00Z", "count_points": 1, "latitude": 46.5258, "longitude": 32.50888, "city": "Hola Prystan\u2019", "images": []}, {"id": 470838, "min_date": "2021-03-06T23:18:00Z", "max_date": "2021-03-06T23:18:00Z", "count_points": 1, "latitude": 48.5188, "longitude": 35.85699, "city": "Pavlohrad", "images": []}, {"id": 470839, "min_date": "2021-03-07T10:42:00Z", "max_date": "2021-03-07T10:42:00Z", "count_points": 2, "latitude": 45.41254, "longitude": 29.10407, "city": "Kiliya", "images": []}, {"id": 470840, "min_date": "2021-03-07T10:42:00Z", "max_date": "2021-03-07T10:42:00Z", "count_points": 1, "latitude": 45.56713, "longitude": 28.69603, "city": "Bolhrad", "images": []}, {"id": 470841, "min_date": "2021-03-07T10:42:00Z", "max_date": "2021-03-07T10:42:00Z", "count_points": 3, "latitude": 46.50588, "longitude": 30.05998, "city": "Bilyayivka", "images": []}, {"id": 470842, "min_date": "2021-03-07T10:42:00Z", "max_date": "2021-03-07T10:42:00Z", "count_points": 1, "latitude": 46.34154, "longitude": 29.72538, "city": "Kamyshevka Vtoraya", "images": []}, {"id": 470843, "min_date": "2021-03-07T10:42:00Z", "max_date": "2021-03-07T10:42:00Z", "count_points": 1, "latitude": 46.11992, "longitude": 29.23464, "city": "Tarutyne", "images": []}, {"id": 470844, "min_date": "2021-03-07T10:42:00Z", "max_date": "2021-03-07T10:42:00Z", "count_points": 2, "latitude": 47.09399, "longitude": 35.62622, "city": "Tokmak", "images": []}, {"id": 470845, "min_date": "2021-03-07T10:42:00Z", "max_date": "2021-03-07T10:42:00Z", "count_points": 1, "latitude": 48.80636, "longitude": 33.96325, "city": "Lykhivka", "images": []}, {"id": 470846, "min_date": "2021-03-07T10:42:00Z", "max_date": "2021-03-07T10:42:00Z", "count_points": 1, "latitude": 46.909, "longitude": 31.58264, "city": "Berezanka", "images": []}, {"id": 470847, "min_date": "2021-03-07T10:42:00Z", "max_date": "2021-03-07T10:42:00Z", "count_points": 1, "latitude": 46.8951, "longitude": 34.40168, "city": "Nyzhni Sirohozy", "images": []}, {"id": 470848, "min_date": "2021-03-07T10:42:00Z", "max_date": "2021-03-07T10:42:00Z", "count_points": 1, "latitude": 49.45396, "longitude": 32.83725, "city": "Orzhytsya", "images": []}, {"id": 470849, "min_date": "2021-03-07T10:42:00Z", "max_date": "2021-03-07T10:42:00Z", "count_points": 1, "latitude": 47.31259, "longitude": 32.20968, "city": "Bashtanka", "images": []}, {"id": 470850, "min_date": "2021-03-07T10:42:00Z", "max_date": "2021-03-07T10:42:00Z", "count_points": 1, "latitude": 46.85652, "longitude": 31.24571, "city": "Berezanka", "images": []}, {"id": 470851, "min_date": "2021-03-07T10:42:00Z", "max_date": "2021-03-04T10:57:00Z", "count_points": 3, "latitude": 45.97089, "longitude": 29.47619, "city": "Artsyz", "images": []}, {"id": 470852, "min_date": "2021-03-07T10:42:00Z", "max_date": "2021-03-07T10:42:00Z", "count_points": 1, "latitude": 46.37483, "longitude": 33.61709, "city": "Chaplynka", "images": []}, {"id": 470853, "min_date": "2021-03-07T10:42:00Z", "max_date": "2021-03-07T10:42:00Z", "count_points": 1, "latitude": 46.30676, "longitude": 34.16773, "city": "Novotroyits\u2019ke", "images": []}, {"id": 470854, "min_date": "2021-03-07T10:42:00Z", "max_date": "2021-03-04T09:12:00Z", "count_points": 3, "latitude": 45.86536, "longitude": 29.68708, "city": "Tatarbunary", "images": []}, {"id": 470855, "min_date": "2021-03-07T12:24:00Z", "max_date": "2021-03-07T12:24:00Z", "count_points": 1, "latitude": 48.24374, "longitude": 22.83423, "city": "Velyki Berehy", "images": []}, {"id": 470856, "min_date": "2021-03-02T11:09:00Z", "max_date": "2021-03-02T11:09:00Z", "count_points": 1, "latitude": 47.2433, "longitude": 36.874, "city": "Komysh-Zorya", "images": []}, {"id": 470857, "min_date": "2021-03-02T11:10:00Z", "max_date": "2021-03-02T11:10:00Z", "count_points": 2, "latitude": 48.09035, "longitude": 23.40245, "city": "Vyshkovo", "images": []}, {"id": 470858, "min_date": "2021-03-04T10:57:00Z", "max_date": "2021-03-04T10:57:00Z", "count_points": 3, "latitude": 48.79183, "longitude": 33.6746, "city": "Horishni Plavni", "images": []}, {"id": 470859, "min_date": "2021-03-04T10:57:00Z", "max_date": "2021-03-04T10:57:00Z", "count_points": 1, "latitude": 46.6305, "longitude": 30.5497, "city": "Usatove", "images": []}, {"id": 470860, "min_date": "2021-03-04T10:57:00Z", "max_date": "2021-03-04T10:57:00Z", "count_points": 1, "latitude": 47.6319, "longitude": 34.0486, "city": "Ordzhonikidze", "images": []}, {"id": 470861, "min_date": "2021-03-06T10:45:00Z", "max_date": "2021-03-06T10:45:00Z", "count_points": 1, "latitude": 47.2843, "longitude": 32.2055, "city": "Bashtanka", "images": []}, {"id": 470862, "min_date": "2021-03-06T10:45:00Z", "max_date": "2021-03-06T10:45:00Z", "count_points": 2, "latitude": 47.60305, "longitude": 31.35175, "city": "Voznesensk", "images": []}, {"id": 470863, "min_date": "2021-03-06T10:45:00Z", "max_date": "2021-03-06T10:45:00Z", "count_points": 1, "latitude": 50.6089, "longitude": 30.8898, "city": "Velyka Dymerka", "images": []}, {"id": 470864, "min_date": "2021-03-07T09:43:00Z", "max_date": "2021-03-07T09:43:00Z", "count_points": 1, "latitude": 48.1988, "longitude": 22.8918, "city": "Oleshnyk", "images": []}, {"id": 470716, "min_date": "2021-03-01T10:06:00Z", "max_date": "2021-03-01T10:19:00Z", "count_points": 11, "latitude": 48.32277, "longitude": 23.05612, "city": "Irshava", "images": [{"image_url": "470716.jpg", "timestamp": "2021-03-01T10:19:00Z"}]}, {"id": 470717, "min_date": "2021-03-01T11:48:00Z", "max_date": "2021-03-01T11:48:00Z", "count_points": 1, "latitude": 48.18766, "longitude": 23.19518, "city": "Rokosovo", "images": []}, {"id": 470718, "min_date": "2021-03-02T09:48:00Z", "max_date": "2021-03-02T09:48:00Z", "count_points": 1, "latitude": 48.19714, "longitude": 36.75531, "city": "Mezhova", "images": []}, {"id": 470719, "min_date": "2021-03-02T11:30:00Z", "max_date": "2021-03-02T11:30:00Z", "count_points": 1, "latitude": 48.09963, "longitude": 23.52411, "city": "Bushtyno", "images": []}, {"id": 470720, "min_date": "2021-03-02T11:30:00Z", "max_date": "2021-03-02T11:30:00Z", "count_points": 2, "latitude": 48.15832, "longitude": 22.73043, "city": "Muzhiyevo", "images": []}, {"id": 470721, "min_date": "2021-03-02T11:30:00Z", "max_date": "2021-03-02T10:36:00Z", "count_points": 2, "latitude": 48.43813, "longitude": 22.87476, "city": "Chynadiyovo", "images": []}, {"id": 470722, "min_date": "2021-03-02T11:30:00Z", "max_date": "2021-03-02T11:30:00Z", "count_points": 1, "latitude": 48.54181, "longitude": 22.89583, "city": "Chynadiyovo", "images": []}, {"id": 470723, "min_date": "2021-03-03T01:24:00Z", "max_date": "2021-03-07T10:42:00Z", "count_points": 3, "latitude": 48.18163, "longitude": 23.11403, "city": "Korolevo", "images": []}, {"id": 470724, "min_date": "2021-03-03T09:30:00Z", "max_date": "2021-03-03T11:52:00Z", "count_points": 13, "latitude": 46.21323, "longitude": 32.19845, "city": "Bekhtery", "images": []}, {"id": 470725, "min_date": "2021-03-03T09:30:00Z", "max_date": "2021-03-03T10:18:00Z", "count_points": 5, "latitude": 46.12488, "longitude": 32.97182, "city": "Skadovs\u2019k", "images": []}, {"id": 470726, "min_date": "2021-03-03T09:30:00Z", "max_date": "2021-03-03T09:30:00Z", "count_points": 1, "latitude": 49.75011, "longitude": 34.37968, "city": "Dykan\u2019ka", "images": []}, {"id": 470727, "min_date": "2021-03-03T11:06:00Z", "max_date": "2021-03-03T11:06:00Z", "count_points": 1, "latitude": 48.55367, "longitude": 22.95041, "city": "Svalyava", "images": []}, {"id": 470728, "min_date": "2021-03-03T11:06:00Z", "max_date": "2021-03-03T11:06:00Z", "count_points": 1, "latitude": 48.43292, "longitude": 23.29533, "city": "Kushnytsya", "images": []}, {"id": 470729, "min_date": "2021-03-03T11:06:00Z", "max_date": "2021-03-03T11:06:00Z", "count_points": 3, "latitude": 48.11957, "longitude": 22.67118, "city": "Vary", "images": []}, {"id": 470730, "min_date": "2021-03-03T11:06:00Z", "max_date": "2021-03-03T11:06:00Z", "count_points": 1, "latitude": 46.75906, "longitude": 33.23277, "city": "Dnipryany", "images": []}, {"id": 470731, "min_date": "2021-03-03T11:06:00Z", "max_date": "2021-03-03T11:06:00Z", "count_points": 1, "latitude": 48.92598, "longitude": 24.03988, "city": "Spas", "images": []}, {"id": 470732, "min_date": "2021-03-03T11:06:00Z", "max_date": "2021-03-03T11:06:00Z", "count_points": 1, "latitude": 47.69109, "longitude": 34.0033, "city": "Sholokhove", "images": []}, {"id": 470733, "min_date": "2021-03-03T11:06:00Z", "max_date": "2021-03-03T11:06:00Z", "count_points": 2, "latitude": 47.66045, "longitude": 33.74491, "city": "Apostolove", "images": []}, {"id": 470734, "min_date": "2021-03-03T11:06:00Z", "max_date": "2021-03-03T11:06:00Z", "count_points": 1, "latitude": 48.45366, "longitude": 22.58503, "city": "Rakoshyno", "images": []}, {"id": 470735, "min_date": "2021-03-03T11:06:00Z", "max_date": "2021-03-03T11:06:00Z", "count_points": 1, "latitude": 48.29887, "longitude": 24.37785, "city": "Yasinya", "images": []}, {"id": 470736, "min_date": "2021-03-03T11:06:00Z", "max_date": "2021-03-03T11:06:00Z", "count_points": 1, "latitude": 48.15516, "longitude": 33.83676, "city": "Sofiyivka", "images": []}, {"id": 470737, "min_date": "2021-03-03T11:06:00Z", "max_date": "2021-03-03T11:06:00Z", "count_points": 1, "latitude": 48.01476, "longitude": 23.89489, "city": "Serednye Vodyane", "images": []}, {"id": 470738, "min_date": "2021-03-03T11:06:00Z", "max_date": "2021-03-03T11:06:00Z", "count_points": 2, "latitude": 47.2966, "longitude": 34.80042, "city": "Velyka Bilozerka", "images": []}, {"id": 470739, "min_date": "2021-03-03T11:06:00Z", "max_date": "2021-03-03T11:06:00Z", "count_points": 1, "latitude": 49.06205, "longitude": 33.25805, "city": "Svitlovods\u2019k", "images": []}, {"id": 470740, "min_date": "2021-03-03T11:06:00Z", "max_date": "2021-03-03T11:06:00Z", "count_points": 1, "latitude": 48.73894, "longitude": 34.56588, "city": "Petrykivka", "images": []}, {"id": 470741, "min_date": "2021-03-03T11:06:00Z", "max_date": "2021-03-03T11:06:00Z", "count_points": 1, "latitude": 48.2347, "longitude": 25.4914, "city": "Davydivka", "images": []}, {"id": 470742, "min_date": "2021-03-03T11:06:00Z", "max_date": "2021-03-03T10:18:00Z", "count_points": 3, "latitude": 45.47735, "longitude": 29.50969, "city": "Vylkove", "images": []}, {"id": 470743, "min_date": "2021-03-03T11:06:00Z", "max_date": "2021-03-03T11:06:00Z", "count_points": 1, "latitude": 48.92516, "longitude": 23.84949, "city": "Bolekhiv", "images": []}, {"id": 470744, "min_date": "2021-03-03T11:06:00Z", "max_date": "2021-03-03T11:06:00Z", "count_points": 1, "latitude": 46.21743, "longitude": 33.05734, "city": "Skadovs\u2019k", "images": []}, {"id": 470745, "min_date": "2021-03-03T11:06:00Z", "max_date": "2021-03-03T11:06:00Z", "count_points": 1, "latitude": 47.98751, "longitude": 35.52174, "city": "Vil\u2019nyans\u2019k", "images": []}, {"id": 470746, "min_date": "2021-03-03T11:06:00Z", "max_date": "2021-03-03T11:06:00Z", "count_points": 1, "latitude": 50.45234, "longitude": 34.11474, "city": "Hadyach", "images": []}, {"id": 470747, "min_date": "2021-03-03T11:06:00Z", "max_date": "2021-03-03T10:18:00Z", "count_points": 3, "latitude": 46.25644, "longitude": 34.31999, "city": "Novotroyits\u2019ke", "images": []}, {"id": 470748, "min_date": "2021-03-03T11:06:00Z", "max_date": "2021-03-03T11:06:00Z", "count_points": 1, "latitude": 48.63681, "longitude": 24.85011, "city": "Sadzhavka", "images": []}, {"id": 470749, "min_date": "2021-03-03T11:06:00Z", "max_date": "2021-03-03T11:06:00Z", "count_points": 1, "latitude": 45.4319, "longitude": 28.39736, "city": "Reni", "images": []}, {"id": 470750, "min_date": "2021-03-03T11:06:00Z", "max_date": "2021-03-03T11:06:00Z", "count_points": 1, "latitude": 48.67238, "longitude": 24.84171, "city": "Otyniya", "images": []}]