[{"id": 486676, "min_date": "2021-09-13T09:43:00Z", "max_date": "2021-09-13T10:34:00Z", "count_points": 3, "latitude": 47.87387, "longitude": 29.86655, "city": "Ananyiv Pershyi", "images": []}, {"id": 486677, "min_date": "2021-09-13T09:43:00Z", "max_date": "2021-09-13T10:32:00Z", "count_points": 2, "latitude": 45.7653, "longitude": 34.12239, "city": "Novokrymskoye", "images": []}, {"id": 486678, "min_date": "2021-09-13T09:43:00Z", "max_date": "2021-09-13T09:43:00Z", "count_points": 1, "latitude": 46.42757, "longitude": 35.16462, "city": "Kyrylivka", "images": []}, {"id": 486679, "min_date": "2021-09-13T09:43:00Z", "max_date": "2021-09-13T10:32:00Z", "count_points": 6, "latitude": 46.25266, "longitude": 33.34309, "city": "Kalanchak", "images": []}, {"id": 486680, "min_date": "2021-09-13T09:43:00Z", "max_date": "2021-09-13T09:43:00Z", "count_points": 1, "latitude": 48.20592, "longitude": 39.29624, "city": "Millerovo", "images": []}, {"id": 486681, "min_date": "2021-09-13T09:43:00Z", "max_date": "2021-09-13T11:23:00Z", "count_points": 2, "latitude": 45.60647, "longitude": 29.26899, "city": "Shevchenkove", "images": []}, {"id": 486682, "min_date": "2021-09-13T09:43:00Z", "max_date": "2021-09-13T10:34:00Z", "count_points": 8, "latitude": 47.81407, "longitude": 37.04754, "city": "Velyka Novosilka", "images": []}, {"id": 486683, "min_date": "2021-09-13T09:43:00Z", "max_date": "2021-09-14T10:13:00Z", "count_points": 7, "latitude": 45.67611, "longitude": 29.36701, "city": "Shevchenkove", "images": []}, {"id": 486684, "min_date": "2021-09-13T09:43:00Z", "max_date": "2021-09-13T10:34:00Z", "count_points": 2, "latitude": 47.29145, "longitude": 33.39158, "city": "Velyka Oleksandrivka", "images": []}, {"id": 486685, "min_date": "2021-09-13T09:43:00Z", "max_date": "2021-09-13T10:34:00Z", "count_points": 4, "latitude": 47.56108, "longitude": 33.95789, "city": "Novovorontsovka", "images": []}, {"id": 486686, "min_date": "2021-09-13T09:43:00Z", "max_date": "2021-09-13T10:34:00Z", "count_points": 6, "latitude": 47.69922, "longitude": 34.21881, "city": "Chortomlyk", "images": []}, {"id": 486687, "min_date": "2021-09-13T09:43:00Z", "max_date": "2021-09-13T10:02:00Z", "count_points": 6, "latitude": 47.67226, "longitude": 34.08446, "city": "Ordzhonikidze", "images": []}, {"id": 486688, "min_date": "2021-09-13T09:43:00Z", "max_date": "2021-09-13T10:34:00Z", "count_points": 3, "latitude": 47.8304, "longitude": 34.24208, "city": "Chortomlyk", "images": []}, {"id": 486689, "min_date": "2021-09-13T09:43:00Z", "max_date": "2021-09-13T10:34:00Z", "count_points": 3, "latitude": 46.41354, "longitude": 29.10816, "city": "Serpneve", "images": []}, {"id": 486690, "min_date": "2021-09-13T09:43:00Z", "max_date": "2021-09-13T10:34:00Z", "count_points": 2, "latitude": 47.23851, "longitude": 31.26592, "city": "Veselynove", "images": []}, {"id": 486691, "min_date": "2021-09-13T09:43:00Z", "max_date": "2021-09-13T09:43:00Z", "count_points": 1, "latitude": 48.60625, "longitude": 35.88109, "city": "Pavlohrad", "images": []}, {"id": 486692, "min_date": "2021-09-13T09:43:00Z", "max_date": "2021-09-13T10:34:00Z", "count_points": 3, "latitude": 48.17352, "longitude": 33.642, "city": "Zhovti Vody", "images": []}, {"id": 486693, "min_date": "2021-09-13T09:43:00Z", "max_date": "2021-09-13T10:34:00Z", "count_points": 16, "latitude": 47.66615, "longitude": 31.53204, "city": "Brats\u2019ke", "images": []}, {"id": 486694, "min_date": "2021-09-13T09:43:00Z", "max_date": "2021-09-14T10:45:00Z", "count_points": 4, "latitude": 48.50924, "longitude": 34.39431, "city": "Novomykolayivka", "images": []}, {"id": 486695, "min_date": "2021-09-13T09:43:00Z", "max_date": "2021-09-13T09:43:00Z", "count_points": 2, "latitude": 48.36665, "longitude": 33.27635, "city": "Petrove", "images": []}, {"id": 486696, "min_date": "2021-09-13T09:43:00Z", "max_date": "2021-09-13T09:43:00Z", "count_points": 1, "latitude": 47.57734, "longitude": 30.17839, "city": "Shyryayeve", "images": []}, {"id": 486697, "min_date": "2021-09-13T09:43:00Z", "max_date": "2021-09-13T10:34:00Z", "count_points": 2, "latitude": 49.66903, "longitude": 36.7524, "city": "Malynivka", "images": []}, {"id": 486698, "min_date": "2021-09-13T09:43:00Z", "max_date": "2021-09-13T10:34:00Z", "count_points": 3, "latitude": 48.51369, "longitude": 31.87858, "city": "Mala Vyska", "images": []}, {"id": 486699, "min_date": "2021-09-13T09:43:00Z", "max_date": "2021-09-16T09:37:00Z", "count_points": 4, "latitude": 47.84416, "longitude": 29.42922, "city": "Slobidka", "images": []}, {"id": 486700, "min_date": "2021-09-13T09:43:00Z", "max_date": "2021-09-13T09:43:00Z", "count_points": 2, "latitude": 50.09777, "longitude": 37.13955, "city": "Prykolotne", "images": []}, {"id": 486701, "min_date": "2021-09-13T09:43:00Z", "max_date": "2021-09-13T10:34:00Z", "count_points": 7, "latitude": 48.14364, "longitude": 29.82286, "city": "Peschana", "images": []}, {"id": 486702, "min_date": "2021-09-13T09:43:00Z", "max_date": "2021-09-13T11:23:00Z", "count_points": 2, "latitude": 49.99774, "longitude": 36.38159, "city": "Kulynychi", "images": []}, {"id": 486703, "min_date": "2021-09-13T09:43:00Z", "max_date": "2021-09-13T09:43:00Z", "count_points": 1, "latitude": 49.38853, "longitude": 33.74047, "city": "Kozel\u2019shchyna", "images": []}, {"id": 486704, "min_date": "2021-09-13T09:43:00Z", "max_date": "2021-09-17T10:58:00Z", "count_points": 5, "latitude": 48.90559, "longitude": 31.88204, "city": "Kapitanivka", "images": []}, {"id": 486705, "min_date": "2021-09-13T09:43:00Z", "max_date": "2021-09-13T09:43:00Z", "count_points": 1, "latitude": 49.78227, "longitude": 35.01829, "city": "Chutove", "images": []}, {"id": 486706, "min_date": "2021-09-13T09:43:00Z", "max_date": "2021-09-13T10:34:00Z", "count_points": 3, "latitude": 48.81109, "longitude": 31.20085, "city": "Yurkivka", "images": []}, {"id": 486707, "min_date": "2021-09-13T09:43:00Z", "max_date": "2021-09-13T09:43:00Z", "count_points": 1, "latitude": 50.12811, "longitude": 34.13138, "city": "Velyki Sorochyntsi", "images": []}, {"id": 486708, "min_date": "2021-09-13T09:43:00Z", "max_date": "2021-09-14T10:15:00Z", "count_points": 13, "latitude": 50.69821, "longitude": 31.46629, "city": "Bobrovytsya", "images": []}, {"id": 486709, "min_date": "2021-09-13T09:43:00Z", "max_date": "2021-09-13T10:34:00Z", "count_points": 2, "latitude": 51.01879, "longitude": 30.26134, "city": "Dymer", "images": []}, {"id": 486710, "min_date": "2021-09-13T09:43:00Z", "max_date": "2021-09-13T09:43:00Z", "count_points": 1, "latitude": 51.54828, "longitude": 32.03736, "city": "Mena", "images": []}, {"id": 486711, "min_date": "2021-09-13T11:23:00Z", "max_date": "2021-09-13T10:32:00Z", "count_points": 3, "latitude": 45.86955, "longitude": 29.54972, "city": "Tatarbunary", "images": []}, {"id": 486712, "min_date": "2021-09-13T11:23:00Z", "max_date": "2021-09-13T11:23:00Z", "count_points": 1, "latitude": 46.13119, "longitude": 32.94065, "city": "Skadovs\u2019k", "images": []}, {"id": 486713, "min_date": "2021-09-13T11:23:00Z", "max_date": "2021-09-13T11:23:00Z", "count_points": 3, "latitude": 46.02769, "longitude": 30.18152, "city": "Serhiyivka", "images": []}, {"id": 486714, "min_date": "2021-09-13T11:23:00Z", "max_date": "2021-09-13T10:34:00Z", "count_points": 2, "latitude": 46.33604, "longitude": 30.37436, "city": "Ovidiopol", "images": []}, {"id": 486715, "min_date": "2021-09-13T11:23:00Z", "max_date": "2021-09-13T10:34:00Z", "count_points": 4, "latitude": 46.29161, "longitude": 29.38629, "city": "Borodino", "images": []}, {"id": 486716, "min_date": "2021-09-13T11:23:00Z", "max_date": "2021-09-13T11:23:00Z", "count_points": 1, "latitude": 46.70767, "longitude": 35.02248, "city": "Yakymivka", "images": []}, {"id": 486717, "min_date": "2021-09-13T11:23:00Z", "max_date": "2021-09-13T10:34:00Z", "count_points": 4, "latitude": 47.03923, "longitude": 31.14701, "city": "Kurisove", "images": []}, {"id": 486718, "min_date": "2021-09-13T11:23:00Z", "max_date": "2021-09-16T11:19:00Z", "count_points": 8, "latitude": 47.36682, "longitude": 29.87565, "city": "Zatyshshya", "images": []}, {"id": 486719, "min_date": "2021-09-13T11:23:00Z", "max_date": "2021-09-13T10:34:00Z", "count_points": 5, "latitude": 47.50806, "longitude": 30.08278, "city": "Shyryayeve", "images": []}, {"id": 486720, "min_date": "2021-09-13T11:23:00Z", "max_date": "2021-09-15T11:36:00Z", "count_points": 5, "latitude": 47.59175, "longitude": 29.55577, "city": "Okny", "images": []}, {"id": 486721, "min_date": "2021-09-13T11:23:00Z", "max_date": "2021-09-13T10:34:00Z", "count_points": 4, "latitude": 47.75801, "longitude": 30.0442, "city": "Ananyiv Pershyi", "images": []}, {"id": 486722, "min_date": "2021-09-13T11:23:00Z", "max_date": "2021-09-13T10:34:00Z", "count_points": 2, "latitude": 47.8081, "longitude": 29.46386, "city": "Podil\u2019s\u2019k", "images": []}, {"id": 486723, "min_date": "2021-09-13T11:23:00Z", "max_date": "2021-09-13T11:23:00Z", "count_points": 2, "latitude": 48.12474, "longitude": 34.86864, "city": "Solone", "images": []}, {"id": 486724, "min_date": "2021-09-13T11:23:00Z", "max_date": "2021-09-13T11:23:00Z", "count_points": 1, "latitude": 48.19551, "longitude": 35.97808, "city": "Vasyl\u2019kivka", "images": []}, {"id": 486725, "min_date": "2021-09-13T11:23:00Z", "max_date": "2021-09-13T11:23:00Z", "count_points": 1, "latitude": 48.17689, "longitude": 26.28028, "city": "Marshintsy", "images": []}, {"id": 486726, "min_date": "2021-09-13T11:23:00Z", "max_date": "2021-09-13T11:23:00Z", "count_points": 1, "latitude": 48.76801, "longitude": 36.92966, "city": "Oleksandrivka", "images": []}, {"id": 486727, "min_date": "2021-09-13T11:23:00Z", "max_date": "2021-09-13T11:23:00Z", "count_points": 1, "latitude": 48.78327, "longitude": 29.91959, "city": "Khrystynivka", "images": []}, {"id": 486728, "min_date": "2021-09-13T11:23:00Z", "max_date": "2021-09-14T10:13:00Z", "count_points": 22, "latitude": 49.13613, "longitude": 38.0757, "city": "Kreminna", "images": [{"image_url": "486728.jpg", "timestamp": "2021-09-14T10:13:00Z"}]}, {"id": 486729, "min_date": "2021-09-13T11:23:00Z", "max_date": "2021-09-13T11:23:00Z", "count_points": 1, "latitude": 48.50785, "longitude": 25.30846, "city": "Zabolotiv", "images": []}, {"id": 486730, "min_date": "2021-09-13T11:23:00Z", "max_date": "2021-09-13T11:23:00Z", "count_points": 2, "latitude": 48.7024, "longitude": 24.62527, "city": "Hvizd", "images": []}, {"id": 486731, "min_date": "2021-09-13T11:23:00Z", "max_date": "2021-09-13T11:23:00Z", "count_points": 2, "latitude": 49.09963, "longitude": 26.83478, "city": "Dunayivtsi", "images": []}, {"id": 486732, "min_date": "2021-09-13T11:23:00Z", "max_date": "2021-09-13T11:23:00Z", "count_points": 1, "latitude": 49.55295, "longitude": 27.68028, "city": "Stara Syniava", "images": []}, {"id": 486733, "min_date": "2021-09-13T11:23:00Z", "max_date": "2021-09-13T11:23:00Z", "count_points": 1, "latitude": 49.90148, "longitude": 27.73892, "city": "Liubar", "images": []}, {"id": 486734, "min_date": "2021-09-13T11:23:00Z", "max_date": "2021-09-13T12:17:00Z", "count_points": 5, "latitude": 50.00181, "longitude": 27.32523, "city": "Novoselytsya", "images": []}, {"id": 486735, "min_date": "2021-09-13T11:25:00Z", "max_date": "2021-09-16T10:28:00Z", "count_points": 3, "latitude": 50.56504, "longitude": 28.93355, "city": "Holovyne", "images": []}, {"id": 486736, "min_date": "2021-09-13T11:25:00Z", "max_date": "2021-09-13T11:25:00Z", "count_points": 1, "latitude": 50.73982, "longitude": 30.58514, "city": "Novi Petrivtsi", "images": []}, {"id": 486737, "min_date": "2021-09-13T11:25:00Z", "max_date": "2021-09-13T11:42:00Z", "count_points": 4, "latitude": 51.15566, "longitude": 31.48458, "city": "Olyshivka", "images": []}, {"id": 486738, "min_date": "2021-09-13T11:25:00Z", "max_date": "2021-09-13T11:25:00Z", "count_points": 1, "latitude": 51.58634, "longitude": 31.92095, "city": "Berezna", "images": []}, {"id": 486739, "min_date": "2021-09-13T23:37:00Z", "max_date": "2021-09-14T00:28:00Z", "count_points": 3, "latitude": 49.06148, "longitude": 30.97655, "city": "Zvenihorodka", "images": []}, {"id": 486740, "min_date": "2021-09-13T23:37:00Z", "max_date": "2021-09-13T23:37:00Z", "count_points": 1, "latitude": 49.93896, "longitude": 37.1915, "city": "Velykyy Burluk", "images": []}, {"id": 486741, "min_date": "2021-09-13T23:37:00Z", "max_date": "2021-09-14T10:13:00Z", "count_points": 4, "latitude": 50.00036, "longitude": 35.61635, "city": "Staryy Merchyk", "images": []}, {"id": 486742, "min_date": "2021-09-13T23:37:00Z", "max_date": "2021-09-13T23:37:00Z", "count_points": 1, "latitude": 49.80388, "longitude": 36.36115, "city": "Vasyshcheve", "images": []}, {"id": 486743, "min_date": "2021-09-13T23:37:00Z", "max_date": "2021-09-13T10:34:00Z", "count_points": 5, "latitude": 49.18334, "longitude": 33.46102, "city": "Kremenchuk", "images": []}, {"id": 486744, "min_date": "2021-09-13T23:37:00Z", "max_date": "2021-09-18T00:52:00Z", "count_points": 147, "latitude": 48.29727, "longitude": 36.06421, "city": "Vasyl\u2019kivka", "images": [{"image_url": "486744.jpg", "timestamp": "2021-10-29T12:51:27.319031Z"}]}, {"id": 486745, "min_date": "2021-09-13T23:37:00Z", "max_date": "2021-09-14T10:13:00Z", "count_points": 4, "latitude": 48.27428, "longitude": 35.50395, "city": "Synel\u2019nykove", "images": []}, {"id": 486746, "min_date": "2021-09-13T23:37:00Z", "max_date": "2021-09-15T09:56:00Z", "count_points": 20, "latitude": 48.42213, "longitude": 33.93347, "city": "Vyshneve", "images": []}, {"id": 486747, "min_date": "2021-09-13T23:37:00Z", "max_date": "2021-09-13T23:37:00Z", "count_points": 1, "latitude": 48.19831, "longitude": 33.83919, "city": "Sofiyivka", "images": []}, {"id": 486748, "min_date": "2021-09-13T23:37:00Z", "max_date": "2021-09-13T22:48:00Z", "count_points": 4, "latitude": 47.59804, "longitude": 34.05574, "city": "Ordzhonikidze", "images": []}, {"id": 486749, "min_date": "2021-09-13T23:37:00Z", "max_date": "2021-09-14T00:28:00Z", "count_points": 5, "latitude": 47.16935, "longitude": 32.7034, "city": "Snihurivka", "images": []}, {"id": 486750, "min_date": "2021-09-13T23:37:00Z", "max_date": "2021-09-14T10:13:00Z", "count_points": 20, "latitude": 47.06915, "longitude": 31.5044, "city": "Berezanka", "images": []}, {"id": 486751, "min_date": "2021-09-13T23:39:00Z", "max_date": "2021-09-14T00:28:00Z", "count_points": 2, "latitude": 45.96408, "longitude": 28.78039, "city": "Novi Troyany", "images": []}, {"id": 486752, "min_date": "2021-09-14T09:24:00Z", "max_date": "2021-09-14T10:13:00Z", "count_points": 3, "latitude": 46.36901, "longitude": 32.23491, "city": "Chulakivka", "images": []}, {"id": 486753, "min_date": "2021-09-14T09:24:00Z", "max_date": "2021-09-14T10:13:00Z", "count_points": 8, "latitude": 47.96855, "longitude": 37.12711, "city": "Kurakhovo", "images": []}, {"id": 486754, "min_date": "2021-09-14T09:24:00Z", "max_date": "2021-09-14T10:13:00Z", "count_points": 3, "latitude": 48.60052, "longitude": 38.93479, "city": "Slov`yanoserbsk", "images": []}, {"id": 486755, "min_date": "2021-09-14T09:24:00Z", "max_date": "2021-09-14T09:24:00Z", "count_points": 1, "latitude": 46.66896, "longitude": 32.02789, "city": "Parutyne", "images": []}, {"id": 486756, "min_date": "2021-09-14T09:24:00Z", "max_date": "2021-09-14T10:13:00Z", "count_points": 6, "latitude": 46.87109, "longitude": 36.98284, "city": "Urzuf", "images": []}, {"id": 486757, "min_date": "2021-09-14T09:24:00Z", "max_date": "2021-09-15T09:49:00Z", "count_points": 4, "latitude": 46.8824, "longitude": 36.4278, "city": "Prymors\u2019k", "images": []}, {"id": 486758, "min_date": "2021-09-14T09:24:00Z", "max_date": "2021-09-18T10:19:00Z", "count_points": 6, "latitude": 46.66335, "longitude": 34.74052, "city": "Ivanivka", "images": []}, {"id": 486759, "min_date": "2021-09-14T09:24:00Z", "max_date": "2021-09-14T09:24:00Z", "count_points": 1, "latitude": 46.60322, "longitude": 34.51154, "city": "Ivanivka", "images": []}, {"id": 486760, "min_date": "2021-09-14T09:24:00Z", "max_date": "2021-09-14T09:24:00Z", "count_points": 2, "latitude": 48.39017, "longitude": 39.36232, "city": "Rozkishne", "images": []}, {"id": 486761, "min_date": "2021-09-14T09:26:00Z", "max_date": "2021-09-17T09:20:00Z", "count_points": 91, "latitude": 49.70448, "longitude": 32.82764, "city": "Orzhytsya", "images": []}, {"id": 486762, "min_date": "2021-09-14T09:26:00Z", "max_date": "2021-09-14T10:45:00Z", "count_points": 4, "latitude": 50.60646, "longitude": 34.6414, "city": "Lebedyn", "images": []}, {"id": 486763, "min_date": "2021-09-14T09:26:00Z", "max_date": "2021-09-14T09:26:00Z", "count_points": 1, "latitude": 50.75739, "longitude": 34.01275, "city": "Nedryhayliv", "images": []}, {"id": 486764, "min_date": "2021-09-14T09:26:00Z", "max_date": "2021-09-14T08:56:00Z", "count_points": 2, "latitude": 48.26861, "longitude": 36.55801, "city": "Mezhova", "images": []}, {"id": 486765, "min_date": "2021-09-14T09:26:00Z", "max_date": "2021-09-16T11:19:00Z", "count_points": 26, "latitude": 47.57338, "longitude": 33.89711, "city": "Novovorontsovka", "images": []}, {"id": 486766, "min_date": "2021-09-14T09:26:00Z", "max_date": "2021-09-15T09:56:00Z", "count_points": 6, "latitude": 47.78925, "longitude": 34.36629, "city": "Nikopol", "images": []}, {"id": 486767, "min_date": "2021-09-14T09:26:00Z", "max_date": "2021-09-14T10:13:00Z", "count_points": 6, "latitude": 48.63144, "longitude": 36.9931, "city": "Novodonets\u2019ke", "images": []}, {"id": 486768, "min_date": "2021-09-14T09:26:00Z", "max_date": "2021-09-14T10:13:00Z", "count_points": 2, "latitude": 48.47996, "longitude": 36.43391, "city": "Petropavlivka", "images": []}, {"id": 486769, "min_date": "2021-09-14T09:26:00Z", "max_date": "2021-09-14T09:26:00Z", "count_points": 1, "latitude": 49.42746, "longitude": 39.93087, "city": "Milove", "images": []}, {"id": 486770, "min_date": "2021-09-14T09:26:00Z", "max_date": "2021-09-14T09:26:00Z", "count_points": 1, "latitude": 48.68893, "longitude": 37.12392, "city": "Novodonets\u2019ke", "images": []}, {"id": 486771, "min_date": "2021-09-14T09:26:00Z", "max_date": "2021-09-14T10:13:00Z", "count_points": 6, "latitude": 46.95941, "longitude": 31.35649, "city": "Berezanka", "images": []}, {"id": 486772, "min_date": "2021-09-14T09:26:00Z", "max_date": "2021-09-14T09:26:00Z", "count_points": 1, "latitude": 49.33797, "longitude": 38.21509, "city": "Svatove", "images": []}, {"id": 486773, "min_date": "2021-09-14T09:26:00Z", "max_date": "2021-09-14T10:13:00Z", "count_points": 12, "latitude": 49.26066, "longitude": 37.45999, "city": "Chervonyy Oskil", "images": []}, {"id": 486774, "min_date": "2021-09-14T11:04:00Z", "max_date": "2021-09-14T10:13:00Z", "count_points": 11, "latitude": 47.39463, "longitude": 37.92578, "city": "Tel\u2019manove", "images": []}, {"id": 486775, "min_date": "2021-09-14T11:04:00Z", "max_date": "2021-09-17T10:58:00Z", "count_points": 13, "latitude": 45.36284, "longitude": 33.60578, "city": "Vinogradovo", "images": []}, {"id": 486776, "min_date": "2021-09-14T11:04:00Z", "max_date": "2021-09-14T11:53:00Z", "count_points": 3, "latitude": 45.44071, "longitude": 28.91818, "city": "Izmayil", "images": []}, {"id": 486777, "min_date": "2021-09-14T11:04:00Z", "max_date": "2021-09-14T11:04:00Z", "count_points": 1, "latitude": 45.54333, "longitude": 29.60194, "city": "Vylkove", "images": []}, {"id": 486778, "min_date": "2021-09-14T11:04:00Z", "max_date": "2021-09-14T11:04:00Z", "count_points": 1, "latitude": 45.43502, "longitude": 28.57628, "city": "Ozerne", "images": []}, {"id": 486779, "min_date": "2021-09-14T11:04:00Z", "max_date": "2021-09-14T10:13:00Z", "count_points": 3, "latitude": 46.48897, "longitude": 33.1128, "city": "Brylivka", "images": []}, {"id": 486780, "min_date": "2021-09-14T11:04:00Z", "max_date": "2021-09-14T11:04:00Z", "count_points": 2, "latitude": 46.50769, "longitude": 32.49143, "city": "Hola Prystan\u2019", "images": []}, {"id": 486781, "min_date": "2021-09-14T11:04:00Z", "max_date": "2021-09-15T09:56:00Z", "count_points": 7, "latitude": 46.66453, "longitude": 33.65985, "city": "Lyubymivka", "images": []}, {"id": 486782, "min_date": "2021-09-14T11:04:00Z", "max_date": "2021-09-14T11:04:00Z", "count_points": 2, "latitude": 46.67706, "longitude": 32.24927, "city": "Stanislav", "images": []}, {"id": 486783, "min_date": "2021-09-14T11:04:00Z", "max_date": "2021-09-14T10:13:00Z", "count_points": 7, "latitude": 46.88361, "longitude": 33.51473, "city": "Kakhovka", "images": []}, {"id": 486784, "min_date": "2021-09-14T11:04:00Z", "max_date": "2021-09-14T11:04:00Z", "count_points": 1, "latitude": 46.97033, "longitude": 33.18546, "city": "Dnipryany", "images": []}, {"id": 486785, "min_date": "2021-09-14T11:04:00Z", "max_date": "2021-09-14T11:04:00Z", "count_points": 1, "latitude": 47.21597, "longitude": 36.09552, "city": "Chernihivka", "images": []}, {"id": 486786, "min_date": "2021-09-14T11:04:00Z", "max_date": "2021-09-14T10:43:00Z", "count_points": 7, "latitude": 47.38712, "longitude": 37.99222, "city": "Tel\u2019manove", "images": []}, {"id": 486787, "min_date": "2021-09-14T11:04:00Z", "max_date": "2021-09-14T11:55:00Z", "count_points": 3, "latitude": 47.01049, "longitude": 32.08687, "city": "Mykolayiv", "images": []}, {"id": 486788, "min_date": "2021-09-14T11:04:00Z", "max_date": "2021-09-17T23:14:00Z", "count_points": 17, "latitude": 47.40675, "longitude": 34.0645, "city": "Novovorontsovka", "images": []}, {"id": 486789, "min_date": "2021-09-14T11:04:00Z", "max_date": "2021-09-14T11:04:00Z", "count_points": 1, "latitude": 47.29153, "longitude": 31.00724, "city": "Berezivka", "images": []}, {"id": 486790, "min_date": "2021-09-14T11:04:00Z", "max_date": "2021-09-13T10:34:00Z", "count_points": 2, "latitude": 47.6555, "longitude": 34.90897, "city": "Vyshchetarasivka", "images": []}, {"id": 486791, "min_date": "2021-09-14T11:04:00Z", "max_date": "2021-09-14T11:04:00Z", "count_points": 1, "latitude": 47.79034, "longitude": 36.61346, "city": "Velyka Novosilka", "images": []}, {"id": 486792, "min_date": "2021-09-14T11:04:00Z", "max_date": "2021-09-16T09:34:00Z", "count_points": 17, "latitude": 47.8388, "longitude": 37.61534, "city": "Dokuchayevs\u2019k", "images": []}, {"id": 486793, "min_date": "2021-09-14T11:04:00Z", "max_date": "2021-09-14T11:04:00Z", "count_points": 1, "latitude": 47.92052, "longitude": 39.30452, "city": "Roven\u2019ky", "images": []}, {"id": 486794, "min_date": "2021-09-14T11:06:00Z", "max_date": "2021-09-14T10:13:00Z", "count_points": 2, "latitude": 47.81074, "longitude": 32.42692, "city": "Novyy Buh", "images": []}, {"id": 486795, "min_date": "2021-09-14T11:06:00Z", "max_date": "2021-09-14T10:45:00Z", "count_points": 2, "latitude": 47.94349, "longitude": 32.28389, "city": "Bobrynets", "images": []}, {"id": 486796, "min_date": "2021-09-14T11:06:00Z", "max_date": "2021-09-14T10:13:00Z", "count_points": 4, "latitude": 48.32979, "longitude": 37.28082, "city": "Myrnohrad", "images": []}, {"id": 486797, "min_date": "2021-09-14T11:06:00Z", "max_date": "2021-09-14T11:06:00Z", "count_points": 1, "latitude": 48.37018, "longitude": 36.98394, "city": "Dobropillya", "images": []}, {"id": 486798, "min_date": "2021-09-14T11:06:00Z", "max_date": "2021-09-14T11:06:00Z", "count_points": 1, "latitude": 48.22159, "longitude": 33.55534, "city": "Zhovti Vody", "images": []}, {"id": 486799, "min_date": "2021-09-14T11:06:00Z", "max_date": "2021-09-14T10:13:00Z", "count_points": 2, "latitude": 48.33632, "longitude": 33.0547, "city": "Petrove", "images": []}, {"id": 486800, "min_date": "2021-09-14T11:06:00Z", "max_date": "2021-09-15T09:39:00Z", "count_points": 3, "latitude": 48.0396, "longitude": 29.72435, "city": "Peschana", "images": []}, {"id": 486801, "min_date": "2021-09-14T11:06:00Z", "max_date": "2021-09-14T10:13:00Z", "count_points": 2, "latitude": 48.62686, "longitude": 35.6943, "city": "Pavlohrad", "images": []}, {"id": 486802, "min_date": "2021-09-14T11:06:00Z", "max_date": "2021-09-14T11:06:00Z", "count_points": 1, "latitude": 48.38549, "longitude": 29.48103, "city": "Bershad", "images": []}, {"id": 486803, "min_date": "2021-09-14T11:06:00Z", "max_date": "2021-09-14T11:06:00Z", "count_points": 1, "latitude": 49.12478, "longitude": 36.9655, "city": "Petrivs\u2019ke", "images": []}, {"id": 486804, "min_date": "2021-09-14T11:06:00Z", "max_date": "2021-09-14T11:06:00Z", "count_points": 1, "latitude": 48.51378, "longitude": 27.81282, "city": "Mohyliv-Podilskyi", "images": []}, {"id": 486805, "min_date": "2021-09-14T11:06:00Z", "max_date": "2021-09-14T10:13:00Z", "count_points": 4, "latitude": 49.52616, "longitude": 38.57596, "city": "Bilokurakyne", "images": []}, {"id": 486806, "min_date": "2021-09-14T11:06:00Z", "max_date": "2021-09-14T10:13:00Z", "count_points": 4, "latitude": 49.07873, "longitude": 30.47721, "city": "Buky", "images": []}, {"id": 486807, "min_date": "2021-09-14T11:06:00Z", "max_date": "2021-09-14T11:06:00Z", "count_points": 1, "latitude": 48.11932, "longitude": 22.66663, "city": "Vary", "images": []}, {"id": 486808, "min_date": "2021-09-14T11:06:00Z", "max_date": "2021-09-14T11:06:00Z", "count_points": 2, "latitude": 48.22412, "longitude": 22.74775, "city": "Velyki Berehy", "images": []}, {"id": 486809, "min_date": "2021-09-14T11:06:00Z", "max_date": "2021-09-14T10:45:00Z", "count_points": 2, "latitude": 49.44489, "longitude": 31.95336, "city": "Russkaya Polyana", "images": []}, {"id": 486810, "min_date": "2021-09-14T11:06:00Z", "max_date": "2021-09-14T10:13:00Z", "count_points": 6, "latitude": 49.86319, "longitude": 37.16854, "city": "Shevchenkove", "images": []}, {"id": 486811, "min_date": "2021-09-14T11:06:00Z", "max_date": "2021-09-14T11:06:00Z", "count_points": 1, "latitude": 49.82756, "longitude": 27.34371, "city": "Starokostiantyniv", "images": []}, {"id": 486812, "min_date": "2021-09-14T11:06:00Z", "max_date": "2021-09-14T11:06:00Z", "count_points": 1, "latitude": 50.48697, "longitude": 26.82286, "city": "Velyki Mezhyrichi", "images": []}, {"id": 486813, "min_date": "2021-09-14T23:20:00Z", "max_date": "2021-09-13T10:34:00Z", "count_points": 4, "latitude": 50.01239, "longitude": 34.07531, "city": "Velyki Sorochyntsi", "images": []}, {"id": 486814, "min_date": "2021-09-14T23:20:00Z", "max_date": "2021-09-15T00:07:00Z", "count_points": 9, "latitude": 49.71568, "longitude": 36.72231, "city": "Malynivka", "images": []}, {"id": 486815, "min_date": "2021-09-14T23:20:00Z", "max_date": "2021-09-14T23:20:00Z", "count_points": 1, "latitude": 49.81828, "longitude": 34.19596, "city": "Shyshaky", "images": []}, {"id": 486816, "min_date": "2021-09-14T23:20:00Z", "max_date": "2021-09-15T09:56:00Z", "count_points": 5, "latitude": 49.20849, "longitude": 39.55341, "city": "Bilovodsk", "images": []}, {"id": 486817, "min_date": "2021-09-14T23:20:00Z", "max_date": "2021-09-15T00:07:00Z", "count_points": 6, "latitude": 48.84343, "longitude": 37.13681, "city": "Barvinkove", "images": []}, {"id": 486818, "min_date": "2021-09-14T23:20:00Z", "max_date": "2021-09-15T00:07:00Z", "count_points": 2, "latitude": 48.29216, "longitude": 39.67703, "city": "Molodohvardiys\u2019k", "images": []}, {"id": 486819, "min_date": "2021-09-14T23:20:00Z", "max_date": "2021-09-14T23:20:00Z", "count_points": 2, "latitude": 47.7544, "longitude": 33.86538, "city": "Sholokhove", "images": []}, {"id": 486820, "min_date": "2021-09-14T23:20:00Z", "max_date": "2021-09-17T10:58:00Z", "count_points": 10, "latitude": 47.55514, "longitude": 31.49706, "city": "Voznesensk", "images": []}, {"id": 486821, "min_date": "2021-09-14T23:20:00Z", "max_date": "2021-09-16T09:37:00Z", "count_points": 16, "latitude": 47.18987, "longitude": 31.31937, "city": "Veselynove", "images": []}, {"id": 486822, "min_date": "2021-09-14T23:20:00Z", "max_date": "2021-09-15T00:09:00Z", "count_points": 3, "latitude": 47.05232, "longitude": 32.80484, "city": "Snihurivka", "images": []}, {"id": 486823, "min_date": "2021-09-14T23:20:00Z", "max_date": "2021-09-15T09:56:00Z", "count_points": 7, "latitude": 46.73365, "longitude": 32.22522, "city": "Shevchenkove", "images": []}, {"id": 486824, "min_date": "2021-09-15T01:00:00Z", "max_date": "2021-09-17T10:58:00Z", "count_points": 16, "latitude": 47.69446, "longitude": 32.45466, "city": "Novyy Buh", "images": []}, {"id": 486825, "min_date": "2021-09-15T01:00:00Z", "max_date": "2021-09-15T01:00:00Z", "count_points": 1, "latitude": 45.75486, "longitude": 29.44336, "city": "Tatarbunary", "images": []}, {"id": 486826, "min_date": "2021-09-15T01:00:00Z", "max_date": "2021-09-15T00:09:00Z", "count_points": 2, "latitude": 48.83859, "longitude": 34.38146, "city": "Tsarychanka", "images": []}, {"id": 486827, "min_date": "2021-09-15T09:05:00Z", "max_date": "2021-09-15T09:56:00Z", "count_points": 4, "latitude": 47.70678, "longitude": 37.56687, "city": "Volnovakha", "images": []}, {"id": 486828, "min_date": "2021-09-15T09:05:00Z", "max_date": "2021-09-15T09:56:00Z", "count_points": 13, "latitude": 47.19426, "longitude": 38.0369, "city": "Novoazovsk", "images": []}, {"id": 486829, "min_date": "2021-09-15T09:05:00Z", "max_date": "2021-09-17T10:58:00Z", "count_points": 7, "latitude": 47.71593, "longitude": 38.35263, "city": "Kuteynykove", "images": [{"image_url": "486829.jpg", "timestamp": "2021-09-17T10:58:00Z"}]}, {"id": 486830, "min_date": "2021-09-15T09:05:00Z", "max_date": "2021-09-15T09:56:00Z", "count_points": 4, "latitude": 46.79749, "longitude": 34.84124, "city": "Vesele", "images": []}, {"id": 486831, "min_date": "2021-09-15T09:05:00Z", "max_date": "2021-09-15T09:56:00Z", "count_points": 7, "latitude": 46.9306, "longitude": 34.941, "city": "Vesele", "images": []}, {"id": 486832, "min_date": "2021-09-15T09:05:00Z", "max_date": "2021-09-18T09:00:00Z", "count_points": 5, "latitude": 48.48403, "longitude": 39.22571, "city": "Rozkishne", "images": []}, {"id": 486833, "min_date": "2021-09-15T09:05:00Z", "max_date": "2021-09-15T09:56:00Z", "count_points": 4, "latitude": 48.47591, "longitude": 38.70072, "city": "Bryanka", "images": []}, {"id": 486834, "min_date": "2021-09-15T09:05:00Z", "max_date": "2021-09-15T09:56:00Z", "count_points": 4, "latitude": 47.98761, "longitude": 37.07815, "city": "Kurakhovo", "images": []}, {"id": 486835, "min_date": "2021-09-15T09:05:00Z", "max_date": "2021-09-15T09:56:00Z", "count_points": 5, "latitude": 47.80908, "longitude": 36.4393, "city": "Hulyaypole", "images": []}, {"id": 486836, "min_date": "2021-09-15T09:05:00Z", "max_date": "2021-09-16T11:19:00Z", "count_points": 15, "latitude": 47.67771, "longitude": 35.59491, "city": "Komyshuvakha", "images": []}, {"id": 486837, "min_date": "2021-09-15T09:05:00Z", "max_date": "2021-09-15T09:56:00Z", "count_points": 5, "latitude": 48.71078, "longitude": 38.12195, "city": "Soledar", "images": []}, {"id": 486838, "min_date": "2021-09-15T09:05:00Z", "max_date": "2021-09-16T11:19:00Z", "count_points": 4, "latitude": 49.20653, "longitude": 37.74297, "city": "Borova", "images": []}, {"id": 486839, "min_date": "2021-09-15T09:05:00Z", "max_date": "2021-09-15T09:05:00Z", "count_points": 1, "latitude": 48.13266, "longitude": 34.53077, "city": "Novopokrovka", "images": []}, {"id": 486840, "min_date": "2021-09-15T09:05:00Z", "max_date": "2021-09-15T09:05:00Z", "count_points": 2, "latitude": 48.10976, "longitude": 34.14864, "city": "Sofiyivka", "images": []}, {"id": 486841, "min_date": "2021-09-15T09:05:00Z", "max_date": "2021-09-15T09:05:00Z", "count_points": 1, "latitude": 49.83784, "longitude": 36.45354, "city": "Vvedenka", "images": []}, {"id": 486842, "min_date": "2021-09-15T09:05:00Z", "max_date": "2021-09-16T09:37:00Z", "count_points": 9, "latitude": 50.0786, "longitude": 37.07222, "city": "Pechenihy", "images": []}, {"id": 486843, "min_date": "2021-09-15T10:45:00Z", "max_date": "2021-09-15T11:28:00Z", "count_points": 4, "latitude": 45.12567, "longitude": 34.26767, "city": "Novozhilovka", "images": []}, {"id": 486844, "min_date": "2021-09-15T10:45:00Z", "max_date": "2021-09-15T09:56:00Z", "count_points": 5, "latitude": 45.18516, "longitude": 34.65434, "city": "Zybiny", "images": []}, {"id": 486845, "min_date": "2021-09-15T10:45:00Z", "max_date": "2021-09-15T09:56:00Z", "count_points": 18, "latitude": 45.25891, "longitude": 34.55145, "city": "Drofino", "images": []}, {"id": 486846, "min_date": "2021-09-15T10:45:00Z", "max_date": "2021-09-15T10:45:00Z", "count_points": 1, "latitude": 45.32062, "longitude": 33.78817, "city": "Zernovoye", "images": []}, {"id": 486847, "min_date": "2021-09-15T10:45:00Z", "max_date": "2021-09-15T10:45:00Z", "count_points": 1, "latitude": 45.32467, "longitude": 33.30955, "city": "Koloski", "images": []}, {"id": 486848, "min_date": "2021-09-15T10:45:00Z", "max_date": "2021-09-15T09:56:00Z", "count_points": 5, "latitude": 46.38626, "longitude": 34.90113, "city": "Partyzany", "images": []}, {"id": 486849, "min_date": "2021-09-15T10:45:00Z", "max_date": "2021-09-17T10:58:00Z", "count_points": 25, "latitude": 46.12273, "longitude": 32.59955, "city": "Lazurne", "images": []}, {"id": 486850, "min_date": "2021-09-15T10:45:00Z", "max_date": "2021-09-15T09:56:00Z", "count_points": 2, "latitude": 46.12254, "longitude": 32.35572, "city": "Novofedorivka", "images": []}, {"id": 486851, "min_date": "2021-09-15T10:45:00Z", "max_date": "2021-09-15T10:45:00Z", "count_points": 1, "latitude": 46.24657, "longitude": 32.73667, "city": "Krasne", "images": []}, {"id": 486852, "min_date": "2021-09-15T10:45:00Z", "max_date": "2021-09-15T10:45:00Z", "count_points": 2, "latitude": 45.66005, "longitude": 28.74241, "city": "Kalcheva", "images": []}, {"id": 486853, "min_date": "2021-09-15T10:45:00Z", "max_date": "2021-09-15T10:45:00Z", "count_points": 1, "latitude": 46.76349, "longitude": 36.55458, "city": "Prymors\u2019k", "images": []}, {"id": 486854, "min_date": "2021-09-15T10:45:00Z", "max_date": "2021-09-15T09:56:00Z", "count_points": 6, "latitude": 46.47102, "longitude": 33.53089, "city": "Chaplynka", "images": []}, {"id": 486855, "min_date": "2021-09-15T10:45:00Z", "max_date": "2021-09-15T10:45:00Z", "count_points": 2, "latitude": 46.66606, "longitude": 34.61709, "city": "Ivanivka", "images": []}, {"id": 486856, "min_date": "2021-09-15T10:45:00Z", "max_date": "2021-09-15T10:45:00Z", "count_points": 1, "latitude": 46.71438, "longitude": 34.86977, "city": "Yakymivka", "images": []}, {"id": 486857, "min_date": "2021-09-15T10:45:00Z", "max_date": "2021-09-16T09:34:00Z", "count_points": 5, "latitude": 46.66219, "longitude": 34.29561, "city": "Nyzhni Sirohozy", "images": []}, {"id": 486858, "min_date": "2021-09-15T10:45:00Z", "max_date": "2021-09-15T10:45:00Z", "count_points": 1, "latitude": 46.72382, "longitude": 34.72627, "city": "Ivanivka", "images": []}, {"id": 486859, "min_date": "2021-09-15T10:45:00Z", "max_date": "2021-09-15T11:36:00Z", "count_points": 3, "latitude": 46.69775, "longitude": 34.4852, "city": "Ivanivka", "images": []}, {"id": 486860, "min_date": "2021-09-15T10:45:00Z", "max_date": "2021-09-15T10:45:00Z", "count_points": 1, "latitude": 47.03961, "longitude": 35.78801, "city": "Rozivka", "images": []}, {"id": 486861, "min_date": "2021-09-15T10:45:00Z", "max_date": "2021-09-15T11:36:00Z", "count_points": 8, "latitude": 46.96586, "longitude": 34.57484, "city": "Nyzhni Sirohozy", "images": []}, {"id": 486862, "min_date": "2021-09-15T10:45:00Z", "max_date": "2021-09-15T09:56:00Z", "count_points": 3, "latitude": 46.83099, "longitude": 32.69644, "city": "Oleksandrivka", "images": []}, {"id": 486863, "min_date": "2021-09-15T10:45:00Z", "max_date": "2021-09-15T10:45:00Z", "count_points": 1, "latitude": 46.89998, "longitude": 32.97514, "city": "Kozachi Laheri", "images": []}, {"id": 486864, "min_date": "2021-09-15T10:45:00Z", "max_date": "2021-09-15T10:45:00Z", "count_points": 5, "latitude": 47.1797, "longitude": 34.30652, "city": "Verkhniy Rohachyk", "images": []}, {"id": 486865, "min_date": "2021-09-15T10:45:00Z", "max_date": "2021-09-15T11:36:00Z", "count_points": 3, "latitude": 46.99922, "longitude": 32.79492, "city": "Snihurivka", "images": []}, {"id": 486866, "min_date": "2021-09-15T10:45:00Z", "max_date": "2021-09-15T10:45:00Z", "count_points": 1, "latitude": 47.11926, "longitude": 33.35547, "city": "Velyka Oleksandrivka", "images": []}, {"id": 486867, "min_date": "2021-09-15T10:45:00Z", "max_date": "2021-09-15T10:45:00Z", "count_points": 1, "latitude": 47.6582, "longitude": 38.34512, "city": "Kuteynykove", "images": []}, {"id": 486868, "min_date": "2021-09-15T10:45:00Z", "max_date": "2021-09-15T10:45:00Z", "count_points": 1, "latitude": 47.18053, "longitude": 33.32495, "city": "Velyka Oleksandrivka", "images": []}, {"id": 486869, "min_date": "2021-09-15T10:45:00Z", "max_date": "2021-09-15T11:36:00Z", "count_points": 3, "latitude": 47.3738, "longitude": 34.94051, "city": "Balky", "images": []}, {"id": 486870, "min_date": "2021-09-15T10:45:00Z", "max_date": "2021-09-15T10:45:00Z", "count_points": 1, "latitude": 47.7985, "longitude": 38.5561, "city": "Amvrosiyivka", "images": []}, {"id": 486871, "min_date": "2021-09-15T10:45:00Z", "max_date": "2021-09-15T10:45:00Z", "count_points": 1, "latitude": 47.60464, "longitude": 35.88939, "city": "Mala Tokmachka", "images": []}, {"id": 486872, "min_date": "2021-09-15T10:45:00Z", "max_date": "2021-09-15T10:45:00Z", "count_points": 1, "latitude": 47.41916, "longitude": 34.13412, "city": "Chortomlyk", "images": []}, {"id": 486873, "min_date": "2021-09-15T10:45:00Z", "max_date": "2021-09-15T10:45:00Z", "count_points": 1, "latitude": 47.9772, "longitude": 38.57383, "city": "Torez", "images": []}, {"id": 486874, "min_date": "2021-09-15T10:45:00Z", "max_date": "2021-09-13T10:34:00Z", "count_points": 2, "latitude": 47.96445, "longitude": 38.14034, "city": "Khartsyz\u2019k", "images": []}, {"id": 486875, "min_date": "2021-09-15T10:45:00Z", "max_date": "2021-09-17T10:58:00Z", "count_points": 3, "latitude": 47.91441, "longitude": 37.50988, "city": "Mareyka", "images": []}, {"id": 486876, "min_date": "2021-09-15T10:45:00Z", "max_date": "2021-09-15T10:45:00Z", "count_points": 1, "latitude": 47.58006, "longitude": 33.98109, "city": "Novovorontsovka", "images": []}, {"id": 486877, "min_date": "2021-09-15T10:45:00Z", "max_date": "2021-09-15T09:56:00Z", "count_points": 3, "latitude": 47.13426, "longitude": 30.33952, "city": "Ivanivka", "images": []}, {"id": 486878, "min_date": "2021-09-15T10:45:00Z", "max_date": "2021-09-15T10:45:00Z", "count_points": 1, "latitude": 48.27917, "longitude": 39.81719, "city": "Uralo-Kavkaz", "images": []}, {"id": 486879, "min_date": "2021-09-15T10:45:00Z", "max_date": "2021-09-15T09:56:00Z", "count_points": 2, "latitude": 47.86583, "longitude": 34.44649, "city": "Novopokrovka", "images": []}, {"id": 486880, "min_date": "2021-09-15T10:45:00Z", "max_date": "2021-09-15T10:45:00Z", "count_points": 1, "latitude": 47.38406, "longitude": 30.63021, "city": "Mykolayivka", "images": []}, {"id": 486881, "min_date": "2021-09-15T10:45:00Z", "max_date": "2021-09-17T23:12:00Z", "count_points": 11, "latitude": 48.34043, "longitude": 39.12116, "city": "Uspenka", "images": []}, {"id": 486882, "min_date": "2021-09-15T10:45:00Z", "max_date": "2021-09-15T10:45:00Z", "count_points": 2, "latitude": 48.40701, "longitude": 38.16308, "city": "Svetlodarsk", "images": []}, {"id": 486883, "min_date": "2021-09-15T10:45:00Z", "max_date": "2021-09-15T11:36:00Z", "count_points": 5, "latitude": 48.23303, "longitude": 35.96544, "city": "Vasyl\u2019kivka", "images": []}, {"id": 486884, "min_date": "2021-09-15T10:45:00Z", "max_date": "2021-09-15T11:36:00Z", "count_points": 4, "latitude": 47.86631, "longitude": 32.49121, "city": "Ustynivka", "images": []}, {"id": 486885, "min_date": "2021-09-15T10:45:00Z", "max_date": "2021-09-15T10:45:00Z", "count_points": 1, "latitude": 48.57373, "longitude": 39.2274, "city": "Luhansk", "images": []}, {"id": 486886, "min_date": "2021-09-15T10:45:00Z", "max_date": "2021-09-17T23:12:00Z", "count_points": 2, "latitude": 48.04803, "longitude": 33.41957, "city": "Lozuvatka", "images": []}, {"id": 486887, "min_date": "2021-09-15T10:45:00Z", "max_date": "2021-09-15T10:45:00Z", "count_points": 1, "latitude": 47.65212, "longitude": 30.51419, "city": "Vradiyivka", "images": []}, {"id": 486888, "min_date": "2021-09-15T10:45:00Z", "max_date": "2021-09-15T10:45:00Z", "count_points": 1, "latitude": 48.06291, "longitude": 33.51477, "city": "Kryvyi Rih", "images": []}, {"id": 486889, "min_date": "2021-09-15T10:45:00Z", "max_date": "2021-09-15T11:36:00Z", "count_points": 3, "latitude": 48.08914, "longitude": 33.59786, "city": "Zhovti Vody", "images": []}, {"id": 486890, "min_date": "2021-09-15T10:45:00Z", "max_date": "2021-09-15T09:56:00Z", "count_points": 2, "latitude": 48.01982, "longitude": 32.84932, "city": "Dolynska", "images": []}, {"id": 486891, "min_date": "2021-09-15T10:45:00Z", "max_date": "2021-09-15T11:36:00Z", "count_points": 7, "latitude": 48.22538, "longitude": 33.75481, "city": "Piatykhatky", "images": []}, {"id": 486892, "min_date": "2021-09-15T10:45:00Z", "max_date": "2021-09-16T11:19:00Z", "count_points": 13, "latitude": 48.5498, "longitude": 35.24485, "city": "Novomoskovs\u2019k", "images": []}, {"id": 486893, "min_date": "2021-09-15T10:45:00Z", "max_date": "2021-09-15T10:45:00Z", "count_points": 1, "latitude": 49.02019, "longitude": 37.11052, "city": "Barvinkove", "images": []}, {"id": 486894, "min_date": "2021-09-15T10:45:00Z", "max_date": "2021-09-15T11:36:00Z", "count_points": 12, "latitude": 48.70624, "longitude": 32.91044, "city": "Pantayivka", "images": []}, {"id": 486895, "min_date": "2021-09-15T10:45:00Z", "max_date": "2021-09-15T09:56:00Z", "count_points": 8, "latitude": 48.94618, "longitude": 34.55837, "city": "Tsarychanka", "images": []}, {"id": 486896, "min_date": "2021-09-15T10:45:00Z", "max_date": "2021-09-15T10:45:00Z", "count_points": 1, "latitude": 48.93661, "longitude": 34.20369, "city": "Kobelyaky", "images": []}, {"id": 486897, "min_date": "2021-09-15T10:45:00Z", "max_date": "2021-09-15T11:36:00Z", "count_points": 9, "latitude": 49.30467, "longitude": 36.45622, "city": "Krasnopavlivka", "images": []}, {"id": 486898, "min_date": "2021-09-15T10:45:00Z", "max_date": "2021-09-15T10:45:00Z", "count_points": 1, "latitude": 48.76189, "longitude": 31.43056, "city": "Novomyrhorod", "images": []}, {"id": 486899, "min_date": "2021-09-15T10:45:00Z", "max_date": "2021-09-15T11:36:00Z", "count_points": 4, "latitude": 48.78094, "longitude": 31.02251, "city": "Katerynopil", "images": []}, {"id": 486900, "min_date": "2021-09-15T10:45:00Z", "max_date": "2021-09-16T11:17:00Z", "count_points": 24, "latitude": 49.47322, "longitude": 36.95702, "city": "Balakliya", "images": []}, {"id": 486901, "min_date": "2021-09-15T10:45:00Z", "max_date": "2021-09-15T09:56:00Z", "count_points": 3, "latitude": 49.52133, "longitude": 36.73958, "city": "Balakliya", "images": []}, {"id": 486902, "min_date": "2021-09-15T10:45:00Z", "max_date": "2021-09-15T10:45:00Z", "count_points": 1, "latitude": 49.54383, "longitude": 36.5941, "city": "Komsomol\u2019s\u2019ke", "images": []}, {"id": 486903, "min_date": "2021-09-15T10:45:00Z", "max_date": "2021-09-15T11:38:00Z", "count_points": 5, "latitude": 49.61428, "longitude": 37.29948, "city": "Shevchenkove", "images": []}, {"id": 486904, "min_date": "2021-09-15T10:45:00Z", "max_date": "2021-09-15T09:56:00Z", "count_points": 2, "latitude": 49.25434, "longitude": 33.52976, "city": "Kremenchuk", "images": []}, {"id": 486905, "min_date": "2021-09-15T10:45:00Z", "max_date": "2021-09-15T10:45:00Z", "count_points": 1, "latitude": 49.70872, "longitude": 36.5998, "city": "Eskhar", "images": []}, {"id": 486906, "min_date": "2021-09-15T10:45:00Z", "max_date": "2021-09-15T10:45:00Z", "count_points": 1, "latitude": 49.37133, "longitude": 32.97993, "city": "Hradyz\u2019k", "images": []}, {"id": 486907, "min_date": "2021-09-15T10:45:00Z", "max_date": "2021-09-15T10:45:00Z", "count_points": 1, "latitude": 49.61948, "longitude": 33.62086, "city": "Velyka Bahachka", "images": []}, {"id": 486908, "min_date": "2021-09-15T10:45:00Z", "max_date": "2021-09-15T11:38:00Z", "count_points": 6, "latitude": 49.9787, "longitude": 35.66585, "city": "Staryy Merchyk", "images": []}, {"id": 486909, "min_date": "2021-09-15T10:45:00Z", "max_date": "2021-09-15T09:56:00Z", "count_points": 2, "latitude": 49.80971, "longitude": 33.22731, "city": "Khorol", "images": []}, {"id": 486910, "min_date": "2021-09-15T10:45:00Z", "max_date": "2021-09-15T10:45:00Z", "count_points": 1, "latitude": 50.15855, "longitude": 30.71753, "city": "Ukrainka", "images": []}, {"id": 486911, "min_date": "2021-09-15T10:47:00Z", "max_date": "2021-09-15T10:47:00Z", "count_points": 1, "latitude": 51.21131, "longitude": 32.73557, "city": "Bakhmach", "images": []}, {"id": 486912, "min_date": "2021-09-15T10:47:00Z", "max_date": "2021-09-15T09:56:00Z", "count_points": 3, "latitude": 51.39013, "longitude": 32.52499, "city": "Sosnytsya", "images": []}, {"id": 486913, "min_date": "2021-09-15T10:47:00Z", "max_date": "2021-09-15T10:47:00Z", "count_points": 1, "latitude": 51.72458, "longitude": 31.67264, "city": "Sedniv", "images": []}, {"id": 486914, "min_date": "2021-09-15T12:27:00Z", "max_date": "2021-09-13T10:34:00Z", "count_points": 3, "latitude": 49.28899, "longitude": 24.2397, "city": "Khodoriv", "images": []}, {"id": 486915, "min_date": "2021-09-15T22:59:00Z", "max_date": "2021-09-15T23:50:00Z", "count_points": 2, "latitude": 49.55994, "longitude": 34.30048, "city": "Novi Sanzhary", "images": []}, {"id": 486916, "min_date": "2021-09-15T22:59:00Z", "max_date": "2021-09-15T22:59:00Z", "count_points": 1, "latitude": 48.64056, "longitude": 38.72167, "city": "Frunze", "images": []}, {"id": 486917, "min_date": "2021-09-15T22:59:00Z", "max_date": "2021-09-15T22:59:00Z", "count_points": 1, "latitude": 48.31937, "longitude": 31.73195, "city": "Rivne", "images": []}, {"id": 486918, "min_date": "2021-09-15T23:01:00Z", "max_date": "2021-09-16T11:19:00Z", "count_points": 2, "latitude": 46.92461, "longitude": 31.59845, "city": "Berezanka", "images": []}, {"id": 486919, "min_date": "2021-09-15T23:01:00Z", "max_date": "2021-09-15T23:01:00Z", "count_points": 1, "latitude": 46.85713, "longitude": 33.198, "city": "Dnipryany", "images": []}, {"id": 486920, "min_date": "2021-09-15T23:01:00Z", "max_date": "2021-09-15T23:52:00Z", "count_points": 6, "latitude": 45.60566, "longitude": 29.37465, "city": "Shevchenkove", "images": [{"image_url": "486920.jpg", "timestamp": "2021-09-15T23:52:00Z"}]}, {"id": 486921, "min_date": "2021-09-16T00:39:00Z", "max_date": "2021-09-16T11:17:00Z", "count_points": 15, "latitude": 51.29493, "longitude": 33.52408, "city": "Sloboda", "images": []}, {"id": 486922, "min_date": "2021-09-16T00:39:00Z", "max_date": "2021-09-13T22:46:00Z", "count_points": 3, "latitude": 50.06169, "longitude": 35.63137, "city": "Bohodukhiv", "images": []}, {"id": 486923, "min_date": "2021-09-16T00:41:00Z", "max_date": "2021-09-16T00:41:00Z", "count_points": 1, "latitude": 47.28887, "longitude": 31.47099, "city": "Veselynove", "images": []}, {"id": 486924, "min_date": "2021-09-16T08:48:00Z", "max_date": "2021-09-16T10:28:00Z", "count_points": 2, "latitude": 48.05573, "longitude": 38.96498, "city": "Miusyns\u2019k", "images": []}, {"id": 486925, "min_date": "2021-09-16T08:48:00Z", "max_date": "2021-09-16T08:48:00Z", "count_points": 1, "latitude": 49.33369, "longitude": 38.49472, "city": "Bilokurakyne", "images": []}, {"id": 486926, "min_date": "2021-09-16T08:48:00Z", "max_date": "2021-09-16T09:37:00Z", "count_points": 4, "latitude": 49.82048, "longitude": 36.7254, "city": "Malynivka", "images": []}, {"id": 486927, "min_date": "2021-09-16T10:26:00Z", "max_date": "2021-09-16T11:17:00Z", "count_points": 2, "latitude": 45.90175, "longitude": 34.1378, "city": "Tselinnoye", "images": []}, {"id": 486928, "min_date": "2021-09-16T10:28:00Z", "max_date": "2021-09-16T10:28:00Z", "count_points": 1, "latitude": 47.10728, "longitude": 36.82805, "city": "Osypenko", "images": []}, {"id": 486929, "min_date": "2021-09-16T10:28:00Z", "max_date": "2021-09-16T11:17:00Z", "count_points": 3, "latitude": 45.83796, "longitude": 28.9597, "city": "Horodnye", "images": []}, {"id": 486930, "min_date": "2021-09-16T10:28:00Z", "max_date": "2021-09-16T09:34:00Z", "count_points": 4, "latitude": 47.52954, "longitude": 38.20256, "city": "Tel\u2019manove", "images": []}, {"id": 486931, "min_date": "2021-09-16T10:28:00Z", "max_date": "2021-09-13T10:34:00Z", "count_points": 2, "latitude": 46.40416, "longitude": 30.35235, "city": "Mayaky", "images": []}, {"id": 486932, "min_date": "2021-09-16T10:28:00Z", "max_date": "2021-09-16T10:28:00Z", "count_points": 1, "latitude": 46.83122, "longitude": 32.56106, "city": "Chornobayivka", "images": []}, {"id": 486933, "min_date": "2021-09-16T10:28:00Z", "max_date": "2021-09-16T11:17:00Z", "count_points": 3, "latitude": 46.7951, "longitude": 31.74351, "city": "Parutyne", "images": []}, {"id": 486934, "min_date": "2021-09-16T10:28:00Z", "max_date": "2021-09-16T11:19:00Z", "count_points": 5, "latitude": 47.88937, "longitude": 38.29633, "city": "Kuteynykove", "images": []}, {"id": 486935, "min_date": "2021-09-16T10:28:00Z", "max_date": "2021-09-16T10:28:00Z", "count_points": 1, "latitude": 47.53989, "longitude": 35.55589, "city": "Komyshuvakha", "images": []}, {"id": 486936, "min_date": "2021-09-16T10:28:00Z", "max_date": "2021-09-16T09:34:00Z", "count_points": 5, "latitude": 48.00968, "longitude": 39.01648, "city": "Kripens\u2019kyy", "images": []}, {"id": 486937, "min_date": "2021-09-16T10:28:00Z", "max_date": "2021-09-16T09:34:00Z", "count_points": 7, "latitude": 48.01803, "longitude": 38.96345, "city": "Dmytrivka", "images": []}, {"id": 486938, "min_date": "2021-09-16T10:28:00Z", "max_date": "2021-09-16T11:19:00Z", "count_points": 4, "latitude": 47.5536, "longitude": 35.35277, "city": "Malokaterynivka", "images": []}, {"id": 486939, "min_date": "2021-09-16T10:28:00Z", "max_date": "2021-09-16T09:34:00Z", "count_points": 3, "latitude": 47.88473, "longitude": 37.50744, "city": "Mareyka", "images": []}, {"id": 486940, "min_date": "2021-09-16T10:28:00Z", "max_date": "2021-09-16T10:28:00Z", "count_points": 1, "latitude": 46.81913, "longitude": 30.8536, "city": "Dobroslav", "images": []}, {"id": 486941, "min_date": "2021-09-16T10:28:00Z", "max_date": "2021-09-16T10:32:00Z", "count_points": 2, "latitude": 47.47366, "longitude": 34.57165, "city": "Dniprovka", "images": []}, {"id": 486942, "min_date": "2021-09-16T10:28:00Z", "max_date": "2021-09-16T08:43:00Z", "count_points": 5, "latitude": 47.05022, "longitude": 31.98903, "city": "Mykolayiv", "images": []}, {"id": 486943, "min_date": "2021-09-16T10:28:00Z", "max_date": "2021-09-16T10:28:00Z", "count_points": 2, "latitude": 47.36485, "longitude": 33.82671, "city": "Novovorontsovka", "images": []}, {"id": 486944, "min_date": "2021-09-16T10:28:00Z", "max_date": "2021-09-16T09:34:00Z", "count_points": 3, "latitude": 48.13751, "longitude": 39.42421, "city": "Klenovyy", "images": []}, {"id": 486945, "min_date": "2021-09-16T10:28:00Z", "max_date": "2021-09-16T10:28:00Z", "count_points": 1, "latitude": 47.39174, "longitude": 33.53749, "city": "Vysokopillya", "images": []}, {"id": 486946, "min_date": "2021-09-16T10:28:00Z", "max_date": "2021-09-16T11:19:00Z", "count_points": 3, "latitude": 47.92559, "longitude": 36.83164, "city": "Velyka Novosilka", "images": []}, {"id": 486947, "min_date": "2021-09-16T10:28:00Z", "max_date": "2021-09-18T10:41:00Z", "count_points": 12, "latitude": 48.04554, "longitude": 37.65982, "city": "Avdiyivka", "images": []}, {"id": 486948, "min_date": "2021-09-16T10:28:00Z", "max_date": "2021-09-16T10:28:00Z", "count_points": 1, "latitude": 47.2067, "longitude": 32.09779, "city": "Mykolayiv", "images": []}, {"id": 486949, "min_date": "2021-09-16T10:28:00Z", "max_date": "2021-09-17T10:58:00Z", "count_points": 11, "latitude": 47.16018, "longitude": 31.62162, "city": "Olshanskoye", "images": []}, {"id": 486950, "min_date": "2021-09-16T10:28:00Z", "max_date": "2021-09-16T09:37:00Z", "count_points": 5, "latitude": 47.35084, "longitude": 32.57779, "city": "Bashtanka", "images": []}, {"id": 486951, "min_date": "2021-09-16T10:28:00Z", "max_date": "2021-09-16T11:19:00Z", "count_points": 3, "latitude": 46.86359, "longitude": 29.8509, "city": "Stepanivka", "images": []}, {"id": 486952, "min_date": "2021-09-16T10:28:00Z", "max_date": "2021-09-16T10:28:00Z", "count_points": 2, "latitude": 48.30004, "longitude": 38.53973, "city": "Chornukhyne", "images": []}, {"id": 486953, "min_date": "2021-09-16T10:28:00Z", "max_date": "2021-09-16T09:34:00Z", "count_points": 6, "latitude": 48.45028, "longitude": 39.55546, "city": "Simeykyne", "images": []}, {"id": 486954, "min_date": "2021-09-16T10:28:00Z", "max_date": "2021-09-16T10:28:00Z", "count_points": 1, "latitude": 48.27254, "longitude": 36.96544, "city": "Krasnoarmiys\u2019k", "images": []}, {"id": 486955, "min_date": "2021-09-16T10:28:00Z", "max_date": "2021-09-16T11:19:00Z", "count_points": 4, "latitude": 47.60522, "longitude": 32.40524, "city": "Novyy Buh", "images": []}, {"id": 486956, "min_date": "2021-09-16T10:28:00Z", "max_date": "2021-09-16T10:32:00Z", "count_points": 3, "latitude": 48.26446, "longitude": 36.43882, "city": "Petropavlivka", "images": []}, {"id": 486957, "min_date": "2021-09-16T10:28:00Z", "max_date": "2021-09-16T11:19:00Z", "count_points": 3, "latitude": 47.88542, "longitude": 33.53157, "city": "Kryvyi Rih", "images": []}, {"id": 486958, "min_date": "2021-09-16T10:28:00Z", "max_date": "2021-09-16T10:28:00Z", "count_points": 1, "latitude": 48.67819, "longitude": 38.8888, "city": "Slov`yanoserbsk", "images": []}, {"id": 486959, "min_date": "2021-09-16T10:28:00Z", "max_date": "2021-09-16T10:28:00Z", "count_points": 2, "latitude": 47.37154, "longitude": 30.29939, "city": "Shyryayeve", "images": []}, {"id": 486960, "min_date": "2021-09-16T10:28:00Z", "max_date": "2021-09-16T10:28:00Z", "count_points": 1, "latitude": 48.69286, "longitude": 37.95498, "city": "Artemivs\u2019k", "images": []}, {"id": 486961, "min_date": "2021-09-16T10:28:00Z", "max_date": "2021-09-16T10:28:00Z", "count_points": 1, "latitude": 48.10789, "longitude": 33.564, "city": "Zhovti Vody", "images": []}, {"id": 486962, "min_date": "2021-09-16T10:28:00Z", "max_date": "2021-09-16T10:28:00Z", "count_points": 1, "latitude": 47.88581, "longitude": 32.19664, "city": "Bobrynets", "images": []}, {"id": 486963, "min_date": "2021-09-16T10:28:00Z", "max_date": "2021-09-17T10:09:00Z", "count_points": 2, "latitude": 48.51255, "longitude": 36.11661, "city": "Yur\u201dyivka", "images": []}, {"id": 486964, "min_date": "2021-09-16T10:28:00Z", "max_date": "2021-09-16T11:19:00Z", "count_points": 2, "latitude": 48.4522, "longitude": 35.6591, "city": "Synel\u2019nykove", "images": []}, {"id": 486965, "min_date": "2021-09-16T10:28:00Z", "max_date": "2021-09-16T11:19:00Z", "count_points": 6, "latitude": 48.73477, "longitude": 37.65268, "city": "Kramators\u2019k", "images": []}, {"id": 486966, "min_date": "2021-09-16T10:28:00Z", "max_date": "2021-09-16T09:37:00Z", "count_points": 4, "latitude": 48.16927, "longitude": 33.28976, "city": "Lozuvatka", "images": []}, {"id": 486967, "min_date": "2021-09-16T10:28:00Z", "max_date": "2021-09-16T11:19:00Z", "count_points": 8, "latitude": 47.59647, "longitude": 30.10759, "city": "Ananyiv Pershyi", "images": []}, {"id": 486968, "min_date": "2021-09-16T10:28:00Z", "max_date": "2021-09-16T10:28:00Z", "count_points": 1, "latitude": 48.42382, "longitude": 34.81227, "city": "Surs\u2019ko-Mykhaylivka", "images": []}, {"id": 486969, "min_date": "2021-09-16T10:28:00Z", "max_date": "2021-09-16T10:28:00Z", "count_points": 1, "latitude": 48.00976, "longitude": 31.51943, "city": "Brats\u2019ke", "images": []}, {"id": 486970, "min_date": "2021-09-16T10:28:00Z", "max_date": "2021-09-16T09:37:00Z", "count_points": 3, "latitude": 48.91081, "longitude": 37.08593, "city": "Barvinkove", "images": []}, {"id": 486971, "min_date": "2021-09-16T10:28:00Z", "max_date": "2021-09-16T11:19:00Z", "count_points": 9, "latitude": 48.53414, "longitude": 34.22222, "city": "Novomykolayivka", "images": []}, {"id": 486972, "min_date": "2021-09-16T10:28:00Z", "max_date": "2021-09-16T09:37:00Z", "count_points": 2, "latitude": 48.1754, "longitude": 32.05306, "city": "Bobrynets", "images": []}, {"id": 486973, "min_date": "2021-09-16T10:28:00Z", "max_date": "2021-09-16T11:19:00Z", "count_points": 2, "latitude": 49.09955, "longitude": 36.64945, "city": "Blyznyuky", "images": []}, {"id": 486974, "min_date": "2021-09-16T10:28:00Z", "max_date": "2021-09-16T10:28:00Z", "count_points": 2, "latitude": 48.63649, "longitude": 33.13747, "city": "Oleksandriya", "images": []}, {"id": 486975, "min_date": "2021-09-16T10:28:00Z", "max_date": "2021-09-16T10:28:00Z", "count_points": 1, "latitude": 48.63864, "longitude": 33.04551, "city": "Oleksandriys\u2019ke", "images": []}, {"id": 486976, "min_date": "2021-09-16T10:28:00Z", "max_date": "2021-09-16T11:19:00Z", "count_points": 7, "latitude": 49.03876, "longitude": 35.42709, "city": "Zachepylivka", "images": []}, {"id": 486977, "min_date": "2021-09-16T10:28:00Z", "max_date": "2021-09-16T10:28:00Z", "count_points": 1, "latitude": 48.47756, "longitude": 31.88632, "city": "Rivne", "images": []}, {"id": 486978, "min_date": "2021-09-16T10:28:00Z", "max_date": "2021-09-16T10:28:00Z", "count_points": 1, "latitude": 49.12801, "longitude": 35.99616, "city": "Sakhnovshchyna", "images": []}, {"id": 486979, "min_date": "2021-09-16T10:28:00Z", "max_date": "2021-09-16T10:28:00Z", "count_points": 2, "latitude": 48.61311, "longitude": 31.22464, "city": "Lypnyazhka", "images": []}, {"id": 486980, "min_date": "2021-09-16T10:28:00Z", "max_date": "2021-09-16T10:34:00Z", "count_points": 3, "latitude": 48.72257, "longitude": 31.44606, "city": "Novomyrhorod", "images": []}, {"id": 486981, "min_date": "2021-09-16T10:28:00Z", "max_date": "2021-09-16T10:28:00Z", "count_points": 3, "latitude": 49.03697, "longitude": 32.08669, "city": "Kamianka", "images": []}, {"id": 486982, "min_date": "2021-09-16T10:28:00Z", "max_date": "2021-09-16T09:37:00Z", "count_points": 8, "latitude": 49.87172, "longitude": 37.02232, "city": "Pechenihy", "images": []}, {"id": 486983, "min_date": "2021-09-16T10:28:00Z", "max_date": "2021-09-16T10:28:00Z", "count_points": 1, "latitude": 48.61575, "longitude": 28.91407, "city": "Tulchyn", "images": []}, {"id": 486984, "min_date": "2021-09-16T10:28:00Z", "max_date": "2021-09-16T10:28:00Z", "count_points": 1, "latitude": 49.00617, "longitude": 30.50841, "city": "Buky", "images": []}, {"id": 486985, "min_date": "2021-09-16T10:28:00Z", "max_date": "2021-09-16T09:37:00Z", "count_points": 3, "latitude": 49.01347, "longitude": 30.13527, "city": "Mankivka", "images": []}, {"id": 486986, "min_date": "2021-09-16T10:28:00Z", "max_date": "2021-09-16T10:28:00Z", "count_points": 2, "latitude": 50.23204, "longitude": 37.30036, "city": "Prykolotne", "images": []}, {"id": 486987, "min_date": "2021-09-16T10:28:00Z", "max_date": "2021-09-16T11:17:00Z", "count_points": 3, "latitude": 49.58107, "longitude": 32.01851, "city": "Zolotonosha", "images": []}, {"id": 486988, "min_date": "2021-09-16T10:28:00Z", "max_date": "2021-09-16T10:28:00Z", "count_points": 1, "latitude": 49.04363, "longitude": 29.12943, "city": "Illintsi", "images": []}, {"id": 486989, "min_date": "2021-09-16T10:28:00Z", "max_date": "2021-09-16T11:17:00Z", "count_points": 2, "latitude": 49.28141, "longitude": 30.21439, "city": "Roskoshnyy", "images": []}, {"id": 486990, "min_date": "2021-09-16T10:28:00Z", "max_date": "2021-09-16T10:34:00Z", "count_points": 3, "latitude": 49.87853, "longitude": 32.67091, "city": "Orzhytsya", "images": []}, {"id": 486991, "min_date": "2021-09-16T10:28:00Z", "max_date": "2021-09-16T10:28:00Z", "count_points": 1, "latitude": 49.56578, "longitude": 30.86321, "city": "Bohuslav", "images": []}, {"id": 486992, "min_date": "2021-09-16T10:28:00Z", "max_date": "2021-09-16T10:34:00Z", "count_points": 4, "latitude": 50.01107, "longitude": 32.63086, "city": "Hrebinka", "images": []}, {"id": 486993, "min_date": "2021-09-16T10:28:00Z", "max_date": "2021-09-16T11:17:00Z", "count_points": 2, "latitude": 48.71803, "longitude": 25.85826, "city": "Zalishchyky", "images": []}, {"id": 486994, "min_date": "2021-09-16T10:28:00Z", "max_date": "2021-09-16T09:37:00Z", "count_points": 2, "latitude": 49.68946, "longitude": 29.5746, "city": "Skvyra", "images": []}, {"id": 486995, "min_date": "2021-09-16T10:28:00Z", "max_date": "2021-09-16T11:17:00Z", "count_points": 2, "latitude": 48.97477, "longitude": 25.74751, "city": "Yahil\u2019nytsya", "images": []}, {"id": 486996, "min_date": "2021-09-16T10:28:00Z", "max_date": "2021-09-16T10:28:00Z", "count_points": 2, "latitude": 49.76915, "longitude": 28.95045, "city": "Kozyatyn", "images": []}, {"id": 486997, "min_date": "2021-09-16T10:28:00Z", "max_date": "2021-09-16T10:28:00Z", "count_points": 1, "latitude": 49.23086, "longitude": 25.70047, "city": "Terebovlya", "images": []}, {"id": 486998, "min_date": "2021-09-16T10:28:00Z", "max_date": "2021-09-16T11:17:00Z", "count_points": 4, "latitude": 50.4235, "longitude": 31.019, "city": "Boryspil\u2019", "images": []}, {"id": 486999, "min_date": "2021-09-16T10:28:00Z", "max_date": "2021-09-16T10:34:00Z", "count_points": 2, "latitude": 50.67182, "longitude": 30.99511, "city": "Semypolky", "images": []}, {"id": 487000, "min_date": "2021-09-16T10:28:00Z", "max_date": "2021-09-16T11:17:00Z", "count_points": 10, "latitude": 51.13454, "longitude": 32.32988, "city": "Borzna", "images": []}, {"id": 487001, "min_date": "2021-09-16T10:28:00Z", "max_date": "2021-09-16T10:28:00Z", "count_points": 1, "latitude": 51.41035, "longitude": 34.0001, "city": "Putyvl\u2019", "images": []}, {"id": 487002, "min_date": "2021-09-16T10:28:00Z", "max_date": "2021-09-16T09:37:00Z", "count_points": 2, "latitude": 51.30112, "longitude": 33.05588, "city": "Konotop", "images": []}, {"id": 487003, "min_date": "2021-09-16T10:28:00Z", "max_date": "2021-09-16T10:28:00Z", "count_points": 1, "latitude": 51.46253, "longitude": 32.92395, "city": "Korop", "images": []}, {"id": 487004, "min_date": "2021-09-16T10:28:00Z", "max_date": "2021-09-16T10:28:00Z", "count_points": 1, "latitude": 51.26188, "longitude": 30.81092, "city": "Slavutych", "images": []}, {"id": 487005, "min_date": "2021-09-16T10:28:00Z", "max_date": "2021-09-16T10:28:00Z", "count_points": 1, "latitude": 51.0013, "longitude": 25.54722, "city": "Lukiv", "images": []}, {"id": 487006, "min_date": "2021-09-16T10:28:00Z", "max_date": "2021-09-16T09:34:00Z", "count_points": 6, "latitude": 46.4321, "longitude": 34.88444, "city": "Partyzany", "images": [{"image_url": "487006.jpg", "timestamp": "2021-09-16T09:34:00Z"}]}, {"id": 487007, "min_date": "2021-09-16T10:28:00Z", "max_date": "2021-09-16T10:28:00Z", "count_points": 1, "latitude": 46.17603, "longitude": 32.55188, "city": "Lazurne", "images": []}, {"id": 487008, "min_date": "2021-09-16T10:28:00Z", "max_date": "2021-09-16T11:17:00Z", "count_points": 8, "latitude": 46.55729, "longitude": 34.75076, "city": "Partyzany", "images": []}, {"id": 487009, "min_date": "2021-09-16T10:28:00Z", "max_date": "2021-09-16T09:34:00Z", "count_points": 5, "latitude": 46.64189, "longitude": 34.66948, "city": "Ivanivka", "images": []}, {"id": 487010, "min_date": "2021-09-16T10:28:00Z", "max_date": "2021-09-16T11:17:00Z", "count_points": 7, "latitude": 46.43664, "longitude": 33.26853, "city": "Brylivka", "images": []}, {"id": 487011, "min_date": "2021-09-16T10:28:00Z", "max_date": "2021-09-16T11:17:00Z", "count_points": 6, "latitude": 46.73087, "longitude": 34.65378, "city": "Ivanivka", "images": []}, {"id": 487012, "min_date": "2021-09-16T12:08:00Z", "max_date": "2021-09-17T09:26:00Z", "count_points": 5, "latitude": 46.26521, "longitude": 29.22596, "city": "Berezyne", "images": []}, {"id": 487013, "min_date": "2021-09-17T00:22:00Z", "max_date": "2021-09-17T00:22:00Z", "count_points": 1, "latitude": 50.04979, "longitude": 34.06298, "city": "Velyki Sorochyntsi", "images": []}, {"id": 487014, "min_date": "2021-09-17T00:22:00Z", "max_date": "2021-09-17T00:22:00Z", "count_points": 1, "latitude": 49.77376, "longitude": 33.9012, "city": "Shyshaky", "images": []}, {"id": 487015, "min_date": "2021-09-17T00:22:00Z", "max_date": "2021-09-17T23:12:00Z", "count_points": 2, "latitude": 48.99194, "longitude": 34.62942, "city": "Tsarychanka", "images": []}, {"id": 487016, "min_date": "2021-09-17T00:22:00Z", "max_date": "2021-09-16T23:31:00Z", "count_points": 2, "latitude": 47.21981, "longitude": 31.9633, "city": "Olshanskoye", "images": []}, {"id": 487017, "min_date": "2021-09-17T10:09:00Z", "max_date": "2021-09-17T10:58:00Z", "count_points": 8, "latitude": 46.30353, "longitude": 34.84184, "city": "Partyzany", "images": [{"image_url": "487017.jpg", "timestamp": "2021-09-17T10:58:00Z"}]}, {"id": 487018, "min_date": "2021-09-17T10:09:00Z", "max_date": "2021-09-17T11:49:00Z", "count_points": 4, "latitude": 46.28669, "longitude": 33.96454, "city": "Askaniya-Nova", "images": []}, {"id": 487019, "min_date": "2021-09-17T10:09:00Z", "max_date": "2021-09-17T10:09:00Z", "count_points": 1, "latitude": 46.28535, "longitude": 33.42694, "city": "Chaplynka", "images": []}, {"id": 487020, "min_date": "2021-09-17T10:09:00Z", "max_date": "2021-09-17T10:09:00Z", "count_points": 1, "latitude": 46.93917, "longitude": 36.63361, "city": "Osypenko", "images": []}, {"id": 487021, "min_date": "2021-09-17T10:09:00Z", "max_date": "2021-09-17T10:58:00Z", "count_points": 2, "latitude": 46.24316, "longitude": 32.9598, "city": "Skadovs\u2019k", "images": []}, {"id": 487022, "min_date": "2021-09-17T10:09:00Z", "max_date": "2021-09-17T10:09:00Z", "count_points": 1, "latitude": 46.61167, "longitude": 34.41544, "city": "Ivanivka", "images": []}, {"id": 487023, "min_date": "2021-09-17T10:09:00Z", "max_date": "2021-09-17T10:09:00Z", "count_points": 1, "latitude": 46.6124, "longitude": 34.15233, "city": "Novotroyits\u2019ke", "images": []}, {"id": 487024, "min_date": "2021-09-17T10:09:00Z", "max_date": "2021-09-17T10:58:00Z", "count_points": 11, "latitude": 47.11424, "longitude": 36.54261, "city": "Komysh-Zorya", "images": []}, {"id": 487025, "min_date": "2021-09-17T10:09:00Z", "max_date": "2021-09-17T09:17:00Z", "count_points": 5, "latitude": 47.9081, "longitude": 36.66082, "city": "Velyka Novosilka", "images": []}, {"id": 487026, "min_date": "2021-09-17T10:09:00Z", "max_date": "2021-09-17T10:09:00Z", "count_points": 1, "latitude": 46.9035, "longitude": 35.23236, "city": "Melitopol", "images": []}, {"id": 487027, "min_date": "2021-09-17T10:09:00Z", "max_date": "2021-09-17T10:58:00Z", "count_points": 2, "latitude": 47.10094, "longitude": 36.06508, "city": "Chernihivka", "images": []}, {"id": 487028, "min_date": "2021-09-17T10:09:00Z", "max_date": "2021-09-17T10:09:00Z", "count_points": 1, "latitude": 45.66997, "longitude": 29.50822, "city": "Tatarbunary", "images": []}, {"id": 487029, "min_date": "2021-09-17T10:09:00Z", "max_date": "2021-09-17T10:09:00Z", "count_points": 1, "latitude": 47.52933, "longitude": 37.94427, "city": "Tel\u2019manove", "images": []}, {"id": 487030, "min_date": "2021-09-17T10:09:00Z", "max_date": "2021-09-17T09:17:00Z", "count_points": 2, "latitude": 47.16479, "longitude": 35.56583, "city": "Tokmak", "images": []}, {"id": 487031, "min_date": "2021-09-17T10:09:00Z", "max_date": "2021-09-17T10:09:00Z", "count_points": 1, "latitude": 47.14708, "longitude": 35.26674, "city": "Novobohdanivka", "images": []}, {"id": 487032, "min_date": "2021-09-17T10:09:00Z", "max_date": "2021-09-17T10:58:00Z", "count_points": 2, "latitude": 47.93296, "longitude": 39.63727, "city": "Biryukove", "images": []}, {"id": 487033, "min_date": "2021-09-17T10:09:00Z", "max_date": "2021-09-17T10:09:00Z", "count_points": 1, "latitude": 46.79984, "longitude": 32.64604, "city": "Oleksandrivka", "images": []}, {"id": 487034, "min_date": "2021-09-17T10:09:00Z", "max_date": "2021-09-17T09:17:00Z", "count_points": 4, "latitude": 47.73685, "longitude": 37.30251, "city": "Blahodatne", "images": []}, {"id": 487035, "min_date": "2021-09-17T10:09:00Z", "max_date": "2021-09-17T10:09:00Z", "count_points": 1, "latitude": 47.35622, "longitude": 35.12506, "city": "Mykhaylivka", "images": []}, {"id": 487036, "min_date": "2021-09-17T10:09:00Z", "max_date": "2021-09-17T10:09:00Z", "count_points": 1, "latitude": 47.75359, "longitude": 37.00782, "city": "Velyka Novosilka", "images": []}, {"id": 487037, "min_date": "2021-09-17T10:09:00Z", "max_date": "2021-09-17T10:58:00Z", "count_points": 7, "latitude": 48.14217, "longitude": 39.30715, "city": "Roven\u2019ky", "images": []}, {"id": 487038, "min_date": "2021-09-17T10:09:00Z", "max_date": "2021-09-17T10:58:00Z", "count_points": 2, "latitude": 47.85291, "longitude": 37.44473, "city": "Mareyka", "images": []}, {"id": 487039, "min_date": "2021-09-17T10:09:00Z", "max_date": "2021-09-17T10:58:00Z", "count_points": 3, "latitude": 46.10838, "longitude": 29.29425, "city": "Berezyne", "images": []}, {"id": 487040, "min_date": "2021-09-17T10:09:00Z", "max_date": "2021-09-17T10:09:00Z", "count_points": 1, "latitude": 47.5773, "longitude": 35.831, "city": "Preobrazhenka", "images": []}, {"id": 487041, "min_date": "2021-09-17T10:09:00Z", "max_date": "2021-09-17T10:09:00Z", "count_points": 1, "latitude": 48.16345, "longitude": 38.31497, "city": "Yenakiyeve", "images": []}, {"id": 487042, "min_date": "2021-09-17T10:09:00Z", "max_date": "2021-09-18T09:00:00Z", "count_points": 7, "latitude": 48.184, "longitude": 38.38264, "city": "Stizhkivs\u2019ke", "images": []}, {"id": 487043, "min_date": "2021-09-17T10:09:00Z", "max_date": "2021-09-17T10:09:00Z", "count_points": 2, "latitude": 46.64975, "longitude": 30.64599, "city": "Usatove", "images": []}, {"id": 487044, "min_date": "2021-09-17T10:09:00Z", "max_date": "2021-09-17T10:09:00Z", "count_points": 1, "latitude": 48.24333, "longitude": 38.59537, "city": "Rozsypne", "images": []}, {"id": 487045, "min_date": "2021-09-17T10:09:00Z", "max_date": "2021-09-17T10:09:00Z", "count_points": 2, "latitude": 48.21447, "longitude": 37.98884, "city": "Krinichnaya", "images": []}, {"id": 487046, "min_date": "2021-09-17T10:09:00Z", "max_date": "2021-09-17T10:09:00Z", "count_points": 1, "latitude": 47.74649, "longitude": 35.22676, "city": "Kushuhum", "images": []}, {"id": 487047, "min_date": "2021-09-17T10:09:00Z", "max_date": "2021-09-17T10:09:00Z", "count_points": 1, "latitude": 47.3952, "longitude": 33.42306, "city": "Velyka Oleksandrivka", "images": []}, {"id": 487048, "min_date": "2021-09-17T10:09:00Z", "max_date": "2021-09-17T10:09:00Z", "count_points": 1, "latitude": 48.48409, "longitude": 39.26318, "city": "Rozkishne", "images": []}, {"id": 487049, "min_date": "2021-09-17T10:09:00Z", "max_date": "2021-09-17T10:58:00Z", "count_points": 3, "latitude": 47.83877, "longitude": 35.26734, "city": "Zaporizhia", "images": []}, {"id": 487050, "min_date": "2021-09-17T10:09:00Z", "max_date": "2021-09-17T10:09:00Z", "count_points": 1, "latitude": 48.31723, "longitude": 37.85418, "city": "Dzerzhyns\u2019k", "images": []}, {"id": 487051, "min_date": "2021-09-17T10:09:00Z", "max_date": "2021-09-17T10:58:00Z", "count_points": 16, "latitude": 47.65128, "longitude": 34.15547, "city": "Chortomlyk", "images": []}, {"id": 487052, "min_date": "2021-09-17T10:09:00Z", "max_date": "2021-09-17T10:09:00Z", "count_points": 4, "latitude": 46.7543, "longitude": 30.13316, "city": "Stepove", "images": []}, {"id": 487053, "min_date": "2021-09-17T10:09:00Z", "max_date": "2021-09-17T10:58:00Z", "count_points": 12, "latitude": 48.5181, "longitude": 38.45702, "city": "Pervomays\u2019k", "images": []}, {"id": 487054, "min_date": "2021-09-17T10:09:00Z", "max_date": "2021-09-17T10:58:00Z", "count_points": 4, "latitude": 48.30063, "longitude": 36.53681, "city": "Petropavlivka", "images": []}, {"id": 487055, "min_date": "2021-09-17T10:09:00Z", "max_date": "2021-09-17T09:17:00Z", "count_points": 5, "latitude": 48.51535, "longitude": 37.48024, "city": "Druzhkivka", "images": []}, {"id": 487056, "min_date": "2021-09-17T10:09:00Z", "max_date": "2021-09-17T10:09:00Z", "count_points": 1, "latitude": 48.32618, "longitude": 36.39237, "city": "Petropavlivka", "images": []}, {"id": 487057, "min_date": "2021-09-17T10:09:00Z", "max_date": "2021-09-17T10:58:00Z", "count_points": 28, "latitude": 48.43756, "longitude": 36.87165, "city": "Dobropillya", "images": []}, {"id": 487058, "min_date": "2021-09-17T10:09:00Z", "max_date": "2021-09-17T09:17:00Z", "count_points": 6, "latitude": 48.08283, "longitude": 34.92438, "city": "Solone", "images": []}, {"id": 487059, "min_date": "2021-09-17T10:09:00Z", "max_date": "2021-09-17T10:58:00Z", "count_points": 3, "latitude": 48.30598, "longitude": 35.95009, "city": "Vasyl\u2019kivka", "images": []}, {"id": 487060, "min_date": "2021-09-17T10:09:00Z", "max_date": "2021-09-17T10:58:00Z", "count_points": 6, "latitude": 48.51863, "longitude": 36.99086, "city": "Dobropillya", "images": []}, {"id": 487061, "min_date": "2021-09-17T10:09:00Z", "max_date": "2021-09-17T10:09:00Z", "count_points": 2, "latitude": 47.81072, "longitude": 33.13524, "city": "Shyroke", "images": []}, {"id": 487062, "min_date": "2021-09-17T10:09:00Z", "max_date": "2021-09-17T10:09:00Z", "count_points": 1, "latitude": 48.68919, "longitude": 37.68255, "city": "Kramators\u2019k", "images": []}, {"id": 487063, "min_date": "2021-09-17T10:09:00Z", "max_date": "2021-09-17T10:09:00Z", "count_points": 1, "latitude": 48.52243, "longitude": 35.94114, "city": "Pavlohrad", "images": []}, {"id": 487064, "min_date": "2021-09-17T10:09:00Z", "max_date": "2021-09-17T10:58:00Z", "count_points": 7, "latitude": 48.75301, "longitude": 36.77203, "city": "Oleksandrivka", "images": []}, {"id": 487065, "min_date": "2021-09-17T10:09:00Z", "max_date": "2021-09-17T10:09:00Z", "count_points": 1, "latitude": 48.36484, "longitude": 34.20312, "city": "Novomykolayivka", "images": []}, {"id": 487066, "min_date": "2021-09-17T10:09:00Z", "max_date": "2021-09-17T10:09:00Z", "count_points": 1, "latitude": 48.13212, "longitude": 32.78163, "city": "Dolynska", "images": []}, {"id": 487067, "min_date": "2021-09-17T10:09:00Z", "max_date": "2021-09-17T10:58:00Z", "count_points": 2, "latitude": 49.07961, "longitude": 37.43353, "city": "Studenok", "images": []}, {"id": 487068, "min_date": "2021-09-17T10:09:00Z", "max_date": "2021-09-17T10:58:00Z", "count_points": 2, "latitude": 47.89039, "longitude": 31.45857, "city": "Brats\u2019ke", "images": []}, {"id": 487069, "min_date": "2021-09-17T10:09:00Z", "max_date": "2021-09-17T10:58:00Z", "count_points": 7, "latitude": 48.58097, "longitude": 34.41433, "city": "Auly", "images": []}, {"id": 487070, "min_date": "2021-09-17T10:09:00Z", "max_date": "2021-09-17T10:09:00Z", "count_points": 1, "latitude": 49.34334, "longitude": 38.67643, "city": "Bilokurakyne", "images": []}, {"id": 487071, "min_date": "2021-09-17T10:09:00Z", "max_date": "2021-09-17T10:09:00Z", "count_points": 1, "latitude": 49.28503, "longitude": 38.28394, "city": "Svatove", "images": []}, {"id": 487072, "min_date": "2021-09-17T10:09:00Z", "max_date": "2021-09-17T10:58:00Z", "count_points": 9, "latitude": 49.21023, "longitude": 37.69456, "city": "Borova", "images": []}, {"id": 487073, "min_date": "2021-09-17T10:09:00Z", "max_date": "2021-09-17T10:09:00Z", "count_points": 1, "latitude": 49.11856, "longitude": 36.88913, "city": "Petrivs\u2019ke", "images": []}, {"id": 487074, "min_date": "2021-09-17T10:09:00Z", "max_date": "2021-09-17T10:58:00Z", "count_points": 2, "latitude": 48.73197, "longitude": 33.52925, "city": "Onufriyivka", "images": []}, {"id": 487075, "min_date": "2021-09-17T10:09:00Z", "max_date": "2021-09-17T10:58:00Z", "count_points": 2, "latitude": 48.62778, "longitude": 32.72832, "city": "Znomenka", "images": []}, {"id": 487076, "min_date": "2021-09-17T10:09:00Z", "max_date": "2021-09-17T09:17:00Z", "count_points": 2, "latitude": 49.64992, "longitude": 38.19429, "city": "Nyzhnya Duvanka", "images": []}, {"id": 487077, "min_date": "2021-09-17T10:09:00Z", "max_date": "2021-09-17T09:17:00Z", "count_points": 16, "latitude": 49.52855, "longitude": 37.24689, "city": "Shevchenkove", "images": []}, {"id": 487078, "min_date": "2021-09-17T10:09:00Z", "max_date": "2021-09-17T10:58:00Z", "count_points": 2, "latitude": 49.32102, "longitude": 35.91894, "city": "Chapayeve", "images": []}, {"id": 487079, "min_date": "2021-09-17T10:11:00Z", "max_date": "2021-09-17T10:58:00Z", "count_points": 5, "latitude": 49.65945, "longitude": 35.79958, "city": "Nova Vodolaha", "images": []}, {"id": 487080, "min_date": "2021-09-17T10:11:00Z", "max_date": "2021-09-17T10:11:00Z", "count_points": 1, "latitude": 50.07478, "longitude": 34.75769, "city": "Kotel\u2019va", "images": []}, {"id": 487081, "min_date": "2021-09-17T10:11:00Z", "max_date": "2021-09-17T10:58:00Z", "count_points": 2, "latitude": 50.34162, "longitude": 34.35102, "city": "Zin\u2019kiv", "images": []}, {"id": 487082, "min_date": "2021-09-17T10:11:00Z", "max_date": "2021-09-17T10:11:00Z", "count_points": 1, "latitude": 50.43479, "longitude": 33.36821, "city": "Lokhvytsya", "images": []}, {"id": 487083, "min_date": "2021-09-17T11:49:00Z", "max_date": "2021-09-17T11:49:00Z", "count_points": 3, "latitude": 47.01521, "longitude": 32.89265, "city": "Snihurivka", "images": []}, {"id": 487084, "min_date": "2021-09-17T11:49:00Z", "max_date": "2021-09-17T11:49:00Z", "count_points": 1, "latitude": 48.44585, "longitude": 34.85985, "city": "Dnipro", "images": []}, {"id": 487085, "min_date": "2021-09-17T11:49:00Z", "max_date": "2021-09-17T10:58:00Z", "count_points": 3, "latitude": 49.20753, "longitude": 34.44569, "city": "Novi Sanzhary", "images": []}, {"id": 487086, "min_date": "2021-09-17T11:49:00Z", "max_date": "2021-09-17T11:49:00Z", "count_points": 1, "latitude": 50.03159, "longitude": 26.72041, "city": "Izyaslav", "images": []}, {"id": 487087, "min_date": "2021-09-17T22:22:00Z", "max_date": "2021-09-17T23:12:00Z", "count_points": 11, "latitude": 48.70496, "longitude": 38.28332, "city": "Popasna", "images": []}, {"id": 487088, "min_date": "2021-09-17T22:22:00Z", "max_date": "2021-09-17T22:22:00Z", "count_points": 1, "latitude": 48.48926, "longitude": 34.70921, "city": "Kamianske", "images": []}, {"id": 487089, "min_date": "2021-09-17T22:22:00Z", "max_date": "2021-09-17T23:14:00Z", "count_points": 7, "latitude": 47.42441, "longitude": 35.55463, "city": "Tokmak", "images": []}, {"id": 487090, "min_date": "2021-09-18T00:03:00Z", "max_date": "2021-09-18T00:03:00Z", "count_points": 1, "latitude": 49.12568, "longitude": 35.95591, "city": "Sakhnovshchyna", "images": []}, {"id": 487091, "min_date": "2021-09-18T00:03:00Z", "max_date": "2021-09-18T00:03:00Z", "count_points": 1, "latitude": 49.08016, "longitude": 34.88894, "city": "Hupalivka", "images": []}, {"id": 487092, "min_date": "2021-09-18T00:03:00Z", "max_date": "2021-09-17T23:12:00Z", "count_points": 2, "latitude": 48.85462, "longitude": 35.1154, "city": "Hubynykha", "images": []}, {"id": 487093, "min_date": "2021-09-18T00:03:00Z", "max_date": "2021-09-17T23:12:00Z", "count_points": 2, "latitude": 48.58612, "longitude": 34.03825, "city": "Lykhivka", "images": []}, {"id": 487094, "min_date": "2021-09-18T00:03:00Z", "max_date": "2021-09-18T00:03:00Z", "count_points": 2, "latitude": 48.3565, "longitude": 33.42172, "city": "Zhovti Vody", "images": []}, {"id": 487095, "min_date": "2021-09-18T00:03:00Z", "max_date": "2021-09-18T00:03:00Z", "count_points": 1, "latitude": 48.24167, "longitude": 33.23787, "city": "Petrove", "images": []}, {"id": 487096, "min_date": "2021-09-18T00:03:00Z", "max_date": "2021-09-17T23:12:00Z", "count_points": 2, "latitude": 48.19051, "longitude": 33.22536, "city": "Petrove", "images": []}, {"id": 487097, "min_date": "2021-09-18T00:03:00Z", "max_date": "2021-09-18T00:52:00Z", "count_points": 2, "latitude": 48.70432, "longitude": 29.52862, "city": "Haisyn", "images": []}, {"id": 487098, "min_date": "2021-09-18T00:03:00Z", "max_date": "2021-09-18T00:03:00Z", "count_points": 1, "latitude": 48.45248, "longitude": 28.38091, "city": "Klembivka", "images": []}, {"id": 487099, "min_date": "2021-09-18T09:49:00Z", "max_date": "2021-09-18T10:41:00Z", "count_points": 31, "latitude": 48.53032, "longitude": 39.79033, "city": "Uralo-Kavkaz", "images": []}, {"id": 487100, "min_date": "2021-09-18T09:49:00Z", "max_date": "2021-09-18T10:19:00Z", "count_points": 2, "latitude": 46.83738, "longitude": 36.08783, "city": "Prymors\u2019k", "images": []}, {"id": 487101, "min_date": "2021-09-18T09:49:00Z", "max_date": "2021-09-18T10:41:00Z", "count_points": 2, "latitude": 47.46726, "longitude": 37.84646, "city": "Tel\u2019manove", "images": []}, {"id": 487102, "min_date": "2021-09-18T09:49:00Z", "max_date": "2021-09-18T10:41:00Z", "count_points": 2, "latitude": 47.73248, "longitude": 38.21413, "city": "Kuteynykove", "images": []}, {"id": 487103, "min_date": "2021-09-18T09:49:00Z", "max_date": "2021-09-18T10:19:00Z", "count_points": 3, "latitude": 47.80855, "longitude": 37.84949, "city": "Novyy Svit", "images": []}, {"id": 487104, "min_date": "2021-09-18T09:49:00Z", "max_date": "2021-09-18T09:49:00Z", "count_points": 2, "latitude": 48.17744, "longitude": 39.45222, "city": "Klenovyy", "images": []}, {"id": 487105, "min_date": "2021-09-18T09:49:00Z", "max_date": "2021-09-18T09:49:00Z", "count_points": 1, "latitude": 48.19242, "longitude": 39.23976, "city": "Millerovo", "images": []}, {"id": 487106, "min_date": "2021-09-18T09:49:00Z", "max_date": "2021-09-18T09:49:00Z", "count_points": 1, "latitude": 48.06547, "longitude": 37.89927, "city": "Makiyivka", "images": []}, {"id": 487107, "min_date": "2021-09-18T09:49:00Z", "max_date": "2021-09-18T10:41:00Z", "count_points": 3, "latitude": 48.41855, "longitude": 39.21483, "city": "Lutuhyne", "images": []}, {"id": 487108, "min_date": "2021-09-18T09:49:00Z", "max_date": "2021-09-18T09:49:00Z", "count_points": 2, "latitude": 48.23504, "longitude": 37.73566, "city": "Avdiyivka", "images": []}, {"id": 487109, "min_date": "2021-09-18T09:49:00Z", "max_date": "2021-09-18T09:49:00Z", "count_points": 1, "latitude": 48.06172, "longitude": 36.80056, "city": "Mezhova", "images": []}, {"id": 487110, "min_date": "2021-09-18T09:49:00Z", "max_date": "2021-09-18T10:41:00Z", "count_points": 22, "latitude": 48.71374, "longitude": 38.91467, "city": "Slov`yanoserbsk", "images": []}, {"id": 487111, "min_date": "2021-09-18T09:49:00Z", "max_date": "2021-09-18T09:49:00Z", "count_points": 1, "latitude": 48.25523, "longitude": 36.62343, "city": "Mezhova", "images": []}, {"id": 487112, "min_date": "2021-09-18T09:49:00Z", "max_date": "2021-09-18T09:49:00Z", "count_points": 1, "latitude": 48.50139, "longitude": 36.66242, "city": "Petropavlivka", "images": []}, {"id": 487113, "min_date": "2021-09-18T09:49:00Z", "max_date": "2021-09-18T09:49:00Z", "count_points": 1, "latitude": 48.74609, "longitude": 37.26532, "city": "Krasnotorka", "images": []}, {"id": 487114, "min_date": "2021-09-18T09:49:00Z", "max_date": "2021-09-18T09:49:00Z", "count_points": 1, "latitude": 49.39514, "longitude": 39.83554, "city": "Markivka", "images": []}, {"id": 487115, "min_date": "2021-09-18T09:49:00Z", "max_date": "2021-09-18T08:33:00Z", "count_points": 4, "latitude": 48.87008, "longitude": 36.8648, "city": "Barvinkove", "images": []}, {"id": 487116, "min_date": "2021-09-18T09:49:00Z", "max_date": "2021-09-18T09:49:00Z", "count_points": 4, "latitude": 49.14923, "longitude": 36.66829, "city": "Petrivs\u2019ke", "images": []}, {"id": 487117, "min_date": "2021-09-18T09:49:00Z", "max_date": "2021-09-18T09:49:00Z", "count_points": 1, "latitude": 49.55175, "longitude": 38.25745, "city": "Nyzhnya Duvanka", "images": []}, {"id": 487118, "min_date": "2021-09-18T09:49:00Z", "max_date": "2021-09-18T09:49:00Z", "count_points": 1, "latitude": 49.66268, "longitude": 37.70659, "city": "Kivsharivka", "images": []}, {"id": 487119, "min_date": "2021-09-18T09:49:00Z", "max_date": "2021-09-18T09:49:00Z", "count_points": 1, "latitude": 49.75844, "longitude": 37.72328, "city": "Dvorichna", "images": []}, {"id": 487120, "min_date": "2021-09-18T09:49:00Z", "max_date": "2021-09-18T09:49:00Z", "count_points": 3, "latitude": 49.62723, "longitude": 36.61586, "city": "Komsomol\u2019s\u2019ke", "images": []}, {"id": 487121, "min_date": "2021-09-18T09:49:00Z", "max_date": "2021-09-18T10:41:00Z", "count_points": 5, "latitude": 49.74431, "longitude": 37.11873, "city": "Shevchenkove", "images": []}, {"id": 487122, "min_date": "2021-09-18T09:49:00Z", "max_date": "2021-09-18T09:49:00Z", "count_points": 1, "latitude": 49.56915, "longitude": 36.08999, "city": "Utkivka", "images": []}, {"id": 487123, "min_date": "2021-09-18T11:30:00Z", "max_date": "2021-09-18T11:30:00Z", "count_points": 2, "latitude": 47.58264, "longitude": 37.91316, "city": "Starobesheve", "images": []}, {"id": 487124, "min_date": "2021-09-18T23:44:00Z", "max_date": "2021-09-18T23:44:00Z", "count_points": 1, "latitude": 48.55958, "longitude": 39.61912, "city": "Stanytsya Luhans\u2019ka", "images": []}, {"id": 487125, "min_date": "2021-09-19T09:32:00Z", "max_date": "2021-09-19T10:19:00Z", "count_points": 4, "latitude": 47.59062, "longitude": 33.03204, "city": "Shyroke", "images": []}, {"id": 487126, "min_date": "2021-09-19T11:13:00Z", "max_date": "2021-09-19T11:13:00Z", "count_points": 2, "latitude": 46.99686, "longitude": 30.45491, "city": "Ivanivka", "images": []}, {"id": 487127, "min_date": "2021-09-19T23:26:00Z", "max_date": "2021-09-19T23:26:00Z", "count_points": 1, "latitude": 46.82777, "longitude": 30.58139, "city": "Ivanivka", "images": []}, {"id": 487128, "min_date": "2021-09-13T08:13:00Z", "max_date": "2021-09-13T08:13:00Z", "count_points": 2, "latitude": 47.39991, "longitude": 32.51205, "city": "Bashtanka", "images": []}, {"id": 487129, "min_date": "2021-09-13T08:13:00Z", "max_date": "2021-09-13T08:13:00Z", "count_points": 2, "latitude": 49.23784, "longitude": 36.90632, "city": "Petrivs\u2019ke", "images": []}, {"id": 487130, "min_date": "2021-09-13T08:13:00Z", "max_date": "2021-09-13T08:13:00Z", "count_points": 1, "latitude": 47.4864, "longitude": 35.37486, "city": "Vasylivka", "images": []}, {"id": 487131, "min_date": "2021-09-13T08:13:00Z", "max_date": "2021-09-13T08:13:00Z", "count_points": 1, "latitude": 48.69783, "longitude": 32.71259, "city": "Znomenka", "images": []}, {"id": 487132, "min_date": "2021-09-14T08:56:00Z", "max_date": "2021-09-14T08:56:00Z", "count_points": 1, "latitude": 47.79463, "longitude": 35.75629, "city": "Kirove", "images": []}, {"id": 487133, "min_date": "2021-09-14T08:56:00Z", "max_date": "2021-09-14T08:56:00Z", "count_points": 1, "latitude": 47.42202, "longitude": 32.68882, "city": "Bereznehuvate", "images": []}, {"id": 487134, "min_date": "2021-09-14T08:56:00Z", "max_date": "2021-09-14T08:56:00Z", "count_points": 1, "latitude": 48.4882, "longitude": 32.66265, "city": "Novhorodka", "images": []}, {"id": 487135, "min_date": "2021-09-14T08:56:00Z", "max_date": "2021-09-14T08:56:00Z", "count_points": 1, "latitude": 46.85172, "longitude": 32.58283, "city": "Chornobayivka", "images": []}, {"id": 487136, "min_date": "2021-09-14T08:56:00Z", "max_date": "2021-09-14T08:56:00Z", "count_points": 1, "latitude": 45.89416, "longitude": 33.87872, "city": "Novopavlovka", "images": []}, {"id": 487137, "min_date": "2021-09-14T08:56:00Z", "max_date": "2021-09-14T08:56:00Z", "count_points": 1, "latitude": 49.24172, "longitude": 28.9541, "city": "Lypovets", "images": []}, {"id": 487138, "min_date": "2021-09-14T08:56:00Z", "max_date": "2021-09-14T08:56:00Z", "count_points": 1, "latitude": 48.21169, "longitude": 36.15284, "city": "Vasyl\u2019kivka", "images": []}, {"id": 487139, "min_date": "2021-09-14T08:56:00Z", "max_date": "2021-09-14T08:56:00Z", "count_points": 1, "latitude": 50.56829, "longitude": 33.12467, "city": "Sribne", "images": []}, {"id": 487140, "min_date": "2021-09-14T08:56:00Z", "max_date": "2021-09-14T08:56:00Z", "count_points": 1, "latitude": 48.25779, "longitude": 32.82419, "city": "Dolynska", "images": []}, {"id": 487141, "min_date": "2021-09-14T08:56:00Z", "max_date": "2021-09-14T08:56:00Z", "count_points": 2, "latitude": 47.27277, "longitude": 34.19514, "city": "Verkhniy Rohachyk", "images": []}, {"id": 487142, "min_date": "2021-09-14T10:43:00Z", "max_date": "2021-09-14T10:13:00Z", "count_points": 11, "latitude": 48.08644, "longitude": 39.52024, "city": "Klenovyy", "images": []}, {"id": 487143, "min_date": "2021-09-14T10:45:00Z", "max_date": "2021-09-14T10:45:00Z", "count_points": 1, "latitude": 49.08928, "longitude": 32.43161, "city": "Chyhyryn", "images": []}, {"id": 487144, "min_date": "2021-09-14T10:45:00Z", "max_date": "2021-09-14T10:13:00Z", "count_points": 2, "latitude": 48.41631, "longitude": 39.41814, "city": "Simeykyne", "images": []}, {"id": 487145, "min_date": "2021-09-14T10:45:00Z", "max_date": "2021-09-14T10:13:00Z", "count_points": 3, "latitude": 48.51378, "longitude": 36.38548, "city": "Petropavlivka", "images": []}, {"id": 487146, "min_date": "2021-09-14T10:47:00Z", "max_date": "2021-09-14T10:47:00Z", "count_points": 1, "latitude": 51.5997, "longitude": 33.0608, "city": "Korop", "images": []}, {"id": 487147, "min_date": "2021-09-15T08:01:00Z", "max_date": "2021-09-15T08:01:00Z", "count_points": 1, "latitude": 47.96096, "longitude": 39.62749, "city": "Biryukove", "images": []}, {"id": 487148, "min_date": "2021-09-15T08:01:00Z", "max_date": "2021-09-15T08:01:00Z", "count_points": 2, "latitude": 49.63336, "longitude": 38.95413, "city": "Novopskov", "images": []}, {"id": 487149, "min_date": "2021-09-15T09:39:00Z", "max_date": "2021-09-15T09:39:00Z", "count_points": 1, "latitude": 51.07882, "longitude": 30.24602, "city": "Katyuzhanka", "images": []}, {"id": 487150, "min_date": "2021-09-15T09:49:00Z", "max_date": "2021-09-15T09:56:00Z", "count_points": 3, "latitude": 47.86452, "longitude": 36.82561, "city": "Velyka Novosilka", "images": []}, {"id": 487151, "min_date": "2021-09-15T09:49:00Z", "max_date": "2021-09-15T09:56:00Z", "count_points": 2, "latitude": 48.93245, "longitude": 39.13489, "city": "Novoaydar", "images": []}, {"id": 487152, "min_date": "2021-09-15T11:28:00Z", "max_date": "2021-09-15T11:28:00Z", "count_points": 1, "latitude": 47.07938, "longitude": 31.62687, "city": "Olshanskoye", "images": []}, {"id": 487153, "min_date": "2021-09-15T11:28:00Z", "max_date": "2021-09-15T11:36:00Z", "count_points": 2, "latitude": 46.4728, "longitude": 35.14093, "city": "Yakymivka", "images": []}, {"id": 487154, "min_date": "2021-09-15T11:30:00Z", "max_date": "2021-09-15T11:30:00Z", "count_points": 1, "latitude": 48.45007, "longitude": 22.68551, "city": "Mukacheve", "images": []}, {"id": 487155, "min_date": "2021-09-16T08:43:00Z", "max_date": "2021-09-16T08:43:00Z", "count_points": 1, "latitude": 48.84399, "longitude": 31.44606, "city": "Lebedyn", "images": []}, {"id": 487156, "min_date": "2021-09-16T08:43:00Z", "max_date": "2021-09-16T08:43:00Z", "count_points": 1, "latitude": 47.84041, "longitude": 36.34155, "city": "Pokrovs\u2019ke", "images": []}, {"id": 487157, "min_date": "2021-09-16T08:43:00Z", "max_date": "2021-09-16T09:37:00Z", "count_points": 2, "latitude": 50.05488, "longitude": 29.54174, "city": "Kornyn", "images": []}, {"id": 487158, "min_date": "2021-09-16T08:43:00Z", "max_date": "2021-09-16T08:43:00Z", "count_points": 1, "latitude": 48.66125, "longitude": 35.75554, "city": "Pavlohrad", "images": []}, {"id": 487159, "min_date": "2021-09-16T08:43:00Z", "max_date": "2021-09-16T08:43:00Z", "count_points": 1, "latitude": 48.96502, "longitude": 35.41376, "city": "Hubynykha", "images": []}, {"id": 487160, "min_date": "2021-09-16T08:43:00Z", "max_date": "2021-09-16T08:43:00Z", "count_points": 1, "latitude": 47.21653, "longitude": 37.4351, "city": "Staryy Krym", "images": []}, {"id": 487161, "min_date": "2021-09-16T08:43:00Z", "max_date": "2021-09-16T08:43:00Z", "count_points": 1, "latitude": 46.755, "longitude": 34.73076, "city": "Ivanivka", "images": []}, {"id": 487162, "min_date": "2021-09-16T08:43:00Z", "max_date": "2021-09-16T08:43:00Z", "count_points": 3, "latitude": 48.9459, "longitude": 35.06723, "city": "Mahdalynivka", "images": []}, {"id": 487163, "min_date": "2021-09-16T08:43:00Z", "max_date": "2021-09-16T08:43:00Z", "count_points": 1, "latitude": 48.65759, "longitude": 27.56781, "city": "Murovani Kurylivtsi", "images": []}, {"id": 487164, "min_date": "2021-09-16T08:43:00Z", "max_date": "2021-09-16T08:43:00Z", "count_points": 1, "latitude": 47.25658, "longitude": 38.26181, "city": "Syedove", "images": []}, {"id": 487165, "min_date": "2021-09-16T08:43:00Z", "max_date": "2021-09-16T23:31:00Z", "count_points": 4, "latitude": 46.81369, "longitude": 34.5391, "city": "Ivanivka", "images": []}, {"id": 487166, "min_date": "2021-09-16T08:43:00Z", "max_date": "2021-09-16T08:43:00Z", "count_points": 1, "latitude": 47.77333, "longitude": 33.73118, "city": "Apostolove", "images": []}, {"id": 487167, "min_date": "2021-09-16T08:43:00Z", "max_date": "2021-09-16T08:43:00Z", "count_points": 1, "latitude": 48.46402, "longitude": 39.69379, "city": "Molodohvardiys\u2019k", "images": []}, {"id": 487168, "min_date": "2021-09-16T08:43:00Z", "max_date": "2021-09-16T08:43:00Z", "count_points": 1, "latitude": 47.15583, "longitude": 35.44131, "city": "Novobohdanivka", "images": []}, {"id": 487169, "min_date": "2021-09-16T08:43:00Z", "max_date": "2021-09-16T08:43:00Z", "count_points": 1, "latitude": 47.33219, "longitude": 35.96783, "city": "Mala Tokmachka", "images": []}, {"id": 487170, "min_date": "2021-09-16T08:43:00Z", "max_date": "2021-09-16T08:43:00Z", "count_points": 1, "latitude": 50.8952, "longitude": 31.52149, "city": "Kobyzhcha", "images": []}, {"id": 487171, "min_date": "2021-09-16T08:43:00Z", "max_date": "2021-09-16T08:43:00Z", "count_points": 1, "latitude": 49.0677, "longitude": 27.12551, "city": "Vinkivtsi", "images": []}, {"id": 487172, "min_date": "2021-09-16T08:43:00Z", "max_date": "2021-09-16T08:43:00Z", "count_points": 1, "latitude": 47.22281, "longitude": 35.13256, "city": "Tymoshivka", "images": []}, {"id": 487173, "min_date": "2021-09-16T08:45:00Z", "max_date": "2021-09-16T09:34:00Z", "count_points": 3, "latitude": 46.23837, "longitude": 34.59424, "city": "Novooleksiyivka", "images": []}, {"id": 487174, "min_date": "2021-09-16T08:45:00Z", "max_date": "2021-09-16T08:45:00Z", "count_points": 1, "latitude": 45.52201, "longitude": 33.23304, "city": "Krasnoyarskoye", "images": []}, {"id": 487175, "min_date": "2021-09-16T08:45:00Z", "max_date": "2021-09-16T09:34:00Z", "count_points": 3, "latitude": 46.20916, "longitude": 34.56565, "city": "Novooleksiyivka", "images": []}, {"id": 487176, "min_date": "2021-09-16T08:45:00Z", "max_date": "2021-09-16T08:45:00Z", "count_points": 1, "latitude": 45.46742, "longitude": 33.54536, "city": "Zimino", "images": []}, {"id": 487177, "min_date": "2021-09-16T10:32:00Z", "max_date": "2021-09-16T09:34:00Z", "count_points": 2, "latitude": 46.69097, "longitude": 34.07995, "city": "Askaniya-Nova", "images": []}, {"id": 487178, "min_date": "2021-09-16T10:32:00Z", "max_date": "2021-09-16T10:32:00Z", "count_points": 1, "latitude": 49.23183, "longitude": 37.28802, "city": "Izyum", "images": []}, {"id": 487179, "min_date": "2021-09-16T10:34:00Z", "max_date": "2021-09-16T10:34:00Z", "count_points": 1, "latitude": 49.66821, "longitude": 33.43417, "city": "Khorol", "images": []}, {"id": 487180, "min_date": "2021-09-16T10:34:00Z", "max_date": "2021-09-16T10:34:00Z", "count_points": 1, "latitude": 50.39646, "longitude": 35.22747, "city": "Kyrykivka", "images": []}, {"id": 487181, "min_date": "2021-09-16T10:34:00Z", "max_date": "2021-09-16T10:34:00Z", "count_points": 1, "latitude": 51.2964, "longitude": 31.49454, "city": "Kulykivka", "images": []}, {"id": 487182, "min_date": "2021-09-17T09:26:00Z", "max_date": "2021-09-17T09:17:00Z", "count_points": 4, "latitude": 48.15256, "longitude": 35.88411, "city": "Vasyl\u2019kivka", "images": []}, {"id": 487183, "min_date": "2021-09-17T09:26:00Z", "max_date": "2021-09-17T09:17:00Z", "count_points": 4, "latitude": 47.29233, "longitude": 31.59, "city": "Nova Odesa", "images": []}, {"id": 487184, "min_date": "2021-09-17T09:26:00Z", "max_date": "2021-09-17T09:26:00Z", "count_points": 1, "latitude": 47.78054, "longitude": 31.3707, "city": "Arbuzynka", "images": []}, {"id": 487185, "min_date": "2021-09-17T09:26:00Z", "max_date": "2021-09-17T09:17:00Z", "count_points": 6, "latitude": 47.78669, "longitude": 34.45579, "city": "Chervonohryhorivka", "images": []}, {"id": 487186, "min_date": "2021-09-17T09:37:00Z", "max_date": "2021-09-17T09:37:00Z", "count_points": 1, "latitude": 47.71334, "longitude": 37.40636, "city": "Blahodatne", "images": []}, {"id": 487187, "min_date": "2021-09-17T11:15:00Z", "max_date": "2021-09-17T10:58:00Z", "count_points": 2, "latitude": 48.27237, "longitude": 33.37551, "city": "Petrove", "images": []}, {"id": 487188, "min_date": "2021-09-17T11:15:00Z", "max_date": "2021-09-17T10:58:00Z", "count_points": 4, "latitude": 48.15021, "longitude": 36.33405, "city": "Pokrovs\u2019ke", "images": []}, {"id": 487189, "min_date": "2021-09-17T11:15:00Z", "max_date": "2021-09-17T11:15:00Z", "count_points": 1, "latitude": 46.71, "longitude": 34.5877, "city": "Ivanivka", "images": []}, {"id": 487190, "min_date": "2021-09-17T11:15:00Z", "max_date": "2021-09-17T10:58:00Z", "count_points": 7, "latitude": 48.96881, "longitude": 34.88397, "city": "Mahdalynivka", "images": []}, {"id": 487191, "min_date": "2021-09-17T11:15:00Z", "max_date": "2021-09-17T10:58:00Z", "count_points": 3, "latitude": 46.79642, "longitude": 30.79376, "city": "Kremidivka", "images": []}, {"id": 487192, "min_date": "2021-09-18T08:33:00Z", "max_date": "2021-09-18T09:00:00Z", "count_points": 6, "latitude": 49.47013, "longitude": 36.83677, "city": "Balakliya", "images": [{"image_url": "487192.jpg", "timestamp": "2021-09-18T09:00:00Z"}]}, {"id": 487193, "min_date": "2021-09-18T08:33:00Z", "max_date": "2021-09-18T08:33:00Z", "count_points": 1, "latitude": 48.5066, "longitude": 38.60415, "city": "Bryanka", "images": []}, {"id": 487194, "min_date": "2021-09-18T08:33:00Z", "max_date": "2021-09-18T08:33:00Z", "count_points": 1, "latitude": 48.75484, "longitude": 36.56656, "city": "Blyznyuky", "images": []}, {"id": 487195, "min_date": "2021-09-18T08:33:00Z", "max_date": "2021-09-18T08:33:00Z", "count_points": 2, "latitude": 48.5909, "longitude": 36.88566, "city": "Novodonets\u2019ke", "images": []}, {"id": 487196, "min_date": "2021-09-18T08:33:00Z", "max_date": "2021-09-18T09:00:00Z", "count_points": 4, "latitude": 48.67706, "longitude": 36.69444, "city": "Oleksandrivka", "images": []}, {"id": 487197, "min_date": "2021-09-18T08:33:00Z", "max_date": "2021-09-18T08:33:00Z", "count_points": 1, "latitude": 49.25698, "longitude": 39.40382, "city": "Bilovodsk", "images": []}, {"id": 487198, "min_date": "2021-09-18T08:33:00Z", "max_date": "2021-09-18T08:33:00Z", "count_points": 1, "latitude": 45.56071, "longitude": 34.92257, "city": "Izobil\u2019noye", "images": []}, {"id": 487199, "min_date": "2021-09-18T10:19:00Z", "max_date": "2021-09-18T10:19:00Z", "count_points": 2, "latitude": 48.09765, "longitude": 37.45612, "city": "Mareyka", "images": []}, {"id": 487200, "min_date": "2021-09-18T10:19:00Z", "max_date": "2021-09-18T10:19:00Z", "count_points": 2, "latitude": 47.99527, "longitude": 37.51407, "city": "Mareyka", "images": []}, {"id": 487201, "min_date": "2021-09-18T10:19:00Z", "max_date": "2021-09-18T10:41:00Z", "count_points": 3, "latitude": 49.67362, "longitude": 38.98444, "city": "Novopskov", "images": []}, {"id": 487202, "min_date": "2021-09-18T10:19:00Z", "max_date": "2021-09-18T10:41:00Z", "count_points": 8, "latitude": 48.56613, "longitude": 38.72124, "city": "Stakhanov", "images": []},