[{"id": 476538, "min_date": "2021-05-03T11:20:00Z", "max_date": "2021-05-03T11:20:00Z", "count_points": 1, "latitude": 49.51, "longitude": 26.34, "city": "Volochysk", "images": []}, {"id": 476539, "min_date": "2021-05-04T08:40:00Z", "max_date": "2021-05-04T10:54:00Z", "count_points": 9, "latitude": 47.8201, "longitude": 34.49982, "city": "Chervonohryhorivka", "images": [{"image_url": "476539.jpg", "timestamp": "2021-05-04T10:54:00Z"}]}, {"id": 476540, "min_date": "2021-05-04T08:40:00Z", "max_date": "2021-05-04T09:12:00Z", "count_points": 3, "latitude": 48.8881, "longitude": 35.94523, "city": "Yur\u201dyivka", "images": []}, {"id": 476541, "min_date": "2021-05-04T08:40:00Z", "max_date": "2021-05-04T08:40:00Z", "count_points": 1, "latitude": 47.997, "longitude": 36.524, "city": "Pokrovs\u2019ke", "images": []}, {"id": 476542, "min_date": "2021-05-04T08:40:00Z", "max_date": "2021-05-04T08:40:00Z", "count_points": 1, "latitude": 47.196, "longitude": 37.704, "city": "Sartana", "images": []}, {"id": 476543, "min_date": "2021-05-04T08:40:00Z", "max_date": "2021-05-07T10:00:00Z", "count_points": 6, "latitude": 44.7659, "longitude": 33.65876, "city": "Tenistoye", "images": [{"image_url": "476543.jpg", "timestamp": "2021-05-07T10:00:00Z"}]}, {"id": 476544, "min_date": "2021-05-04T10:25:00Z", "max_date": "2021-05-04T10:54:00Z", "count_points": 3, "latitude": 48.16158, "longitude": 37.18176, "city": "Selydove", "images": []}, {"id": 476545, "min_date": "2021-05-04T10:25:00Z", "max_date": "2021-05-04T10:25:00Z", "count_points": 1, "latitude": 49.538, "longitude": 32.847, "city": "Orzhytsya", "images": []}, {"id": 476546, "min_date": "2021-05-04T10:25:00Z", "max_date": "2021-05-04T10:25:00Z", "count_points": 1, "latitude": 46.959, "longitude": 34.91, "city": "Vesele", "images": []}, {"id": 476547, "min_date": "2021-05-04T10:25:00Z", "max_date": "2021-05-04T10:54:00Z", "count_points": 5, "latitude": 47.89599, "longitude": 38.22078, "city": "Ilovays\u2019k", "images": []}, {"id": 476548, "min_date": "2021-05-05T07:45:00Z", "max_date": "2021-05-05T08:54:00Z", "count_points": 4, "latitude": 49.45243, "longitude": 34.74185, "city": "Mashivka", "images": []}, {"id": 476549, "min_date": "2021-05-05T09:20:00Z", "max_date": "2021-05-05T10:36:00Z", "count_points": 42, "latitude": 50.14395, "longitude": 32.95821, "city": "Chornukhy", "images": []}, {"id": 476550, "min_date": "2021-05-05T09:20:00Z", "max_date": "2021-05-05T09:48:00Z", "count_points": 6, "latitude": 50.29122, "longitude": 32.80311, "city": "Chornukhy", "images": []}, {"id": 476551, "min_date": "2021-05-05T09:20:00Z", "max_date": "2021-05-05T09:20:00Z", "count_points": 1, "latitude": 50.613, "longitude": 29.881, "city": "Borodianka", "images": []}, {"id": 476552, "min_date": "2021-05-05T09:20:00Z", "max_date": "2021-05-05T09:20:00Z", "count_points": 1, "latitude": 51.302, "longitude": 28.554, "city": "Ovruch", "images": []}, {"id": 476553, "min_date": "2021-05-05T09:20:00Z", "max_date": "2021-05-05T00:48:00Z", "count_points": 3, "latitude": 49.3671, "longitude": 25.3491, "city": "Kozova", "images": []}, {"id": 476554, "min_date": "2021-05-05T09:20:00Z", "max_date": "2021-05-05T00:48:00Z", "count_points": 3, "latitude": 49.06856, "longitude": 24.29317, "city": "Kalush", "images": []}, {"id": 476555, "min_date": "2021-05-05T09:20:00Z", "max_date": "2021-05-05T09:20:00Z", "count_points": 1, "latitude": 52.004, "longitude": 31.333, "city": "Dobryanka", "images": []}, {"id": 476556, "min_date": "2021-05-05T11:10:00Z", "max_date": "2021-05-05T11:30:00Z", "count_points": 2, "latitude": 49.38622, "longitude": 27.07991, "city": "Khmelnytskyi", "images": []}, {"id": 476557, "min_date": "2021-05-05T11:10:00Z", "max_date": "2021-05-05T11:30:00Z", "count_points": 4, "latitude": 49.96225, "longitude": 28.39218, "city": "Hryshkivtsi", "images": []}, {"id": 476558, "min_date": "2021-05-05T11:10:00Z", "max_date": "2021-05-05T08:54:00Z", "count_points": 8, "latitude": 50.8315, "longitude": 31.92673, "city": "Talalayivka", "images": []}, {"id": 476559, "min_date": "2021-05-05T11:10:00Z", "max_date": "2021-05-05T11:10:00Z", "count_points": 1, "latitude": 50.414, "longitude": 24.229, "city": "Chervonohrad", "images": []}, {"id": 476560, "min_date": "2021-05-05T11:10:00Z", "max_date": "2021-05-05T11:30:00Z", "count_points": 3, "latitude": 50.72718, "longitude": 30.72604, "city": "Pukhivka", "images": []}, {"id": 476561, "min_date": "2021-05-06T08:25:00Z", "max_date": "2021-05-06T10:18:00Z", "count_points": 14, "latitude": 49.45968, "longitude": 38.06945, "city": "Svatove", "images": []}, {"id": 476562, "min_date": "2021-05-06T10:10:00Z", "max_date": "2021-05-06T10:18:00Z", "count_points": 2, "latitude": 49.26303, "longitude": 40.09418, "city": "Milove", "images": []}, {"id": 476563, "min_date": "2021-05-06T10:10:00Z", "max_date": "2021-05-06T08:36:00Z", "count_points": 7, "latitude": 49.38711, "longitude": 39.06348, "city": "Novopskov", "images": []}, {"id": 476564, "min_date": "2021-05-09T10:45:00Z", "max_date": "2021-05-09T11:00:00Z", "count_points": 3, "latitude": 48.14202, "longitude": 26.22614, "city": "Novoselytsya", "images": []}, {"id": 476565, "min_date": "2021-05-09T10:45:00Z", "max_date": "2021-05-09T10:45:00Z", "count_points": 1, "latitude": 49.558, "longitude": 31.555, "city": "Moshny", "images": []}, {"id": 476566, "min_date": "2021-05-03T00:36:00Z", "max_date": "2021-05-03T00:36:00Z", "count_points": 1, "latitude": 50.0423, "longitude": 35.68669, "city": "Staryy Merchyk", "images": []}, {"id": 476567, "min_date": "2021-05-03T10:24:00Z", "max_date": "2021-05-03T10:24:00Z", "count_points": 4, "latitude": 50.07683, "longitude": 34.45271, "city": "Zin\u2019kiv", "images": []}, {"id": 476568, "min_date": "2021-05-03T10:24:00Z", "max_date": "2021-05-03T10:24:00Z", "count_points": 1, "latitude": 50.74054, "longitude": 24.73879, "city": "Lokachi", "images": []}, {"id": 476569, "min_date": "2021-05-03T10:24:00Z", "max_date": "2021-05-03T10:24:00Z", "count_points": 1, "latitude": 51.18732, "longitude": 33.75988, "city": "Buryn\u2019", "images": []}, {"id": 476570, "min_date": "2021-05-03T10:24:00Z", "max_date": "2021-05-03T10:24:00Z", "count_points": 1, "latitude": 45.02755, "longitude": 34.04773, "city": "Agrarnoye", "images": []}, {"id": 476571, "min_date": "2021-05-03T10:24:00Z", "max_date": "2021-05-03T10:24:00Z", "count_points": 1, "latitude": 49.75005, "longitude": 29.01725, "city": "Chornorudka", "images": []}, {"id": 476572, "min_date": "2021-05-03T22:36:00Z", "max_date": "2021-05-03T23:30:00Z", "count_points": 3, "latitude": 49.97417, "longitude": 33.06879, "city": "Lubny", "images": []}, {"id": 476573, "min_date": "2021-05-04T00:18:00Z", "max_date": "2021-05-04T00:18:00Z", "count_points": 2, "latitude": 46.91902, "longitude": 32.04027, "city": "Mykolayiv", "images": []}, {"id": 476574, "min_date": "2021-05-04T00:18:00Z", "max_date": "2021-05-04T00:18:00Z", "count_points": 1, "latitude": 50.95966, "longitude": 31.80242, "city": "Talalayivka", "images": []}, {"id": 476575, "min_date": "2021-05-04T00:18:00Z", "max_date": "2021-05-04T00:18:00Z", "count_points": 1, "latitude": 50.78155, "longitude": 24.29028, "city": "Volodymyr-Volynskyi", "images": []}, {"id": 476576, "min_date": "2021-05-04T00:18:00Z", "max_date": "2021-05-04T00:18:00Z", "count_points": 2, "latitude": 50.98431, "longitude": 33.07728, "city": "Talalayivka", "images": []}, {"id": 476577, "min_date": "2021-05-04T00:18:00Z", "max_date": "2021-05-04T00:18:00Z", "count_points": 1, "latitude": 50.92189, "longitude": 33.5456, "city": "Romny", "images": []}, {"id": 476578, "min_date": "2021-05-04T00:18:00Z", "max_date": "2021-05-04T00:18:00Z", "count_points": 1, "latitude": 49.64098, "longitude": 34.3497, "city": "Poltava", "images": []}, {"id": 476579, "min_date": "2021-05-04T10:06:00Z", "max_date": "2021-05-04T10:06:00Z", "count_points": 2, "latitude": 49.86285, "longitude": 32.13349, "city": "Drabiv", "images": []}, {"id": 476580, "min_date": "2021-05-04T10:06:00Z", "max_date": "2021-05-04T10:06:00Z", "count_points": 2, "latitude": 48.88264, "longitude": 24.87315, "city": "Tysmenytsya", "images": []}, {"id": 476581, "min_date": "2021-05-04T10:06:00Z", "max_date": "2021-05-04T10:06:00Z", "count_points": 2, "latitude": 51.45288, "longitude": 31.07371, "city": "Chernihiv", "images": []}, {"id": 476582, "min_date": "2021-05-04T10:06:00Z", "max_date": "2021-05-04T10:06:00Z", "count_points": 1, "latitude": 47.24231, "longitude": 37.20554, "city": "Volodars\u2019ke", "images": []}, {"id": 476583, "min_date": "2021-05-04T10:06:00Z", "max_date": "2021-05-04T10:06:00Z", "count_points": 1, "latitude": 46.60743, "longitude": 34.46578, "city": "Ivanivka", "images": []}, {"id": 476584, "min_date": "2021-05-04T10:06:00Z", "max_date": "2021-05-04T10:06:00Z", "count_points": 3, "latitude": 48.62471, "longitude": 34.75546, "city": "Petrykivka", "images": []}, {"id": 476585, "min_date": "2021-05-04T10:06:00Z", "max_date": "2021-05-04T10:06:00Z", "count_points": 1, "latitude": 49.16369, "longitude": 39.20786, "city": "Novoaydar", "images": []}, {"id": 476586, "min_date": "2021-05-04T10:06:00Z", "max_date": "2021-05-04T10:54:00Z", "count_points": 4, "latitude": 49.55189, "longitude": 32.67109, "city": "Orzhytsya", "images": []}, {"id": 476587, "min_date": "2021-05-04T10:06:00Z", "max_date": "2021-05-04T10:06:00Z", "count_points": 2, "latitude": 49.54877, "longitude": 35.00005, "city": "Karlivka", "images": []}, {"id": 476588, "min_date": "2021-05-04T10:06:00Z", "max_date": "2021-05-04T10:06:00Z", "count_points": 1, "latitude": 47.608, "longitude": 36.40389, "city": "Chapayevka", "images": []}, {"id": 476589, "min_date": "2021-05-04T10:06:00Z", "max_date": "2021-05-04T09:12:00Z", "count_points": 4, "latitude": 50.32308, "longitude": 36.99245, "city": "Vovchans\u2019k", "images": []}, {"id": 476590, "min_date": "2021-05-04T10:06:00Z", "max_date": "2021-05-04T10:06:00Z", "count_points": 1, "latitude": 51.17002, "longitude": 34.11823, "city": "Vorozhba", "images": []}, {"id": 476591, "min_date": "2021-05-04T10:06:00Z", "max_date": "2021-05-04T10:06:00Z", "count_points": 1, "latitude": 49.24244, "longitude": 28.52051, "city": "Vinnytsia", "images": []}, {"id": 476592, "min_date": "2021-05-04T10:06:00Z", "max_date": "2021-05-04T10:06:00Z", "count_points": 2, "latitude": 48.33179, "longitude": 35.33996, "city": "Synel\u2019nykove", "images": []}, {"id": 476593, "min_date": "2021-05-04T10:06:00Z", "max_date": "2021-05-04T10:54:00Z", "count_points": 2, "latitude": 46.33887, "longitude": 30.35119, "city": "Mayaky", "images": []}, {"id": 476594, "min_date": "2021-05-04T10:06:00Z", "max_date": "2021-05-04T09:12:00Z", "count_points": 2, "latitude": 48.04609, "longitude": 37.44246, "city": "Mareyka", "images": []}, {"id": 476595, "min_date": "2021-05-04T10:06:00Z", "max_date": "2021-05-04T10:06:00Z", "count_points": 1, "latitude": 49.41065, "longitude": 24.13046, "city": "Zhydachiv", "images": []}, {"id": 476596, "min_date": "2021-05-04T10:06:00Z", "max_date": "2021-05-04T10:06:00Z", "count_points": 1, "latitude": 46.23069, "longitude": 34.24497, "city": "Novotroyits\u2019ke", "images": []}, {"id": 476597, "min_date": "2021-05-04T10:06:00Z", "max_date": "2021-05-04T10:06:00Z", "count_points": 1, "latitude": 51.94514, "longitude": 33.29694, "city": "Novhorod-Sivers\u2019kyy", "images": []}, {"id": 476598, "min_date": "2021-05-04T10:06:00Z", "max_date": "2021-05-04T10:06:00Z", "count_points": 1, "latitude": 49.77914, "longitude": 28.85851, "city": "Kozyatyn", "images": []}, {"id": 476599, "min_date": "2021-05-04T10:06:00Z", "max_date": "2021-05-04T10:06:00Z", "count_points": 1, "latitude": 46.9656, "longitude": 36.44937, "city": "Prymors\u2019k", "images": []}, {"id": 476600, "min_date": "2021-05-04T10:06:00Z", "max_date": "2021-05-04T10:06:00Z", "count_points": 1, "latitude": 50.24791, "longitude": 28.6679, "city": "Zhytomyr", "images": []}, {"id": 476601, "min_date": "2021-05-04T11:48:00Z", "max_date": "2021-05-04T11:48:00Z", "count_points": 2, "latitude": 48.53403, "longitude": 27.36344, "city": "Novodnistrovs\u2019k", "images": []}, {"id": 476602, "min_date": "2021-05-04T11:48:00Z", "max_date": "2021-05-04T11:48:00Z", "count_points": 3, "latitude": 49.61103, "longitude": 31.06657, "city": "Myronivka", "images": []}, {"id": 476603, "min_date": "2021-05-04T11:48:00Z", "max_date": "2021-05-04T11:48:00Z", "count_points": 1, "latitude": 49.90915, "longitude": 30.40685, "city": "Uzyn", "images": []}, {"id": 476604, "min_date": "2021-05-04T11:48:00Z", "max_date": "2021-05-04T11:48:00Z", "count_points": 1, "latitude": 51.38181, "longitude": 23.86774, "city": "Svityaz\u2019", "images": []}, {"id": 476605, "min_date": "2021-05-04T11:48:00Z", "max_date": "2021-05-04T10:54:00Z", "count_points": 3, "latitude": 49.93909, "longitude": 24.08665, "city": "Dublyany", "images": []}, {"id": 476606, "min_date": "2021-05-04T11:48:00Z", "max_date": "2021-05-04T11:48:00Z", "count_points": 1, "latitude": 48.87054, "longitude": 23.34384, "city": "Slavske", "images": []}, {"id": 476607, "min_date": "2021-05-04T22:18:00Z", "max_date": "2021-05-04T23:06:00Z", "count_points": 8, "latitude": 49.48186, "longitude": 39.48991, "city": "Markivka", "images": []}, {"id": 476608, "min_date": "2021-05-05T00:00:00Z", "max_date": "2021-05-05T00:48:00Z", "count_points": 3, "latitude": 49.21844, "longitude": 24.71926, "city": "Bilshivtsi", "images": []}, {"id": 476609, "min_date": "2021-05-05T00:00:00Z", "max_date": "2021-05-05T00:00:00Z", "count_points": 2, "latitude": 48.78105, "longitude": 37.57166, "city": "Kramators\u2019k", "images": []}, {"id": 476610, "min_date": "2021-05-05T00:00:00Z", "max_date": "2021-05-05T00:00:00Z", "count_points": 1, "latitude": 50.06499, "longitude": 31.48771, "city": "Pereyaslav-Khmel\u2019nyts\u2019kyy", "images": []}, {"id": 476611, "min_date": "2021-05-05T00:00:00Z", "max_date": "2021-05-05T00:00:00Z", "count_points": 2, "latitude": 48.88521, "longitude": 32.95788, "city": "Pryyutivka", "images": []}, {"id": 476612, "min_date": "2021-05-05T00:00:00Z", "max_date": "2021-05-05T00:00:00Z", "count_points": 1, "latitude": 48.44568, "longitude": 35.22998, "city": "Kaydaki", "images": []}, {"id": 476613, "min_date": "2021-05-05T00:00:00Z", "max_date": "2021-05-05T00:00:00Z", "count_points": 1, "latitude": 50.89374, "longitude": 33.44741, "city": "Romny", "images": []}, {"id": 476614, "min_date": "2021-05-05T00:00:00Z", "max_date": "2021-05-04T23:06:00Z", "count_points": 4, "latitude": 50.5771, "longitude": 25.95447, "city": "Klevan\u2019", "images": []}, {"id": 476615, "min_date": "2021-05-05T09:48:00Z", "max_date": "2021-05-05T09:48:00Z", "count_points": 1, "latitude": 51.69693, "longitude": 33.93434, "city": "Hlukhiv", "images": []}, {"id": 476616, "min_date": "2021-05-05T09:48:00Z", "max_date": "2021-05-05T09:48:00Z", "count_points": 5, "latitude": 50.29375, "longitude": 35.38887, "city": "Velyka Pysarivka", "images": []}, {"id": 476617, "min_date": "2021-05-05T09:48:00Z", "max_date": "2021-05-05T09:48:00Z", "count_points": 1, "latitude": 50.43831, "longitude": 28.9089, "city": "Holovyne", "images": []}, {"id": 476618, "min_date": "2021-05-05T09:48:00Z", "max_date": "2021-05-05T09:48:00Z", "count_points": 1, "latitude": 49.86177, "longitude": 25.2615, "city": "Pidkamin\u2019", "images": []}, {"id": 476619, "min_date": "2021-05-05T09:48:00Z", "max_date": "2021-05-05T10:36:00Z", "count_points": 9, "latitude": 51.19933, "longitude": 31.51765, "city": "Olyshivka", "images": []}, {"id": 476620, "min_date": "2021-05-05T09:48:00Z", "max_date": "2021-05-05T09:48:00Z", "count_points": 1, "latitude": 50.50997, "longitude": 33.45291, "city": "Lokhvytsya", "images": []}, {"id": 476621, "min_date": "2021-05-05T09:48:00Z", "max_date": "2021-05-05T10:36:00Z", "count_points": 4, "latitude": 51.81523, "longitude": 33.30454, "city": "Shostka", "images": []}, {"id": 476622, "min_date": "2021-05-05T09:48:00Z", "max_date": "2021-05-05T09:48:00Z", "count_points": 1, "latitude": 50.76888, "longitude": 34.0947, "city": "Nedryhayliv", "images": []}, {"id": 476623, "min_date": "2021-05-05T09:48:00Z", "max_date": "2021-05-05T08:54:00Z", "count_points": 2, "latitude": 49.55876, "longitude": 35.35443, "city": "Varvarivka", "images": []}, {"id": 476624, "min_date": "2021-05-05T09:48:00Z", "max_date": "2021-05-05T11:30:00Z", "count_points": 4, "latitude": 51.26809, "longitude": 31.98185, "city": "Nizhyn", "images": []}, {"id": 476625, "min_date": "2021-05-05T09:48:00Z", "max_date": "2021-05-05T10:36:00Z", "count_points": 4, "latitude": 49.53052, "longitude": 39.44923, "city": "Markivka", "images": []}, {"id": 476626, "min_date": "2021-05-05T09:48:00Z", "max_date": "2021-05-05T09:48:00Z", "count_points": 1, "latitude": 50.1623, "longitude": 34.15004, "city": "Zin\u2019kiv", "images": []}, {"id": 476627, "min_date": "2021-05-05T09:48:00Z", "max_date": "2021-05-05T09:48:00Z", "count_points": 2, "latitude": 52.24339, "longitude": 33.61234, "city": "Yampil\u2019", "images": []}, {"id": 476628, "min_date": "2021-05-05T09:48:00Z", "max_date": "2021-05-05T09:48:00Z", "count_points": 1, "latitude": 46.95737, "longitude": 32.75872, "city": "Oleksandrivka", "images": []}, {"id": 476629, "min_date": "2021-05-05T09:48:00Z", "max_date": "2021-05-05T09:48:00Z", "count_points": 1, "latitude": 50.18257, "longitude": 29.25686, "city": "Korostyshiv", "images": []}, {"id": 476630, "min_date": "2021-05-05T09:48:00Z", "max_date": "2021-05-05T09:48:00Z", "count_points": 1, "latitude": 48.34092, "longitude": 33.84692, "city": "Vyshneve", "images": []}, {"id": 476631, "min_date": "2021-05-05T09:48:00Z", "max_date": "2021-05-05T09:48:00Z", "count_points": 1, "latitude": 50.68003, "longitude": 33.57028, "city": "Romny", "images": []}, {"id": 476632, "min_date": "2021-05-05T09:48:00Z", "max_date": "2021-05-05T10:36:00Z", "count_points": 4, "latitude": 48.7772, "longitude": 33.7764, "city": "Lykhivka", "images": []}, {"id": 476633, "min_date": "2021-05-05T09:48:00Z", "max_date": "2021-05-05T10:36:00Z", "count_points": 2, "latitude": 48.54568, "longitude": 38.1758, "city": "Svetlodarsk", "images": []}, {"id": 476634, "min_date": "2021-05-05T09:48:00Z", "max_date": "2021-05-05T09:48:00Z", "count_points": 2, "latitude": 51.65754, "longitude": 32.46133, "city": "Sosnytsya", "images": []}, {"id": 476635, "min_date": "2021-05-05T09:48:00Z", "max_date": "2021-05-05T10:36:00Z", "count_points": 2, "latitude": 51.82368, "longitude": 34.09646, "city": "Chervone", "images": []}, {"id": 476636, "min_date": "2021-05-05T09:48:00Z", "max_date": "2021-05-05T10:36:00Z", "count_points": 3, "latitude": 51.12638, "longitude": 24.3636, "city": "Turiys\u2019k", "images": []}, {"id": 476637, "min_date": "2021-05-05T09:48:00Z", "max_date": "2021-05-05T08:54:00Z", "count_points": 3, "latitude": 50.92066, "longitude": 33.06631, "city": "Talalayivka", "images": []}, {"id": 476638, "min_date": "2021-05-05T09:48:00Z", "max_date": "2021-05-05T09:48:00Z", "count_points": 1, "latitude": 50.86285, "longitude": 33.36291, "city": "Romny", "images": []}, {"id": 476639, "min_date": "2021-05-05T11:24:00Z", "max_date": "2021-05-05T11:24:00Z", "count_points": 1, "latitude": 47.17678, "longitude": 37.91635, "city": "Bezimenne", "images": []}, {"id": 476640, "min_date": "2021-05-05T11:30:00Z", "max_date": "2021-05-06T23:24:00Z", "count_points": 2, "latitude": 48.88057, "longitude": 37.52491, "city": "Sloviansk", "images": []}, {"id": 476641, "min_date": "2021-05-05T11:30:00Z", "max_date": "2021-05-05T11:30:00Z", "count_points": 3, "latitude": 48.92024, "longitude": 32.21716, "city": "Oleksandrivka", "images": []}, {"id": 476642, "min_date": "2021-05-05T11:30:00Z", "max_date": "2021-05-05T11:30:00Z", "count_points": 1, "latitude": 50.06862, "longitude": 36.97313, "city": "Staryy Saltiv", "images": []}, {"id": 476643, "min_date": "2021-05-05T11:30:00Z", "max_date": "2021-05-05T11:30:00Z", "count_points": 1, "latitude": 47.86211, "longitude": 29.23998, "city": "Slobidka", "images": []}, {"id": 476644, "min_date": "2021-05-05T11:30:00Z", "max_date": "2021-05-05T11:30:00Z", "count_points": 1, "latitude": 50.80382, "longitude": 28.72412, "city": "Nova Borova", "images": []}, {"id": 476645, "min_date": "2021-05-05T11:30:00Z", "max_date": "2021-05-05T11:30:00Z", "count_points": 1, "latitude": 51.01245, "longitude": 30.71365, "city": "Desna", "images": []}, {"id": 476646, "min_date": "2021-05-05T11:30:00Z", "max_date": "2021-05-05T11:30:00Z", "count_points": 1, "latitude": 48.58532, "longitude": 36.33175, "city": "Petropavlivka", "images": []}, {"id": 476647, "min_date": "2021-05-05T11:30:00Z", "max_date": "2021-05-05T11:30:00Z", "count_points": 1, "latitude": 50.29705, "longitude": 37.11739, "city": "Vovchans\u2019k", "images": []}, {"id": 476648, "min_date": "2021-05-05T11:30:00Z", "max_date": "2021-05-05T11:30:00Z", "count_points": 1, "latitude": 47.78268, "longitude": 33.35367, "city": "Kryvyi Rih", "images": []}, {"id": 476649, "min_date": "2021-05-05T11:30:00Z", "max_date": "2021-05-05T11:30:00Z", "count_points": 1, "latitude": 49.65523, "longitude": 23.10044, "city": "Pnikut", "images": []}, {"id": 476650, "min_date": "2021-05-05T11:30:00Z", "max_date": "2021-05-05T11:30:00Z", "count_points": 2, "latitude": 50.12688, "longitude": 34.47503, "city": "Zin\u2019kiv", "images": []}, {"id": 476651, "min_date": "2021-05-05T11:30:00Z", "max_date": "2021-05-05T08:54:00Z", "count_points": 2, "latitude": 49.92606, "longitude": 34.59094, "city": "Oposhnya", "images": []}, {"id": 476652, "min_date": "2021-05-05T11:30:00Z", "max_date": "2021-05-05T11:30:00Z", "count_points": 1, "latitude": 49.39862, "longitude": 22.89533, "city": "Staryy Sambir", "images": []}, {"id": 476653, "min_date": "2021-05-05T11:30:00Z", "max_date": "2021-05-05T10:36:00Z", "count_points": 3, "latitude": 50.65308, "longitude": 29.4633, "city": "Bila Krynytsya", "images": []}, {"id": 476654, "min_date": "2021-05-05T11:30:00Z", "max_date": "2021-05-05T11:30:00Z", "count_points": 1, "latitude": 51.29998, "longitude": 29.6454, "city": "Krasyatychi", "images": []}, {"id": 476655, "min_date": "2021-05-05T11:30:00Z", "max_date": "2021-05-05T10:36:00Z", "count_points": 2, "latitude": 49.02794, "longitude": 26.60553, "city": "Horodok", "images": []}, {"id": 476656, "min_date": "2021-05-05T23:42:00Z", "max_date": "2021-05-05T23:42:00Z", "count_points": 1, "latitude": 50.2207, "longitude": 37.38298, "city": "Prykolotne", "images": []}, {"id": 476657, "min_date": "2021-05-05T23:42:00Z", "max_date": "2021-05-05T23:42:00Z", "count_points": 1, "latitude": 47.93624, "longitude": 33.4347, "city": "Kryvyi Rih", "images": []}, {"id": 476658, "min_date": "2021-05-05T23:42:00Z", "max_date": "2021-05-05T23:42:00Z", "count_points": 1, "latitude": 49.53188, "longitude": 37.06692, "city": "Savyntsi", "images": []}, {"id": 476659, "min_date": "2021-05-05T23:42:00Z", "max_date": "2021-05-05T23:42:00Z", "count_points": 1, "latitude": 47.70449, "longitude": 32.58978, "city": "Novyy Buh", "images": []}, {"id": 476660, "min_date": "2021-05-05T23:42:00Z", "max_date": "2021-05-05T23:42:00Z", "count_points": 1, "latitude": 51.04439, "longitude": 32.58644, "city": "Bakhmach", "images": []}, {"id": 476661, "min_date": "2021-05-05T23:42:00Z", "max_date": "2021-05-05T23:42:00Z", "count_points": 3, "latitude": 51.48931, "longitude": 32.73042, "city": "Baturyn", "images": []}, {"id": 476662, "min_date": "2021-05-05T23:42:00Z", "max_date": "2021-05-05T23:42:00Z", "count_points": 1, "latitude": 51.76133, "longitude": 32.25169, "city": "Koryukivka", "images": []}, {"id": 476663, "min_date": "2021-05-05T23:42:00Z", "max_date": "2021-05-05T23:42:00Z", "count_points": 2, "latitude": 49.18863, "longitude": 29.87716, "city": "Tsibulev", "images": []}, {"id": 476664, "min_date": "2021-05-05T23:42:00Z", "max_date": "2021-05-05T23:42:00Z", "count_points": 1, "latitude": 49.96333, "longitude": 35.26004, "city": "Kolomak", "images": []}, {"id": 476665, "min_date": "2021-05-06T09:30:00Z", "max_date": "2021-05-06T11:06:00Z", "count_points": 3, "latitude": 47.75555, "longitude": 36.3998, "city": "Hulyaypole", "images": []}, {"id": 476666, "min_date": "2021-05-06T09:30:00Z", "max_date": "2021-05-06T09:30:00Z", "count_points": 1, "latitude": 48.60943, "longitude": 38.50463, "city": "Pervomays\u2019k", "images": []}, {"id": 476667, "min_date": "2021-05-06T09:30:00Z", "max_date": "2021-05-06T09:30:00Z", "count_points": 1, "latitude": 49.03233, "longitude": 39.34821, "city": "Bilovodsk", "images": []}, {"id": 476668, "min_date": "2021-05-06T09:30:00Z", "max_date": "2021-05-06T09:30:00Z", "count_points": 1, "latitude": 49.28974, "longitude": 39.49179, "city": "Bilovodsk", "images": []}, {"id": 476669, "min_date": "2021-05-06T11:06:00Z", "max_date": "2021-05-06T11:06:00Z", "count_points": 2, "latitude": 49.95562, "longitude": 34.89357, "city": "Kotel\u2019va", "images": []}, {"id": 476670, "min_date": "2021-05-06T11:06:00Z", "max_date": "2021-05-06T11:06:00Z", "count_points": 1, "latitude": 48.2443, "longitude": 29.08091, "city": "Torkanivka", "images": []}, {"id": 476671, "min_date": "2021-05-06T11:06:00Z", "max_date": "2021-05-06T11:06:00Z", "count_points": 1, "latitude": 48.74313, "longitude": 24.35982, "city": "Kosmach", "images": []}, {"id": 476672, "min_date": "2021-05-06T11:06:00Z", "max_date": "2021-05-06T11:12:00Z", "count_points": 2, "latitude": 50.39829, "longitude": 29.43751, "city": "Stavyshche", "images": []}, {"id": 476673, "min_date": "2021-05-06T11:06:00Z", "max_date": "2021-05-06T12:00:00Z", "count_points": 2, "latitude": 48.46099, "longitude": 26.10992, "city": "Klishkivtsi", "images": []}, {"id": 476674, "min_date": "2021-05-06T11:06:00Z", "max_date": "2021-05-06T11:06:00Z", "count_points": 1, "latitude": 47.21744, "longitude": 34.63198, "city": "Velyka Bilozerka", "images": []}, {"id": 476675, "min_date": "2021-05-06T11:06:00Z", "max_date": "2021-05-06T11:06:00Z", "count_points": 2, "latitude": 49.17197, "longitude": 39.68738, "city": "Bilovodsk", "images": []}, {"id": 476676, "min_date": "2021-05-06T11:06:00Z", "max_date": "2021-05-06T11:06:00Z", "count_points": 2, "latitude": 49.41938, "longitude": 38.14109, "city": "Svatove", "images": []}, {"id": 476677, "min_date": "2021-05-06T11:06:00Z", "max_date": "2021-05-06T11:06:00Z", "count_points": 1, "latitude": 49.6694, "longitude": 35.30591, "city": "Chutove", "images": []}, {"id": 476678, "min_date": "2021-05-06T11:12:00Z", "max_date": "2021-05-06T11:12:00Z", "count_points": 1, "latitude": 50.82416, "longitude": 26.29606, "city": "Kostopil\u2019", "images": []}, {"id": 476679, "min_date": "2021-05-06T11:12:00Z", "max_date": "2021-05-06T11:12:00Z", "count_points": 1, "latitude": 51.13235, "longitude": 31.18406, "city": "Olyshivka", "images": []}, {"id": 476680, "min_date": "2021-05-06T23:24:00Z", "max_date": "2021-05-06T22:30:00Z", "count_points": 2, "latitude": 48.19039, "longitude": 38.49684, "city": "Stizhkivs\u2019ke", "images": []}, {"id": 476681, "min_date": "2021-05-07T01:06:00Z", "max_date": "2021-05-04T23:12:00Z", "count_points": 3, "latitude": 46.59681, "longitude": 32.44055, "city": "Bilozerka", "images": []}, {"id": 476682, "min_date": "2021-05-07T09:12:00Z", "max_date": "2021-05-07T09:12:00Z", "count_points": 1, "latitude": 49.00317, "longitude": 35.63845, "city": "Sakhnovshchyna", "images": []}, {"id": 476683, "min_date": "2021-05-07T10:48:00Z", "max_date": "2021-05-03T11:12:00Z", "count_points": 2, "latitude": 48.82975, "longitude": 27.22559, "city": "Nova Ushytsya", "images": []}, {"id": 476684, "min_date": "2021-05-07T10:48:00Z", "max_date": "2021-05-07T10:48:00Z", "count_points": 2, "latitude": 48.70555, "longitude": 27.24713, "city": "Nova Ushytsya", "images": []}, {"id": 476685, "min_date": "2021-05-08T10:30:00Z", "max_date": "2021-05-08T10:30:00Z", "count_points": 2, "latitude": 47.5968, "longitude": 37.65187, "city": "Volnovakha", "images": []}, {"id": 476686, "min_date": "2021-05-08T10:30:00Z", "max_date": "2021-05-08T10:30:00Z", "count_points": 1, "latitude": 48.20688, "longitude": 37.74866, "city": "Avdiyivka", "images": []}, {"id": 476687, "min_date": "2021-05-08T10:30:00Z", "max_date": "2021-05-08T10:30:00Z", "count_points": 1, "latitude": 48.86138, "longitude": 28.2037, "city": "Sharhorod", "images": []}, {"id": 476688, "min_date": "2021-05-08T10:30:00Z", "max_date": "2021-05-08T10:30:00Z", "count_points": 1, "latitude": 47.63571, "longitude": 37.69691, "city": "Dokuchayevs\u2019k", "images": []}, {"id": 476689, "min_date": "2021-05-09T00:24:00Z", "max_date": "2021-05-09T00:24:00Z", "count_points": 2, "latitude": 48.40152, "longitude": 26.26946, "city": "Klishkivtsi", "images": []}, {"id": 476690, "min_date": "2021-05-09T00:24:00Z", "max_date": "2021-05-09T01:12:00Z", "count_points": 9, "latitude": 48.39429, "longitude": 26.20061, "city": "Klishkivtsi", "images": []}, {"id": 476691, "min_date": "2021-05-09T00:24:00Z", "max_date": "2021-05-09T11:00:00Z", "count_points": 5, "latitude": 48.3872, "longitude": 26.14563, "city": "Boyany", "images": []}, {"id": 476692, "min_date": "2021-05-09T00:24:00Z", "max_date": "2021-05-08T23:36:00Z", "count_points": 3, "latitude": 46.11324, "longitude": 30.31602, "city": "Shabo", "images": []}, {"id": 476693, "min_date": "2021-05-09T00:24:00Z", "max_date": "2021-05-09T00:24:00Z", "count_points": 2, "latitude": 50.92603, "longitude": 31.60103, "city": "Nosivka", "images": []}, {"id": 476694, "min_date": "2021-05-09T00:24:00Z", "max_date": "2021-05-09T00:24:00Z", "count_points": 1, "latitude": 48.54242, "longitude": 27.32135, "city": "Novodnistrovs\u2019k", "images": []}, {"id": 476695, "min_date": "2021-05-09T00:24:00Z", "max_date": "2021-05-09T00:24:00Z", "count_points": 1, "latitude": 48.49039, "longitude": 27.25144, "city": "Novodnistrovs\u2019k", "images": []}, {"id": 476696, "min_date": "2021-05-09T00:24:00Z", "max_date": "2021-05-09T00:24:00Z", "count_points": 1, "latitude": 49.88638, "longitude": 24.04004, "city": "Dublyany", "images": []}, {"id": 476697, "min_date": "2021-05-09T10:12:00Z", "max_date": "2021-05-09T10:12:00Z", "count_points": 1, "latitude": 47.1877, "longitude": 35.07854, "city": "Tymoshivka", "images": []}, {"id": 476698, "min_date": "2021-05-09T10:12:00Z", "max_date": "2021-05-09T10:12:00Z", "count_points": 1, "latitude": 51.22653, "longitude": 24.20376, "city": "Liuboml", "images": []}, {"id": 476699, "min_date": "2021-05-09T10:12:00Z", "max_date": "2021-05-09T10:12:00Z", "count_points": 1, "latitude": 46.95848, "longitude": 35.43063, "city": "Terpinnya", "images": []}, {"id": 476700, "min_date": "2021-05-09T10:12:00Z", "max_date": "2021-05-09T10:12:00Z", "count_points": 1, "latitude": 50.6628, "longitude": 28.57864, "city": "Nova Borova", "images": []}, {"id": 476701, "min_date": "2021-05-09T10:12:00Z", "max_date": "2021-05-09T10:12:00Z", "count_points": 1, "latitude": 47.02679, "longitude": 34.86469, "city": "Vesele", "images": []}, {"id": 476702, "min_date": "2021-05-09T11:54:00Z", "max_date": "2021-05-09T11:54:00Z", "count_points": 2, "latitude": 51.14012, "longitude": 29.54026, "city": "Krasyatychi", "images": []}, {"id": 476703, "min_date": "2021-05-09T11:54:00Z", "max_date": "2021-05-09T11:54:00Z", "count_points": 1, "latitude": 49.30398, "longitude": 24.45766, "city": "Burshtyn", "images": []}, {"id": 476704, "min_date": "2021-05-09T11:54:00Z", "max_date": "2021-05-09T11:54:00Z", "count_points": 1, "latitude": 48.55927, "longitude": 25.64631, "city": "Stetseva", "images": []}, {"id": 476705, "min_date": "2021-05-03T09:30:00Z", "max_date": "2021-05-03T09:30:00Z", "count_points": 1, "latitude": 46.92908, "longitude": 35.97006, "city": "Rozivka", "images": []}, {"id": 476706, "min_date": "2021-05-03T09:36:00Z", "max_date": "2021-05-03T09:36:00Z", "count_points": 1, "latitude": 49.73873, "longitude": 27.58083, "city": "Stara Syniava", "images": []}, {"id": 476707, "min_date": "2021-05-03T09:36:00Z", "max_date": "2021-05-03T09:36:00Z", "count_points": 1, "latitude": 52.04932, "longitude": 33.76252, "city": "Yampil\u2019", "images": []}, {"id": 476708, "min_date": "2021-05-03T11:12:00Z", "max_date": "2021-05-03T11:12:00Z", "count_points": 1, "latitude": 49.352, "longitude": 24.36021, "city": "Khodoriv", "images": []}, {"id": 476709, "min_date": "2021-05-03T11:12:00Z", "max_date": "2021-05-03T11:12:00Z", "count_points": 1, "latitude": 48.46825, "longitude": 32.70686, "city": "Novhorodka", "images": []}, {"id": 476710, "min_date": "2021-05-03T23:24:00Z", "max_date": "2021-05-03T23:24:00Z", "count_points": 1, "latitude": 51.802, "longitude": 34.20002, "city": "Chervone", "images": []}, {"id": 476711, "min_date": "2021-05-03T23:24:00Z", "max_date": "2021-05-03T23:24:00Z", "count_points": 1, "latitude": 51.79836, "longitude": 33.95082, "city": "Chervone", "images": []}, {"id": 476712, "min_date": "2021-05-03T23:30:00Z", "max_date": "2021-05-03T23:30:00Z", "count_points": 1, "latitude": 49.58133, "longitude": 28.95433, "city": "Kozyatyn", "images": []}, {"id": 476713, "min_date": "2021-05-04T09:12:00Z", "max_date": "2021-05-04T09:12:00Z", "count_points": 1, "latitude": 48.17639, "longitude": 38.25476, "city": "Yenakiyeve", "images": []}, {"id": 476714, "min_date": "2021-05-04T09:12:00Z", "max_date": "2021-05-04T09:12:00Z", "count_points": 1, "latitude": 47.71625, "longitude": 35.93761, "city": "Mala Tokmachka", "images": []}, {"id": 476715, "min_date": "2021-05-04T09:12:00Z", "max_date": "2021-05-04T09:12:00Z", "count_points": 1, "latitude": 48.13109, "longitude": 36.75164, "city": "Mezhova", "images": []}, {"id": 476716, "min_date": "2021-05-04T10:54:00Z", "max_date": "2021-05-04T10:54:00Z", "count_points": 2, "latitude": 51.42957, "longitude": 32.38139, "city": "Sosnytsya", "images": []}, {"id": 476717, "min_date": "2021-05-04T10:54:00Z", "max_date": "2021-05-04T10:54:00Z", "count_points": 1, "latitude": 49.28437, "longitude": 24.56248, "city": "Burshtyn", "images": []}, {"id": 476718, "min_date": "2021-05-04T10:54:00Z", "max_date": "2021-05-04T10:54:00Z", "count_points": 1, "latitude": 49.52134, "longitude": 27.39362, "city": "Medzhybizh", "images": []}, {"id": 476719, "min_date": "2021-05-04T10:54:00Z", "max_date": "2021-05-04T10:54:00Z", "count_points": 1, "latitude": 48.56093, "longitude": 37.03041, "city": "Novodonets\u2019ke", "images": []}, {"id": 476720, "min_date": "2021-05-04T10:54:00Z", "max_date": "2021-05-04T10:54:00Z", "count_points": 1, "latitude": 49.72457, "longitude": 29.03946, "city": "Chornorudka", "images": []}, {"id": 476721, "min_date": "2021-05-04T10:54:00Z", "max_date": "2021-05-05T10:36:00Z", "count_points": 2, "latitude": 49.67205, "longitude": 34.3006, "city": "Reshetylivka", "images": []}, {"id": 476722, "min_date": "2021-05-04T10:54:00Z", "max_date": "2021-05-04T10:54:00Z", "count_points": 1, "latitude": 48.98975, "longitude": 34.88643, "city": "Mahdalynivka", "images": []}, {"id": 476723, "min_date": "2021-05-04T10:54:00Z", "max_date": "2021-05-04T10:54:00Z", "count_points": 1, "latitude": 51.24428, "longitude": 33.628, "city": "Sloboda", "images": []}, {"id": 476724, "min_date": "2021-05-04T10:54:00Z", "max_date": "2021-05-04T10:54:00Z", "count_points": 1, "latitude": 51.26069, "longitude": 27.94964, "city": "Novi Bilokorovychi", "images": []}, {"id": 476725, "min_date": "2021-05-04T10:54:00Z", "max_date": "2021-05-04T10:54:00Z", "count_points": 1, "latitude": 47.84634, "longitude": 29.6284, "city": "Balta", "images": []}, {"id": 476726, "min_date": "2021-05-04T10:54:00Z", "max_date": "2021-05-04T10:54:00Z", "count_points": 1, "latitude": 51.30421, "longitude": 33.61857, "city": "Sloboda", "images": []}, {"id": 476727, "min_date": "2021-05-04T10:54:00Z", "max_date": "2021-05-04T10:54:00Z", "count_points": 1, "latitude": 50.68553, "longitude": 32.20662, "city": "Lisovi Sorochyntsi", "images": []}, {"id": 476728, "min_date": "2021-05-04T23:06:00Z", "max_date": "2021-05-04T23:06:00Z", "count_points": 1, "latitude": 47.81078, "longitude": 37.4654, "city": "Blahodatne", "images": []}, {"id": 476729, "min_date": "2021-05-05T00:48:00Z", "max_date": "2021-05-05T00:48:00Z", "count_points": 1, "latitude": 50.30011, "longitude": 33.8475, "city": "Hadyach", "images": []}, {"id": 476730, "min_date": "2021-05-05T08:54:00Z", "max_date": "2021-05-05T08:54:00Z", "count_points": 1, "latitude": 49.14773, "longitude": 33.80302, "city": "Kozel\u2019shchyna", "images": []}, {"id": 476731, "min_date": "2021-05-05T10:36:00Z", "max_date": "2021-05-05T10:36:00Z", "count_points": 12, "latitude": 50.69738, "longitude": 30.21181, "city": "Katyuzhanka", "images": []}, {"id": 476732, "min_date": "2021-05-05T10:36:00Z", "max_date": "2021-05-05T10:36:00Z", "count_points": 1, "latitude": 51.22604, "longitude": 33.3649, "city": "Konotop", "images": []}, {"id": 476733, "min_date": "2021-05-05T10:36:00Z", "max_date": "2021-05-05T10:36:00Z", "count_points": 1, "latitude": 51.03065, "longitude": 33.70107, "city": "Sloboda", "images": []}, {"id": 476734, "min_date": "2021-05-05T10:36:00Z", "max_date": "2021-05-05T10:36:00Z", "count_points": 1, "latitude": 50.20229, "longitude": 25.7758, "city": "Smyga", "images": []}, {"id": 476735, "min_date": "2021-05-05T10:36:00Z", "max_date": "2021-05-05T10:36:00Z", "count_points": 1, "latitude": 48.98161, "longitude": 37.3698, "city": "Studenok", "images": []}, {"id": 476736, "min_date": "2021-05-05T10:36:00Z", "max_date": "2021-05-05T10:36:00Z", "count_points": 1, "latitude": 50.17382, "longitude": 32.80959, "city": "Chornukhy", "images": []}, {"id": 476737, "min_date": "2021-05-05T10:36:00Z", "max_date": "2021-05-05T10:36:00Z", "count_points": 2, "latitude": 48.57111, "longitude": 29.86932, "city": "Teplyk", "images": []}, {"id": 476738, "min_date": "2021-05-05T10:36:00Z", "max_date": "2021-05-05T10:36:00Z", "count_points": 1, "latitude": 48.38987, "longitude": 26.81593, "city": "Kel\u2019mentsi", "images": []}, {"id": 476739, "min_date": "2021-05-05T10:36:00Z", "max_date": "2021-05-05T10:36:00Z", "count_points": 2, "latitude": 50.48595, "longitude": 34.95832, "city": "Trostyanets\u2019", "images": []}, {"id": 476740, "min_date": "2021-05-05T10:36:00Z", "max_date": "2021-05-05T10:36:00Z", "count_points": 1, "latitude": 50.59239, "longitude": 30.46807, "city": "Vyshhorod", "images": []}, {"id": 476741, "min_date": "2021-05-05T10:36:00Z", "max_date": "2021-05-05T10:36:00Z", "count_points": 1, "latitude": 48.48947, "longitude": 33.04572, "city": "Novyy Starodub", "images": []}, {"id": 476742, "min_date": "2021-05-05T10:36:00Z", "max_date": "2021-05-05T10:36:00Z", "count_points": 1, "latitude": 51.48005, "longitude": 31.35806, "city": "Chernihiv", "images": []}, {"id": 476743, "min_date": "2021-05-05T10:36:00Z", "max_date": "2021-05-05T10:36:00Z", "count_points": 1, "latitude": 51.46988, "longitude": 33.00555, "city": "Korop", "images": []}, {"id": 476744, "min_date": "2021-05-05T10:36:00Z", "max_date": "2021-05-05T10:36:00Z", "count_points": 1, "latitude": 50.20557, "longitude": 32.68119, "city": "Pyryatyn", "images": []}, {"id": 476745, "min_date": "2021-05-05T10:36:00Z", "max_date": "2021-05-05T10:36:00Z", "count_points": 1, "latitude": 49.76277, "longitude": 25.7314, "city": "Zbarazh", "images": []}, {"id": 476746, "min_date": "2021-05-05T10:36:00Z", "max_date": "2021-05-05T10:36:00Z", "count_points": 1, "latitude": 48.31526, "longitude": 29.22757, "city": "Torkanivka", "images": []}, {"id": 476747, "min_date": "2021-05-05T10:36:00Z", "max_date": "2021-05-05T10:36:00Z", "count_points": 3, "latitude": 51.41279, "longitude": 32.21629, "city": "Mena", "images": []}, {"id": 476748, "min_date": "2021-05-05T10:36:00Z", "max_date": "2021-05-05T10:36:00Z", "count_points": 2, "latitude": 51.6315, "longitude": 32.20489, "city": "Mena", "images": []}, {"id": 476749, "min_date": "2021-05-05T10:36:00Z", "max_date": "2021-05-05T10:36:00Z", "count_points": 2, "latitude": 50.02321, "longitude": 33.90896, "city": "Velyki Sorochyntsi", "images": []}, {"id": 476750, "min_date": "2021-05-05T10:36:00Z", "max_date": "2021-05-05T10:36:00Z", "count_points": 1, "latitude": 49.54623, "longitude": 28.50197, "city": "Kalynivka", "images": []}, {"id": 476751, "min_date": "2021-05-05T10:36:00Z", "max_date": "2021-05-05T10:36:00Z", "count_points": 1, "latitude": 50.52931, "longitude": 27.99915, "city": "Dovbysh", "images": []}, {"id": 476752, "min_date": "2021-05-05T10:36:00Z", "max_date": "2021-05-05T10:36:00Z", "count_points": 2, "latitude": 48.27449, "longitude": 37.33845, "city": "Myrnohrad", "images": []}, {"id": 476753, "min_date": "2021-05-05T10:36:00Z", "max_date": "2021-05-05T10:36:00Z", "count_points": 1, "latitude": 48.99234, "longitude": 32.52696, "city": "Chyhyryn", "images": []}, {"id": 476754, "min_date": "2021-05-05T10:36:00Z", "max_date": "2021-05-05T10:36:00Z", "count_points": 1, "latitude": 50.0882, "longitude": 34.20123, "city": "Zin\u2019kiv", "images": []}, {"id": 476755, "min_date": "2021-05-05T10:36:00Z", "max_date": "2021-05-05T10:36:00Z", "count_points": 1, "latitude": 49.65198, "longitude": 33.09309, "city": "Semenivka", "images": []}, {"id": 476756, "min_date": "2021-05-05T10:36:00Z", "max_date": "2021-05-05T10:36:00Z", "count_points": 1, "latitude": 50.90891, "longitude": 32.86313, "city": "Sribne", "images": []}, {"id": 476757, "min_date": "2021-05-05T10:36:00Z", "max_date": "2021-05-05T10:36:00Z", "count_points": 1, "latitude": 48.78651, "longitude": 31.94832, "city": "Kapitanivka", "images": []}, {"id": 476758, "min_date": "2021-05-05T10:36:00Z", "max_date": "2021-05-05T10:36:00Z", "count_points": 1, "latitude": 48.27584, "longitude": 25.98094, "city": "Chernivtsi", "images": []}, {"id": 476759, "min_date": "2021-05-06T00:30:00Z", "max_date": "2021-05-09T11:00:00Z", "count_points": 2, "latitude": 49.00888, "longitude": 27.87712, "city": "Kopayhorod", "images": []}, {"id": 476760, "min_date": "2021-05-06T00:30:00Z", "max_date": "2021-05-06T00:30:00Z", "count_points": 1, "latitude": 52.24947, "longitude": 32.81101, "city": "Semenivka", "images": []}, {"id": 476761, "min_date": "2021-05-06T10:18:00Z", "max_date": "2021-05-06T12:00:00Z", "count_points": 2, "latitude": 50.54651, "longitude": 25.35337, "city": "Demydivka", "images": []}, {"id": 476762, "min_date": "2021-05-06T10:18:00Z", "max_date": "2021-05-06T10:18:00Z", "count_points": 1, "latitude": 50.48312, "longitude": 34.84482, "city": "Trostyanets\u2019", "images": []}, {"id": 476763, "min_date": "2021-05-06T10:18:00Z", "max_date": "2021-05-06T10:18:00Z", "count_points": 1, "latitude": 48.97346, "longitude": 35.99172, "city": "Sakhnovshchyna", "images": []}, {"id": 476764, "min_date": "2021-05-06T10:18:00Z", "max_date": "2021-05-06T10:18:00Z", "count_points": 1, "latitude": 49.01759, "longitude": 35.4856, "city": "Zachepylivka", "images": []}, {"id": 476765, "min_date": "2021-05-06T10:18:00Z", "max_date": "2021-05-06T10:18:00Z", "count_points": 2, "latitude": 48.91809, "longitude": 37.46556, "city": "Svyatogorsk", "images": []}, {"id": 476766, "min_date": "2021-05-06T10:18:00Z", "max_date": "2021-05-06T10:18:00Z", "count_points": 1, "latitude": 50.66224, "longitude": 28.41257, "city": "Khoroshiv", "images": []}, {"id": 476767, "min_date": "2021-05-06T10:18:00Z", "max_date": "2021-05-06T10:18:00Z", "count_points": 1, "latitude": 50.19237, "longitude": 35.08352, "city": "Krasnokuts\u2019k", "images": []}, {"id": 476768, "min_date": "2021-05-06T10:18:00Z", "max_date": "2021-05-06T10:18:00Z", "count_points": 1, "latitude": 50.06417, "longitude": 27.54334, "city": "Novoselytsya", "images": []}, {"id": 476769, "min_date": "2021-05-06T10:18:00Z", "max_date": "2021-05-06T10:18:00Z", "count_points": 1, "latitude": 49.99262, "longitude": 34.52623, "city": "Oposhnya", "images": []}, {"id": 476770, "min_date": "2021-05-06T12:00:00Z", "max_date": "2021-05-06T12:00:00Z", "count_points": 1, "latitude": 48.43804, "longitude": 26.38758, "city": "Khotyn", "images": []}, {"id": 476771, "min_date": "2021-05-06T12:00:00Z", "max_date": "2021-05-06T12:00:00Z", "count_points": 1, "latitude": 49.59486, "longitude": 27.08275, "city": "Krasyliv", "images": []}, {"id": 476772, "min_date": "2021-05-07T00:12:00Z", "max_date": "2021-05-07T00:12:00Z", "count_points": 1, "latitude": 50.47831, "longitude": 29.09229, "city": "Radomyshl", "images": []}, {"id": 476773, "min_date": "2021-05-07T00:12:00Z", "max_date": "2021-05-07T00:12:00Z", "count_points": 2, "latitude": 50.50795, "longitude": 29.50116, "city": "Kodra", "images": []}, {"id": 476774, "min_date": "2021-05-07T10:00:00Z", "max_date": "2021-05-07T10:00:00Z", "count_points": 3, "latitude": 48.95131, "longitude": 32.62066, "city": "Chyhyryn", "images": []}, {"id": 476775, "min_date": "2021-05-07T10:00:00Z", "max_date": "2021-05-07T10:00:00Z", "count_points": 1, "latitude": 48.73011, "longitude": 36.97606, "city": "Oleksandrivka", "images": []}, {"id": 476776, "min_date": "2021-05-07T10:00:00Z", "max_date": "2021-05-07T10:00:00Z", "count_points": 2, "latitude": 49.54372, "longitude": 35.62656, "city": "Berezivka", "images": []}, {"id": 476777, "min_date": "2021-05-07T10:00:00Z", "max_date": "2021-05-07T10:00:00Z", "count_points": 1, "latitude": 49.57917, "longitude": 35.23081, "city": "Varvarivka", "images": []}, {"id": 476778, "min_date": "2021-05-07T10:00:00Z", "max_date": "2021-05-07T10:00:00Z", "count_points": 1, "latitude": 48.19178, "longitude": 36.00849, "city": "Vasyl\u2019kivka", "images": []}, {"id": 476779, "min_date": "2021-05-07T10:00:00Z", "max_date": "2021-05-07T10:00:00Z", "count_points": 1, "latitude": 47.83279, "longitude": 38.03204, "city": "Novyy Svit", "images": []}, {"id": 476780, "min_date": "2021-05-07T11:36:00Z", "max_date": "2021-05-07T11:36:00Z", "count_points": 1, "latitude": 45.50859, "longitude": 32.71041, "city": "Chernomorskoye", "images": []}, {"id": 476781, "min_date": "2021-05-07T11:42:00Z", "max_date": "2021-05-07T11:42:00Z", "count_points": 1, "latitude": 50.09714, "longitude": 33.41029, "city": "Romodan", "images": []}, {"id": 476782, "min_date": "2021-05-08T11:18:00Z", "max_date": "2021-05-08T11:18:00Z", "count_points": 1, "latitude": 47.93881, "longitude": 37.54311, "city": "Mareyka", "images": []}, {"id": 476783, "min_date": "2021-05-08T23:36:00Z", "max_date": "2021-05-09T01:12:00Z", "count_points": 4, "latitude": 48.61149, "longitude": 25.54704, "city": "Horodenka", "images": []}, {"id": 476784, "min_date": "2021-05-09T11:00:00Z", "max_date": "2021-05-09T11:00:00Z", "count_points": 1, "latitude": 49.84801, "longitude": 24.10947, "city": "Dublyany", "images": []}, {"id": 476785, "min_date": "2021-05-09T11:00:00Z", "max_date": "2021-05-09T11:00:00Z", "count_points": 1, "latitude": 49.15632, "longitude": 23.9617, "city": "Morshyn", "images": []}, {"id": 476786, "min_date": "2021-05-09T11:00:00Z", "max_date": "2021-05-09T11:00:00Z", "count_points": 1, "latitude": 48.54065, "longitude": 25.37319, "city": "Zabolotiv", "images": []}, {"id": 476787, "min_date": "2021-05-09T11:00:00Z", "max_date": "2021-05-09T11:00:00Z", "count_points": 1, "latitude": 49.29347, "longitude": 26.31346, "city": "Zakupne", "images": []}, {"id": 476788, "min_date": "2021-05-09T23:18:00Z", "max_date": "2021-05-09T23:18:00Z", "count_points": 1, "latitude": 48.51937, "longitude": 35.97362, "city": "Pavlohrad", "images": []}]