[{"id": 478774, "min_date": "2021-08-01T19:42:00Z", "max_date": "2021-08-01T19:42:00Z", "count_points": 2, "latitude": 47.9085, "longitude": 32.31696, "city": "Bobrynets", "images": []}, {"id": 478775, "min_date": "2021-08-01T19:42:00Z", "max_date": "2021-08-01T19:42:00Z", "count_points": 2, "latitude": 48.48053, "longitude": 28.90077, "city": "Kryzhopil\u2019", "images": []}, {"id": 478776, "min_date": "2021-08-01T19:42:00Z", "max_date": "2021-08-01T22:54:00Z", "count_points": 3, "latitude": 47.9914, "longitude": 33.21555, "city": "Lozuvatka", "images": []}, {"id": 478777, "min_date": "2021-08-01T19:42:00Z", "max_date": "2021-08-01T19:42:00Z", "count_points": 1, "latitude": 47.12883, "longitude": 35.59403, "city": "Tokmak", "images": []}, {"id": 478778, "min_date": "2021-08-01T19:42:00Z", "max_date": "2021-08-01T19:42:00Z", "count_points": 1, "latitude": 48.41649, "longitude": 33.30389, "city": "Petrove", "images": []}, {"id": 478779, "min_date": "2021-08-01T19:42:00Z", "max_date": "2021-07-26T23:54:00Z", "count_points": 5, "latitude": 47.91674, "longitude": 32.16132, "city": "Bobrynets", "images": []}, {"id": 478780, "min_date": "2021-08-01T19:42:00Z", "max_date": "2021-08-01T23:42:00Z", "count_points": 7, "latitude": 48.33425, "longitude": 33.5774, "city": "Zhovti Vody", "images": []}, {"id": 478781, "min_date": "2021-08-01T19:42:00Z", "max_date": "2021-08-01T19:42:00Z", "count_points": 1, "latitude": 47.16632, "longitude": 33.67839, "city": "Dudchany", "images": []}, {"id": 478782, "min_date": "2021-08-01T19:42:00Z", "max_date": "2021-08-01T19:42:00Z", "count_points": 1, "latitude": 47.89895, "longitude": 29.84092, "city": "Ananyiv Pershyi", "images": []}, {"id": 478783, "min_date": "2021-08-01T19:42:00Z", "max_date": "2021-08-01T23:42:00Z", "count_points": 2, "latitude": 48.59731, "longitude": 29.90201, "city": "Teplyk", "images": []}, {"id": 478784, "min_date": "2021-08-01T19:42:00Z", "max_date": "2021-08-01T23:42:00Z", "count_points": 11, "latitude": 48.62032, "longitude": 32.81358, "city": "Pantayivka", "images": []}, {"id": 478785, "min_date": "2021-08-01T19:42:00Z", "max_date": "2021-07-26T10:00:00Z", "count_points": 3, "latitude": 47.76372, "longitude": 32.79941, "city": "Kazanka", "images": []}, {"id": 478786, "min_date": "2021-08-01T19:42:00Z", "max_date": "2021-08-01T19:42:00Z", "count_points": 1, "latitude": 46.87833, "longitude": 33.05139, "city": "Kozachi Laheri", "images": []}, {"id": 478787, "min_date": "2021-08-01T19:42:00Z", "max_date": "2021-08-01T23:42:00Z", "count_points": 4, "latitude": 46.91432, "longitude": 33.16594, "city": "Dnipryany", "images": []}, {"id": 478788, "min_date": "2021-08-01T23:54:00Z", "max_date": "2021-08-01T23:42:00Z", "count_points": 8, "latitude": 49.91647, "longitude": 37.57507, "city": "Dvorichna", "images": []}, {"id": 478789, "min_date": "2021-08-01T23:54:00Z", "max_date": "2021-08-01T23:42:00Z", "count_points": 24, "latitude": 47.85394, "longitude": 32.32332, "city": "Ustynivka", "images": []}, {"id": 478790, "min_date": "2021-07-26T01:00:00Z", "max_date": "2021-07-26T01:00:00Z", "count_points": 1, "latitude": 49.87439, "longitude": 33.83201, "city": "Velyka Bahachka", "images": []}, {"id": 478791, "min_date": "2021-07-26T01:00:00Z", "max_date": "2021-07-26T23:54:00Z", "count_points": 6, "latitude": 50.2077, "longitude": 37.13794, "city": "Prykolotne", "images": []}, {"id": 478792, "min_date": "2021-07-26T01:00:00Z", "max_date": "2021-07-26T00:12:00Z", "count_points": 3, "latitude": 49.71504, "longitude": 34.87687, "city": "Mashivka", "images": []}, {"id": 478793, "min_date": "2021-07-26T01:00:00Z", "max_date": "2021-07-26T23:54:00Z", "count_points": 4, "latitude": 47.89103, "longitude": 32.21596, "city": "Bobrynets", "images": []}, {"id": 478794, "min_date": "2021-07-26T01:00:00Z", "max_date": "2021-08-01T09:48:00Z", "count_points": 8, "latitude": 50.23201, "longitude": 35.06038, "city": "Kyrykivka", "images": []}, {"id": 478795, "min_date": "2021-07-26T01:00:00Z", "max_date": "2021-07-26T00:12:00Z", "count_points": 2, "latitude": 47.8761, "longitude": 34.20393, "city": "Sholokhove", "images": []}, {"id": 478796, "min_date": "2021-07-26T01:00:00Z", "max_date": "2021-07-26T00:12:00Z", "count_points": 4, "latitude": 48.39464, "longitude": 33.7724, "city": "Piatykhatky", "images": []}, {"id": 478797, "min_date": "2021-07-26T01:06:00Z", "max_date": "2021-07-26T10:00:00Z", "count_points": 6, "latitude": 47.68029, "longitude": 31.39651, "city": "Voznesensk", "images": []}, {"id": 478798, "min_date": "2021-07-26T01:06:00Z", "max_date": "2021-07-26T01:06:00Z", "count_points": 1, "latitude": 48.5757, "longitude": 22.25901, "city": "Mynay", "images": []}, {"id": 478799, "min_date": "2021-07-26T01:06:00Z", "max_date": "2021-07-26T00:12:00Z", "count_points": 4, "latitude": 49.06937, "longitude": 24.29312, "city": "Kalush", "images": []}, {"id": 478800, "min_date": "2021-07-26T01:06:00Z", "max_date": "2021-07-26T00:12:00Z", "count_points": 2, "latitude": 48.57367, "longitude": 22.64163, "city": "Rakoshyno", "images": []}, {"id": 478801, "min_date": "2021-07-26T09:12:00Z", "max_date": "2021-07-26T10:00:00Z", "count_points": 3, "latitude": 49.56588, "longitude": 34.6177, "city": "Poltava", "images": []}, {"id": 478802, "min_date": "2021-07-26T09:12:00Z", "max_date": "2021-07-26T10:00:00Z", "count_points": 9, "latitude": 49.0293, "longitude": 34.30203, "city": "Kobelyaky", "images": []}, {"id": 478803, "min_date": "2021-07-26T09:12:00Z", "max_date": "2021-07-26T10:00:00Z", "count_points": 7, "latitude": 48.52178, "longitude": 30.84228, "city": "Tyshkivka", "images": []}, {"id": 478804, "min_date": "2021-07-26T09:12:00Z", "max_date": "2021-07-26T09:12:00Z", "count_points": 1, "latitude": 47.31932, "longitude": 36.16557, "city": "Chernihivka", "images": []}, {"id": 478805, "min_date": "2021-07-26T09:12:00Z", "max_date": "2021-07-26T10:00:00Z", "count_points": 2, "latitude": 48.50394, "longitude": 38.59977, "city": "Bryanka", "images": []}, {"id": 478806, "min_date": "2021-07-26T09:12:00Z", "max_date": "2021-07-26T10:00:00Z", "count_points": 6, "latitude": 46.86124, "longitude": 34.74589, "city": "Vesele", "images": []}, {"id": 478807, "min_date": "2021-07-26T09:12:00Z", "max_date": "2021-07-26T09:12:00Z", "count_points": 3, "latitude": 50.37605, "longitude": 35.26475, "city": "Kyrykivka", "images": []}, {"id": 478808, "min_date": "2021-07-26T09:12:00Z", "max_date": "2021-07-26T10:00:00Z", "count_points": 3, "latitude": 47.7079, "longitude": 36.05306, "city": "Zaliznychne", "images": []}, {"id": 478809, "min_date": "2021-07-26T09:12:00Z", "max_date": "2021-07-26T09:12:00Z", "count_points": 3, "latitude": 48.09401, "longitude": 36.9574, "city": "Mezhova", "images": []}, {"id": 478810, "min_date": "2021-07-26T09:12:00Z", "max_date": "2021-08-01T00:00:00Z", "count_points": 5, "latitude": 47.32133, "longitude": 35.54847, "city": "Tokmak", "images": []}, {"id": 478811, "min_date": "2021-07-26T10:48:00Z", "max_date": "2021-07-26T10:48:00Z", "count_points": 1, "latitude": 48.44896, "longitude": 33.43449, "city": "Zhovti Vody", "images": []}, {"id": 478812, "min_date": "2021-07-26T10:48:00Z", "max_date": "2021-07-26T10:00:00Z", "count_points": 2, "latitude": 48.49108, "longitude": 33.68484, "city": "Piatykhatky", "images": []}, {"id": 478813, "min_date": "2021-07-26T10:48:00Z", "max_date": "2021-07-26T10:00:00Z", "count_points": 3, "latitude": 49.78812, "longitude": 37.11882, "city": "Shevchenkove", "images": []}, {"id": 478814, "min_date": "2021-07-26T10:48:00Z", "max_date": "2021-07-26T10:48:00Z", "count_points": 1, "latitude": 48.35166, "longitude": 38.78128, "city": "Artemivs\u2019k", "images": []}, {"id": 478815, "min_date": "2021-07-26T10:48:00Z", "max_date": "2021-07-26T10:48:00Z", "count_points": 2, "latitude": 48.90975, "longitude": 35.16171, "city": "Hubynykha", "images": []}, {"id": 478816, "min_date": "2021-07-26T10:48:00Z", "max_date": "2021-07-26T10:48:00Z", "count_points": 1, "latitude": 49.39921, "longitude": 35.71972, "city": "Berezivka", "images": []}, {"id": 478817, "min_date": "2021-07-26T10:48:00Z", "max_date": "2021-07-26T10:00:00Z", "count_points": 3, "latitude": 49.95044, "longitude": 31.66457, "city": "Tsybli", "images": []}, {"id": 478818, "min_date": "2021-07-26T10:48:00Z", "max_date": "2021-07-26T10:48:00Z", "count_points": 1, "latitude": 48.1936, "longitude": 30.87889, "city": "Vil\u2019shanka", "images": []}, {"id": 478819, "min_date": "2021-07-26T10:48:00Z", "max_date": "2021-07-26T10:48:00Z", "count_points": 1, "latitude": 49.42779, "longitude": 33.80427, "city": "Kozel\u2019shchyna", "images": []}, {"id": 478820, "min_date": "2021-07-26T10:48:00Z", "max_date": "2021-07-26T11:42:00Z", "count_points": 3, "latitude": 47.19803, "longitude": 32.88931, "city": "Bereznehuvate", "images": []}, {"id": 478821, "min_date": "2021-07-26T10:48:00Z", "max_date": "2021-07-26T10:48:00Z", "count_points": 1, "latitude": 47.44358, "longitude": 32.78672, "city": "Bereznehuvate", "images": []}, {"id": 478822, "min_date": "2021-07-26T10:48:00Z", "max_date": "2021-07-29T10:42:00Z", "count_points": 14, "latitude": 47.7221, "longitude": 33.38142, "city": "Shyroke", "images": []}, {"id": 478823, "min_date": "2021-07-26T10:48:00Z", "max_date": "2021-07-26T10:00:00Z", "count_points": 2, "latitude": 47.70434, "longitude": 36.27866, "city": "Hulyaypole", "images": []}, {"id": 478824, "min_date": "2021-07-26T10:48:00Z", "max_date": "2021-07-26T10:48:00Z", "count_points": 1, "latitude": 47.98412, "longitude": 34.05931, "city": "Sofiyivka", "images": []}, {"id": 478825, "min_date": "2021-07-26T10:48:00Z", "max_date": "2021-07-27T11:24:00Z", "count_points": 6, "latitude": 48.46736, "longitude": 30.75731, "city": "Tyshkivka", "images": []}, {"id": 478826, "min_date": "2021-07-26T10:48:00Z", "max_date": "2021-07-31T11:48:00Z", "count_points": 17, "latitude": 46.117, "longitude": 29.7443, "city": "Plakhtiyivka", "images": []}, {"id": 478827, "min_date": "2021-07-26T10:48:00Z", "max_date": "2021-07-26T10:48:00Z", "count_points": 1, "latitude": 47.4595, "longitude": 34.72759, "city": "Energodar", "images": []}, {"id": 478828, "min_date": "2021-07-26T10:48:00Z", "max_date": "2021-07-26T10:00:00Z", "count_points": 3, "latitude": 47.68873, "longitude": 33.42398, "city": "Shyroke", "images": []}, {"id": 478829, "min_date": "2021-07-26T10:48:00Z", "max_date": "2021-07-26T10:48:00Z", "count_points": 1, "latitude": 47.68025, "longitude": 33.53827, "city": "Apostolove", "images": []}, {"id": 478830, "min_date": "2021-07-26T10:48:00Z", "max_date": "2021-07-26T10:48:00Z", "count_points": 1, "latitude": 50.57207, "longitude": 25.38193, "city": "Demydivka", "images": []}, {"id": 478831, "min_date": "2021-07-26T10:48:00Z", "max_date": "2021-07-26T10:48:00Z", "count_points": 1, "latitude": 50.24371, "longitude": 24.9139, "city": "Lopatyn", "images": []}, {"id": 478832, "min_date": "2021-07-26T10:48:00Z", "max_date": "2021-07-26T10:00:00Z", "count_points": 2, "latitude": 48.50088, "longitude": 37.2923, "city": "Bilyts\u2019ke", "images": []}, {"id": 478833, "min_date": "2021-07-26T10:48:00Z", "max_date": "2021-07-26T11:42:00Z", "count_points": 5, "latitude": 46.56381, "longitude": 33.43432, "city": "Chornyanka", "images": []}, {"id": 478834, "min_date": "2021-07-26T10:48:00Z", "max_date": "2021-07-26T10:48:00Z", "count_points": 1, "latitude": 46.29975, "longitude": 33.78645, "city": "Askaniya-Nova", "images": []}, {"id": 478835, "min_date": "2021-07-26T10:48:00Z", "max_date": "2021-07-30T10:24:00Z", "count_points": 10, "latitude": 47.86922, "longitude": 32.85295, "city": "Kazanka", "images": []}, {"id": 478836, "min_date": "2021-07-26T10:48:00Z", "max_date": "2021-07-26T10:00:00Z", "count_points": 2, "latitude": 47.67774, "longitude": 32.95526, "city": "Kazanka", "images": []}, {"id": 478837, "min_date": "2021-07-26T10:48:00Z", "max_date": "2021-07-26T10:48:00Z", "count_points": 1, "latitude": 45.54722, "longitude": 28.65306, "city": "Bolhrad", "images": []}, {"id": 478838, "min_date": "2021-07-26T10:48:00Z", "max_date": "2021-07-26T11:42:00Z", "count_points": 2, "latitude": 48.90059, "longitude": 31.64081, "city": "Kapitanivka", "images": []}, {"id": 478839, "min_date": "2021-07-26T10:48:00Z", "max_date": "2021-07-26T10:48:00Z", "count_points": 1, "latitude": 47.74256, "longitude": 32.1471, "city": "Yelanets\u2019", "images": []}, {"id": 478840, "min_date": "2021-07-26T10:48:00Z", "max_date": "2021-07-28T00:28:00Z", "count_points": 4, "latitude": 46.04697, "longitude": 29.33474, "city": "Artsyz", "images": []}, {"id": 478841, "min_date": "2021-07-26T10:48:00Z", "max_date": "2021-07-26T10:48:00Z", "count_points": 1, "latitude": 48.80713, "longitude": 31.05207, "city": "Katerynopil", "images": []}, {"id": 478842, "min_date": "2021-07-26T10:48:00Z", "max_date": "2021-07-26T10:48:00Z", "count_points": 1, "latitude": 48.71611, "longitude": 31.13411, "city": "Lypnyazhka", "images": []}, {"id": 478843, "min_date": "2021-07-26T10:48:00Z", "max_date": "2021-07-26T10:48:00Z", "count_points": 1, "latitude": 47.3879, "longitude": 32.68438, "city": "Bereznehuvate", "images": []}, {"id": 478844, "min_date": "2021-07-26T10:48:00Z", "max_date": "2021-07-27T09:42:00Z", "count_points": 6, "latitude": 45.55599, "longitude": 29.54947, "city": "Vylkove", "images": []}, {"id": 478845, "min_date": "2021-07-26T10:48:00Z", "max_date": "2021-07-27T09:42:00Z", "count_points": 4, "latitude": 45.92629, "longitude": 29.00921, "city": "Dmytrivka", "images": []}, {"id": 478846, "min_date": "2021-07-26T10:48:00Z", "max_date": "2021-07-26T10:48:00Z", "count_points": 1, "latitude": 48.19541, "longitude": 37.48544, "city": "Selydove", "images": []}, {"id": 478847, "min_date": "2021-07-26T10:48:00Z", "max_date": "2021-07-26T10:48:00Z", "count_points": 1, "latitude": 48.6998, "longitude": 29.69625, "city": "Teplyk", "images": []}, {"id": 478848, "min_date": "2021-07-26T10:48:00Z", "max_date": "2021-07-26T10:00:00Z", "count_points": 2, "latitude": 50.92952, "longitude": 35.05303, "city": "Verkhnya Syrovatka", "images": []}, {"id": 478849, "min_date": "2021-07-26T10:48:00Z", "max_date": "2021-07-26T10:48:00Z", "count_points": 1, "latitude": 47.32592, "longitude": 36.11117, "city": "Chernihivka", "images": []}, {"id": 478850, "min_date": "2021-07-26T10:48:00Z", "max_date": "2021-07-27T09:42:00Z", "count_points": 6, "latitude": 47.04314, "longitude": 36.14268, "city": "Chernihivka", "images": []}, {"id": 478851, "min_date": "2021-07-26T23:06:00Z", "max_date": "2021-07-26T23:54:00Z", "count_points": 2, "latitude": 50.31517, "longitude": 35.5508, "city": "Velyka Pysarivka", "images": []}, {"id": 478852, "min_date": "2021-07-26T23:06:00Z", "max_date": "2021-07-26T23:54:00Z", "count_points": 2, "latitude": 46.90562, "longitude": 32.36593, "city": "Shevchenkove", "images": []}, {"id": 478853, "min_date": "2021-07-26T23:06:00Z", "max_date": "2021-07-26T23:54:00Z", "count_points": 3, "latitude": 47.00447, "longitude": 35.89773, "city": "Rozivka", "images": []}, {"id": 478854, "min_date": "2021-07-26T23:06:00Z", "max_date": "2021-07-27T11:24:00Z", "count_points": 7, "latitude": 48.63569, "longitude": 33.64966, "city": "Piatykhatky", "images": []}, {"id": 478855, "min_date": "2021-07-26T23:06:00Z", "max_date": "2021-07-26T23:06:00Z", "count_points": 2, "latitude": 48.10394, "longitude": 31.28579, "city": "Pomichna", "images": []}, {"id": 478856, "min_date": "2021-07-26T23:06:00Z", "max_date": "2021-08-01T11:30:00Z", "count_points": 19, "latitude": 47.13423, "longitude": 35.80065, "city": "Tokmak", "images": []}, {"id": 478857, "min_date": "2021-07-26T23:06:00Z", "max_date": "2021-07-26T23:54:00Z", "count_points": 4, "latitude": 47.82198, "longitude": 36.04744, "city": "Ternuvate", "images": []}, {"id": 478858, "min_date": "2021-07-26T23:06:00Z", "max_date": "2021-07-27T11:18:00Z", "count_points": 6, "latitude": 47.79001, "longitude": 35.80993, "city": "Kirove", "images": []}, {"id": 478859, "min_date": "2021-07-26T23:06:00Z", "max_date": "2021-07-29T10:42:00Z", "count_points": 4, "latitude": 46.76665, "longitude": 34.61326, "city": "Ivanivka", "images": []}, {"id": 478860, "min_date": "2021-07-26T23:06:00Z", "max_date": "2021-07-26T23:54:00Z", "count_points": 6, "latitude": 46.73259, "longitude": 34.45347, "city": "Ivanivka", "images": []}, {"id": 478861, "min_date": "2021-07-26T23:06:00Z", "max_date": "2021-07-28T23:18:00Z", "count_points": 7, "latitude": 50.22918, "longitude": 33.40239, "city": "Sencha", "images": []}, {"id": 478862, "min_date": "2021-07-26T23:06:00Z", "max_date": "2021-07-27T11:18:00Z", "count_points": 25, "latitude": 47.85735, "longitude": 32.26013, "city": "Bobrynets", "images": []}, {"id": 478863, "min_date": "2021-07-26T23:06:00Z", "max_date": "2021-07-26T23:54:00Z", "count_points": 5, "latitude": 48.00046, "longitude": 31.95818, "city": "Bobrynets", "images": []}, {"id": 478864, "min_date": "2021-07-26T23:06:00Z", "max_date": "2021-08-01T23:42:00Z", "count_points": 10, "latitude": 48.45623, "longitude": 36.59156, "city": "Petropavlivka", "images": []}, {"id": 478865, "min_date": "2021-07-26T23:06:00Z", "max_date": "2021-07-26T23:06:00Z", "count_points": 2, "latitude": 47.58532, "longitude": 34.10909, "city": "Chortomlyk", "images": []}, {"id": 478866, "min_date": "2021-07-26T23:06:00Z", "max_date": "2021-07-26T23:54:00Z", "count_points": 9, "latitude": 47.9505, "longitude": 37.02204, "city": "Velyka Novosilka", "images": []}, {"id": 478867, "min_date": "2021-07-26T23:06:00Z", "max_date": "2021-07-27T01:36:00Z", "count_points": 9, "latitude": 48.82763, "longitude": 27.62614, "city": "Murovani Kurylivtsi", "images": []}, {"id": 478868, "min_date": "2021-07-26T23:06:00Z", "max_date": "2021-07-26T23:54:00Z", "count_points": 6, "latitude": 46.88879, "longitude": 34.71079, "city": "Ivanivka", "images": []}, {"id": 478869, "min_date": "2021-07-26T23:06:00Z", "max_date": "2021-07-26T23:54:00Z", "count_points": 6, "latitude": 47.92578, "longitude": 29.39548, "city": "Slobidka", "images": []}, {"id": 478870, "min_date": "2021-07-26T23:06:00Z", "max_date": "2021-07-28T11:00:00Z", "count_points": 32, "latitude": 47.62646, "longitude": 36.42448, "city": "Hulyaypole", "images": []}, {"id": 478871, "min_date": "2021-07-26T23:06:00Z", "max_date": "2021-07-26T23:54:00Z", "count_points": 4, "latitude": 47.50882, "longitude": 36.25927, "city": "Polohy", "images": []}, {"id": 478872, "min_date": "2021-07-26T23:06:00Z", "max_date": "2021-07-27T23:36:00Z", "count_points": 9, "latitude": 47.34, "longitude": 33.61241, "city": "Vysokopillya", "images": []}, {"id": 478873, "min_date": "2021-07-26T23:06:00Z", "max_date": "2021-07-26T23:54:00Z", "count_points": 4, "latitude": 47.32702, "longitude": 33.48076, "city": "Vysokopillya", "images": []}, {"id": 478874, "min_date": "2021-07-26T23:06:00Z", "max_date": "2021-08-01T23:42:00Z", "count_points": 11, "latitude": 47.22082, "longitude": 33.76516, "city": "Dudchany", "images": []}, {"id": 478875, "min_date": "2021-07-26T23:06:00Z", "max_date": "2021-07-26T23:06:00Z", "count_points": 1, "latitude": 47.36388, "longitude": 35.14835, "city": "Mykhaylivka", "images": []}, {"id": 478876, "min_date": "2021-07-26T23:06:00Z", "max_date": "2021-07-26T23:54:00Z", "count_points": 2, "latitude": 50.86299, "longitude": 34.2608, "city": "Bilopillya", "images": []}, {"id": 478877, "min_date": "2021-07-26T23:06:00Z", "max_date": "2021-07-26T23:06:00Z", "count_points": 2, "latitude": 47.33691, "longitude": 32.10935, "city": "Nova Odesa", "images": []}, {"id": 478878, "min_date": "2021-07-26T23:06:00Z", "max_date": "2021-07-26T23:06:00Z", "count_points": 3, "latitude": 50.55733, "longitude": 30.27624, "city": "Hostomel", "images": []}, {"id": 478879, "min_date": "2021-07-26T23:06:00Z", "max_date": "2021-07-27T09:42:00Z", "count_points": 2, "latitude": 48.10868, "longitude": 36.76831, "city": "Mezhova", "images": []}, {"id": 478880, "min_date": "2021-07-26T23:06:00Z", "max_date": "2021-07-26T23:54:00Z", "count_points": 8, "latitude": 48.47938, "longitude": 38.16532, "city": "Svetlodarsk", "images": []}, {"id": 478881, "min_date": "2021-07-26T23:06:00Z", "max_date": "2021-07-26T23:54:00Z", "count_points": 18, "latitude": 48.718, "longitude": 36.46044, "city": "Blyznyuky", "images": []}, {"id": 478882, "min_date": "2021-07-26T23:06:00Z", "max_date": "2021-07-26T23:54:00Z", "count_points": 4, "latitude": 46.21611, "longitude": 29.13338, "city": "Tarutyne", "images": []}, {"id": 478883, "min_date": "2021-07-26T23:06:00Z", "max_date": "2021-07-26T23:06:00Z", "count_points": 2, "latitude": 48.53426, "longitude": 25.38978, "city": "Zabolotiv", "images": []}, {"id": 478884, "min_date": "2021-07-26T23:06:00Z", "max_date": "2021-08-01T00:00:00Z", "count_points": 4, "latitude": 48.29223, "longitude": 33.74977, "city": "Piatykhatky", "images": []}, {"id": 478885, "min_date": "2021-07-27T00:42:00Z", "max_date": "2021-08-01T23:42:00Z", "count_points": 8, "latitude": 50.01307, "longitude": 34.07425, "city": "Velyki Sorochyntsi", "images": []}, {"id": 478886, "min_date": "2021-07-27T00:42:00Z", "max_date": "2021-07-31T00:18:00Z", "count_points": 4, "latitude": 49.64194, "longitude": 34.35078, "city": "Poltava", "images": []}, {"id": 478887, "min_date": "2021-07-27T00:42:00Z", "max_date": "2021-07-26T23:54:00Z", "count_points": 4, "latitude": 47.04978, "longitude": 32.587, "city": "Snihurivka", "images": []}, {"id": 478888, "min_date": "2021-07-27T00:42:00Z", "max_date": "2021-07-27T00:42:00Z", "count_points": 1, "latitude": 49.12821, "longitude": 39.37911, "city": "Bilovodsk", "images": []}, {"id": 478889, "min_date": "2021-07-27T00:42:00Z", "max_date": "2021-07-27T00:42:00Z", "count_points": 1, "latitude": 47.5942, "longitude": 32.50218, "city": "Novyy Buh", "images": []}, {"id": 478890, "min_date": "2021-07-27T00:42:00Z", "max_date": "2021-07-26T23:54:00Z", "count_points": 2, "latitude": 47.83657, "longitude": 32.53052, "city": "Ustynivka", "images": []}, {"id": 478891, "min_date": "2021-07-27T00:42:00Z", "max_date": "2021-07-31T00:18:00Z", "count_points": 20, "latitude": 50.86585, "longitude": 34.88843, "city": "Verkhnya Syrovatka", "images": []}, {"id": 478892, "min_date": "2021-07-27T08:48:00Z", "max_date": "2021-07-27T11:24:00Z", "count_points": 3, "latitude": 48.90885, "longitude": 39.30766, "city": "Shchastya", "images": []}, {"id": 478893, "min_date": "2021-07-27T08:54:00Z", "max_date": "2021-07-27T08:54:00Z", "count_points": 2, "latitude": 49.293, "longitude": 35.08915, "city": "Karlivka", "images": []}, {"id": 478894, "min_date": "2021-07-27T08:54:00Z", "max_date": "2021-07-27T09:42:00Z", "count_points": 5, "latitude": 50.19454, "longitude": 35.06297, "city": "Krasnokuts\u2019k", "images": []}, {"id": 478895, "min_date": "2021-07-27T10:30:00Z", "max_date": "2021-07-27T10:30:00Z", "count_points": 1, "latitude": 47.73672, "longitude": 35.77253, "city": "Kirove", "images": []}, {"id": 478896, "min_date": "2021-07-27T10:30:00Z", "max_date": "2021-07-27T10:30:00Z", "count_points": 1, "latitude": 51.38804, "longitude": 30.72267, "city": "Slavutych", "images": []}, {"id": 478897, "min_date": "2021-07-27T10:30:00Z", "max_date": "2021-07-27T10:30:00Z", "count_points": 2, "latitude": 45.93695, "longitude": 28.97359, "city": "Dmytrivka", "images": []}, {"id": 478898, "min_date": "2021-07-27T10:30:00Z", "max_date": "2021-07-27T10:30:00Z", "count_points": 3, "latitude": 49.18367, "longitude": 34.4748, "city": "Novi Sanzhary", "images": []}, {"id": 478899, "min_date": "2021-07-27T10:30:00Z", "max_date": "2021-07-27T10:30:00Z", "count_points": 1, "latitude": 49.14377, "longitude": 34.7113, "city": "Hupalivka", "images": []}, {"id": 478900, "min_date": "2021-07-27T10:30:00Z", "max_date": "2021-07-29T23:00:00Z", "count_points": 7, "latitude": 48.32062, "longitude": 33.71216, "city": "Piatykhatky", "images": []}, {"id": 478901, "min_date": "2021-07-27T10:30:00Z", "max_date": "2021-07-27T10:30:00Z", "count_points": 2, "latitude": 48.73381, "longitude": 33.83477, "city": "Lykhivka", "images": []}, {"id": 478902, "min_date": "2021-07-27T10:30:00Z", "max_date": "2021-07-27T11:18:00Z", "count_points": 3, "latitude": 47.97112, "longitude": 33.0981, "city": "Lozuvatka", "images": []}, {"id": 478903, "min_date": "2021-07-27T10:30:00Z", "max_date": "2021-07-27T10:30:00Z", "count_points": 1, "latitude": 47.64889, "longitude": 33.93346, "city": "Sholokhove", "images": []}, {"id": 478904, "min_date": "2021-07-27T10:30:00Z", "max_date": "2021-07-27T11:18:00Z", "count_points": 6, "latitude": 47.64505, "longitude": 33.42003, "city": "Shyroke", "images": []}, {"id": 478905, "min_date": "2021-07-27T10:30:00Z", "max_date": "2021-07-27T10:30:00Z", "count_points": 2, "latitude": 46.13233, "longitude": 29.15735, "city": "Tarutyne", "images": []}, {"id": 478906, "min_date": "2021-07-27T10:30:00Z", "max_date": "2021-07-27T10:30:00Z", "count_points": 1, "latitude": 48.4917, "longitude": 26.55321, "city": "Khotyn", "images": []}, {"id": 478907, "min_date": "2021-07-27T10:30:00Z", "max_date": "2021-07-27T10:30:00Z", "count_points": 2, "latitude": 46.15895, "longitude": 29.20177, "city": "Tarutyne", "images": []}, {"id": 478908, "min_date": "2021-07-27T10:30:00Z", "max_date": "2021-07-27T11:18:00Z", "count_points": 4, "latitude": 47.83455, "longitude": 35.06007, "city": "Zaporizhia", "images": []}, {"id": 478909, "min_date": "2021-07-27T10:30:00Z", "max_date": "2021-07-27T10:30:00Z", "count_points": 1, "latitude": 47.61248, "longitude": 34.08113, "city": "Ordzhonikidze", "images": []}, {"id": 478910, "min_date": "2021-07-27T10:30:00Z", "max_date": "2021-07-29T10:42:00Z", "count_points": 2, "latitude": 47.47081, "longitude": 31.59291, "city": "Nova Odesa", "images": []}, {"id": 478911, "min_date": "2021-07-27T10:30:00Z", "max_date": "2021-07-28T11:00:00Z", "count_points": 8, "latitude": 48.19841, "longitude": 30.32252, "city": "Blahovishchens\u2019ke", "images": []}, {"id": 478912, "min_date": "2021-07-27T10:30:00Z", "max_date": "2021-07-29T10:42:00Z", "count_points": 14, "latitude": 45.74691, "longitude": 29.3177, "city": "Shevchenkove", "images": []}, {"id": 478913, "min_date": "2021-07-27T10:30:00Z", "max_date": "2021-07-27T10:30:00Z", "count_points": 1, "latitude": 48.4972, "longitude": 31.56214, "city": "Zlynka", "images": []}, {"id": 478914, "min_date": "2021-07-27T10:30:00Z", "max_date": "2021-07-27T09:42:00Z", "count_points": 8, "latitude": 48.68786, "longitude": 31.45814, "city": "Mala Vyska", "images": []}, {"id": 478915, "min_date": "2021-07-27T10:30:00Z", "max_date": "2021-07-27T23:36:00Z", "count_points": 3, "latitude": 49.38276, "longitude": 38.5031, "city": "Bilokurakyne", "images": []}, {"id": 478916, "min_date": "2021-07-27T10:30:00Z", "max_date": "2021-07-27T10:30:00Z", "count_points": 1, "latitude": 47.03436, "longitude": 36.43801, "city": "Prymors\u2019k", "images": []}, {"id": 478917, "min_date": "2021-07-27T10:30:00Z", "max_date": "2021-07-27T10:30:00Z", "count_points": 1, "latitude": 45.13717, "longitude": 33.51803, "city": "Vladimirovka", "images": []}, {"id": 478918, "min_date": "2021-07-27T10:30:00Z", "max_date": "2021-07-27T10:30:00Z", "count_points": 1, "latitude": 49.44637, "longitude": 34.80056, "city": "Mashivka", "images": []}, {"id": 478919, "min_date": "2021-07-27T10:30:00Z", "max_date": "2021-07-27T11:18:00Z", "count_points": 7, "latitude": 47.38366, "longitude": 31.4658, "city": "Veselynove", "images": []}, {"id": 478920, "min_date": "2021-07-27T10:30:00Z", "max_date": "2021-07-29T10:42:00Z", "count_points": 21, "latitude": 47.75876, "longitude": 33.41841, "city": "Kryvyi Rih", "images": []}, {"id": 478921, "min_date": "2021-07-27T10:30:00Z", "max_date": "2021-07-27T11:24:00Z", "count_points": 2, "latitude": 49.84805, "longitude": 33.62576, "city": "Velyka Bahachka", "images": []}, {"id": 478922, "min_date": "2021-07-27T10:30:00Z", "max_date": "2021-07-27T10:30:00Z", "count_points": 1, "latitude": 50.21727, "longitude": 33.87672, "city": "Hadyach", "images": []}, {"id": 478923, "min_date": "2021-07-27T10:30:00Z", "max_date": "2021-08-01T10:41:00Z", "count_points": 3, "latitude": 50.15892, "longitude": 33.6894, "city": "Komyshnya", "images": []}, {"id": 478924, "min_date": "2021-07-27T10:30:00Z", "max_date": "2021-07-27T10:30:00Z", "count_points": 1, "latitude": 49.92758, "longitude": 33.56379, "city": "Myrhorod", "images": []}, {"id": 478925, "min_date": "2021-07-27T10:30:00Z", "max_date": "2021-07-27T10:30:00Z", "count_points": 1, "latitude": 47.95263, "longitude": 34.60651, "city": "Novopokrovka", "images": []}, {"id": 478926, "min_date": "2021-07-27T10:30:00Z", "max_date": "2021-07-28T09:24:00Z", "count_points": 5, "latitude": 48.12864, "longitude": 34.60904, "city": "Novopokrovka", "images": []}, {"id": 478927, "min_date": "2021-07-27T10:30:00Z", "max_date": "2021-07-27T10:30:00Z", "count_points": 1, "latitude": 50.53479, "longitude": 33.31964, "city": "Lokhvytsya", "images": []}, {"id": 478928, "min_date": "2021-07-27T10:30:00Z", "max_date": "2021-07-27T10:30:00Z", "count_points": 1, "latitude": 50.5132, "longitude": 30.47989, "city": "Vyshhorod", "images": []}, {"id": 478929, "min_date": "2021-07-27T10:30:00Z", "max_date": "2021-07-27T10:30:00Z", "count_points": 2, "latitude": 48.71256, "longitude": 31.02645, "city": "Novoarkhanhel\u2019s\u2019k", "images": []}, {"id": 478930, "min_date": "2021-07-27T10:30:00Z", "max_date": "2021-07-27T10:30:00Z", "count_points": 1, "latitude": 48.76704, "longitude": 31.04996, "city": "Katerynopil", "images": []}, {"id": 478931, "min_date": "2021-07-27T10:30:00Z", "max_date": "2021-07-27T09:42:00Z", "count_points": 2, "latitude": 47.34503, "longitude": 32.97604, "city": "Bereznehuvate", "images": []}, {"id": 478932, "min_date": "2021-07-27T10:30:00Z", "max_date": "2021-07-27T09:42:00Z", "count_points": 3, "latitude": 47.31183, "longitude": 32.76907, "city": "Bereznehuvate", "images": []}, {"id": 478933, "min_date": "2021-07-27T10:30:00Z", "max_date": "2021-07-27T09:42:00Z", "count_points": 2, "latitude": 47.40765, "longitude": 32.9454, "city": "Bereznehuvate", "images": []}, {"id": 478934, "min_date": "2021-07-27T10:30:00Z", "max_date": "2021-07-27T10:30:00Z", "count_points": 1, "latitude": 48.60154, "longitude": 36.13906, "city": "Yur\u201dyivka", "images": []}, {"id": 478935, "min_date": "2021-07-27T10:30:00Z", "max_date": "2021-07-27T11:18:00Z", "count_points": 2, "latitude": 45.60071, "longitude": 29.17587, "city": "Shevchenkove", "images": []}, {"id": 478936, "min_date": "2021-07-27T10:30:00Z", "max_date": "2021-07-27T09:42:00Z", "count_points": 2, "latitude": 45.62475, "longitude": 29.1051, "city": "Kiliya", "images": []}, {"id": 478937, "min_date": "2021-07-27T10:30:00Z", "max_date": "2021-07-27T09:42:00Z", "count_points": 8, "latitude": 46.24885, "longitude": 30.05543, "city": "Starokozache", "images": []}, {"id": 478938, "min_date": "2021-07-27T10:30:00Z", "max_date": "2021-07-27T09:42:00Z", "count_points": 2, "latitude": 46.18183, "longitude": 30.22358, "city": "Bilhorod-Dnistrovskyi", "images": []}, {"id": 478939, "min_date": "2021-07-27T10:30:00Z", "max_date": "2021-07-27T11:24:00Z", "count_points": 8, "latitude": 49.84478, "longitude": 35.1715, "city": "Kolomak", "images": []}, {"id": 478940, "min_date": "2021-07-27T10:30:00Z", "max_date": "2021-07-27T10:30:00Z", "count_points": 2, "latitude": 49.49725, "longitude": 30.565, "city": "Tarashcha", "images": []}, {"id": 478941, "min_date": "2021-07-27T10:30:00Z", "max_date": "2021-07-27T10:30:00Z", "count_points": 1, "latitude": 49.09673, "longitude": 37.31816, "city": "Izyum", "images": []}, {"id": 478942, "min_date": "2021-07-27T10:30:00Z", "max_date": "2021-07-27T11:18:00Z", "count_points": 3, "latitude": 46.68488, "longitude": 31.55382, "city": "Ochakiv", "images": []}, {"id": 478943, "min_date": "2021-07-27T10:30:00Z", "max_date": "2021-07-27T10:30:00Z", "count_points": 1, "latitude": 50.17952, "longitude": 35.81219, "city": "Zolochiv", "images": []}, {"id": 478944, "min_date": "2021-07-27T10:30:00Z", "max_date": "2021-07-27T11:18:00Z", "count_points": 5, "latitude": 45.89049, "longitude": 29.65744, "city": "Tatarbunary", "images": []}, {"id": 478945, "min_date": "2021-07-27T10:30:00Z", "max_date": "2021-07-27T09:42:00Z", "count_points": 3, "latitude": 47.31518, "longitude": 32.57849, "city": "Bashtanka", "images": []}, {"id": 478946, "min_date": "2021-07-27T10:30:00Z", "max_date": "2021-07-27T10:30:00Z", "count_points": 1, "latitude": 44.96243, "longitude": 34.2195, "city": "Trudovoye", "images": []}, {"id": 478947, "min_date": "2021-07-27T10:30:00Z", "max_date": "2021-07-27T10:30:00Z", "count_points": 1, "latitude": 50.65045, "longitude": 33.00694, "city": "Sribne", "images": []}, {"id": 478948, "min_date": "2021-07-27T10:30:00Z", "max_date": "2021-07-27T11:24:00Z", "count_points": 3, "latitude": 48.57643, "longitude": 32.54163, "city": "Adzhamka", "images": []}, {"id": 478949, "min_date": "2021-07-27T10:30:00Z", "max_date": "2021-07-27T10:30:00Z", "count_points": 1, "latitude": 48.78487, "longitude": 34.58518, "city": "Petrykivka", "images": []}, {"id": 478950, "min_date": "2021-07-27T10:30:00Z", "max_date": "2021-07-27T10:30:00Z", "count_points": 3, "latitude": 48.16071, "longitude": 31.22733, "city": "Lysa Hora", "images": []}, {"id": 478951, "min_date": "2021-07-27T10:30:00Z", "max_date": "2021-07-27T10:30:00Z", "count_points": 1, "latitude": 47.06327, "longitude": 30.65388, "city": "Ivanivka", "images": []}, {"id": 478952, "min_date": "2021-07-27T10:30:00Z", "max_date": "2021-07-28T11:00:00Z", "count_points": 6, "latitude": 48.03642, "longitude": 37.27418, "city": "Kurakhovo", "images": []}, {"id": 478953, "min_date": "2021-07-27T10:30:00Z", "max_date": "2021-08-01T10:41:00Z", "count_points": 2, "latitude": 47.72941, "longitude": 36.80764, "city": "Velyka Novosilka", "images": []}, {"id": 478954, "min_date": "2021-07-27T10:30:00Z", "max_date": "2021-07-27T11:18:00Z", "count_points": 3, "latitude": 46.29679, "longitude": 34.42251, "city": "Novotroyits\u2019ke", "images": []}, {"id": 478955, "min_date": "2021-07-27T10:30:00Z", "max_date": "2021-07-29T23:00:00Z", "count_points": 3, "latitude": 46.37024, "longitude": 34.48618, "city": "Novotroyits\u2019ke", "images": []}, {"id": 478956, "min_date": "2021-07-27T10:30:00Z", "max_date": "2021-07-27T09:42:00Z", "count_points": 2, "latitude": 46.83588, "longitude": 32.81446, "city": "Oleksandrivka", "images": []}, {"id": 478957, "min_date": "2021-07-27T10:30:00Z", "max_date": "2021-07-27T10:30:00Z", "count_points": 1, "latitude": 50.06373, "longitude": 36.17421, "city": "Mala Danylivka", "images": []}, {"id": 478958, "min_date": "2021-07-27T10:30:00Z", "max_date": "2021-07-27T10:30:00Z", "count_points": 1, "latitude": 46.98447, "longitude": 32.61417, "city": "Oleksandrivka", "images": []}, {"id": 478959, "min_date": "2021-07-27T10:30:00Z", "max_date": "2021-07-26T23:54:00Z", "count_points": 3, "latitude": 47.45955, "longitude": 31.76264, "city": "Nova Odesa", "images": []}, {"id": 478960, "min_date": "2021-07-27T10:30:00Z", "max_date": "2021-07-27T11:18:00Z", "count_points": 2, "latitude": 45.93651, "longitude": 29.16904, "city": "Dmytrivka", "images": []}, {"id": 478961, "min_date": "2021-07-27T10:30:00Z", "max_date": "2021-07-27T11:18:00Z", "count_points": 4, "latitude": 47.00241, "longitude": 32.93017, "city": "Snihurivka", "images": []}, {"id": 478962, "min_date": "2021-07-27T10:30:00Z", "max_date": "2021-07-27T11:24:00Z", "count_points": 4, "latitude": 48.4086, "longitude": 30.84722, "city": "Tyshkivka", "images": []}, {"id": 478963, "min_date": "2021-07-27T12:12:00Z", "max_date": "2021-07-27T12:12:00Z", "count_points": 2, "latitude": 49.13249, "longitude": 26.79286, "city": "Yarmolyntsi", "images": []}, {"id": 478964, "min_date": "2021-07-27T22:42:00Z", "max_date": "2021-07-27T23:36:00Z", "count_points": 6, "latitude": 49.22845, "longitude": 35.2511, "city": "Zachepylivka", "images": []}, {"id": 478965, "min_date": "2021-07-27T22:42:00Z", "max_date": "2021-07-27T23:36:00Z", "count_points": 4, "latitude": 47.89004, "longitude": 36.05447, "city": "Ternuvate", "images": []}, {"id": 478966, "min_date": "2021-07-27T22:42:00Z", "max_date": "2021-07-27T22:42:00Z", "count_points": 2, "latitude": 48.23871, "longitude": 36.37691, "city": "Petropavlivka", "images": []}, {"id": 478967, "min_date": "2021-07-27T22:42:00Z", "max_date": "2021-07-27T23:36:00Z", "count_points": 2, "latitude": 49.4438, "longitude": 36.05986, "city": "Pervomays\u2019kyy", "images": []}, {"id": 478968, "min_date": "2021-07-27T22:42:00Z", "max_date": "2021-07-27T23:36:00Z", "count_points": 9, "latitude": 47.90737, "longitude": 31.39519, "city": "Arbuzynka", "images": []}, {"id": 478969, "min_date": "2021-07-27T22:42:00Z", "max_date": "2021-07-28T11:00:00Z", "count_points": 11, "latitude": 47.6906, "longitude": 36.00295, "city": "Zaliznychne", "images": []}, {"id": 478970, "min_date": "2021-07-27T22:42:00Z", "max_date": "2021-07-27T23:36:00Z", "count_points": 5, "latitude": 47.94149, "longitude": 36.06293, "city": "Ternuvate", "images": []}, {"id": 478971, "min_date": "2021-07-27T22:42:00Z", "max_date": "2021-07-27T23:36:00Z", "count_points": 4, "latitude": 50.26572, "longitude": 37.3258, "city": "Prykolotne", "images": []}, {"id": 478972, "min_date": "2021-07-27T22:42:00Z", "max_date": "2021-07-27T22:42:00Z", "count_points": 1, "latitude": 48.68789, "longitude": 33.2637, "city": "Oleksandriya", "images": []}, {"id": 478973, "min_date": "2021-07-27T22:42:00Z", "max_date": "2021-07-27T23:36:00Z", "count_points": 7, "latitude": 48.28883, "longitude": 33.89567, "city": "Vyshneve", "images": []}, {"id": 478974, "min_date": "2021-07-27T22:42:00Z", "max_date": "2021-07-28T11:00:00Z", "count_points": 3, "latitude": 49.11238, "longitude": 39.77342, "city": "Bilovodsk", "images": []}, {"id": 478975, "min_date": "2021-07-27T22:42:00Z", "max_date": "2021-07-27T23:36:00Z", "count_points": 2, "latitude": 49.61658, "longitude": 34.7998, "city": "Mashivka", "images": []}, {"id": 478976, "min_date": "2021-07-27T22:48:00Z", "max_date": "2021-07-27T23:36:00Z", "count_points": 5, "latitude": 47.23083, "longitude": 34.30786, "city": "Verkhniy Rohachyk", "images": []}, {"id": 478977, "min_date": "2021-07-27T22:48:00Z", "max_date": "2021-07-29T10:42:00Z", "count_points": 14, "latitude": 46.58317, "longitude": 34.99538, "city": "Yakymivka", "images": []}, {"id": 478978, "min_date": "2021-07-27T22:48:00Z", "max_date": "2021-07-28T01:18:00Z", "count_points": 5, "latitude": 45.36926, "longitude": 28.57792, "city": "Ozerne", "images": []}, {"id": 478979, "min_date": "2021-07-27T22:48:00Z", "max_date": "2021-08-01T09:48:00Z", "count_points": 6, "latitude": 46.71414, "longitude": 34.7513, "city": "Ivanivka", "images": []}, {"id": 478980, "min_date": "2021-07-27T22:48:00Z", "max_date": "2021-07-27T23:36:00Z", "count_points": 2, "latitude": 46.59743, "longitude": 35.11346, "city": "Yakymivka", "images": []}, {"id": 478981, "min_date": "2021-07-28T00:28:00Z", "max_date": "2021-07-28T00:28:00Z", "count_points": 1, "latitude": 46.44051, "longitude": 29.16291, "city": "Borodino", "images": []}, {"id": 478982, "min_date": "2021-07-28T00:28:00Z", "max_date": "2021-07-28T00:28:00Z", "count_points": 2, "latitude": 46.90964, "longitude": 34.40119, "city": "Nyzhni Sirohozy", "images": []}, {"id": 478983, "min_date": "2021-07-28T00:28:00Z", "max_date": "2021-07-27T23:36:00Z", "count_points": 3, "latitude": 47.64249, "longitude": 29.99859, "city": "Ananyiv Pershyi", "images": []}, {"id": 478984, "min_date": "2021-07-28T00:28:00Z", "max_date": "2021-07-28T01:12:00Z", "count_points": 4, "latitude": 50.2492, "longitude": 32.22352, "city": "Hrebinka", "images": []}, {"id": 478985, "min_date": "2021-07-28T00:28:00Z", "max_date": "2021-07-27T23:36:00Z", "count_points": 2, "latitude": 47.79232, "longitude": 30.88723, "city": "Domanivka", "images": []}, {"id": 478986, "min_date": "2021-07-28T00:28:00Z", "max_date": "2021-07-28T00:28:00Z", "count_points": 1, "latitude": 46.996, "longitude": 31.19644, "city": "Kurisove", "images": []}, {"id": 478987, "min_date": "2021-07-28T10:13:00Z", "max_date": "2021-07-28T11:00:00Z", "count_points": 3, "latitude": 48.69349, "longitude": 36.39506, "city": "Lozova", "images": []}, {"id": 478988, "min_date": "2021-07-28T10:13:00Z", "max_date": "2021-07-28T11:00:00Z", "count_points": 8, "latitude": 47.08073, "longitude": 32.37109, "city": "Shevchenkove", "images": []}, {"id": 478989, "min_date": "2021-07-28T10:13:00Z", "max_date": "2021-08-01T11:24:00Z", "count_points": 14, "latitude": 45.6954, "longitude": 29.10314, "city": "Shevchenkove", "images": []}, {"id": 478990, "min_date": "2021-07-28T10:13:00Z", "max_date": "2021-07-28T09:24:00Z", "count_points": 2, "latitude": 46.65069, "longitude": 35.21664, "city": "Yakymivka", "images": []}, {"id": 478991, "min_date": "2021-07-28T10:13:00Z", "max_date": "2021-07-28T10:13:00Z", "count_points": 2, "latitude": 46.53888, "longitude": 35.24508, "city": "Yakymivka", "images": []}, {"id": 478992, "min_date": "2021-07-28T10:13:00Z", "max_date": "2021-07-28T10:13:00Z", "count_points": 1, "latitude": 48.11292, "longitude": 34.49384, "city": "Novopokrovka", "images": []}, {"id": 478993, "min_date": "2021-07-28T10:13:00Z", "max_date": "2021-07-28T11:00:00Z", "count_points": 3, "latitude": 48.03129, "longitude": 35.8151, "city": "Novomykolayivka", "images": []}, {"id": 478994, "min_date": "2021-07-28T10:13:00Z", "max_date": "2021-07-29T10:42:00Z", "count_points": 10, "latitude": 47.50956, "longitude": 33.50683, "city": "Vysokopillya", "images": []}, {"id": 478995, "min_date": "2021-07-28T10:13:00Z", "max_date": "2021-07-27T23:36:00Z", "count_points": 3, "latitude": 47.98144, "longitude": 29.0291, "city": "Kodyma", "images": []}, {"id": 478996, "min_date": "2021-07-28T10:13:00Z", "max_date": "2021-07-28T10:13:00Z", "count_points": 1, "latitude": 47.41311, "longitude": 33.36858, "city": "Velyka Oleksandrivka", "images": []}, {"id": 478997, "min_date": "2021-07-28T10:13:00Z", "max_date": "2021-07-28T10:13:00Z", "count_points": 2, "latitude": 48.16949, "longitude": 36.25883, "city": "Pokrovs\u2019ke", "images": []}, {"id": 478998, "min_date": "2021-07-28T10:13:00Z", "max_date": "2021-07-28T10:13:00Z", "count_points": 1, "latitude": 48.83556, "longitude": 35.07761, "city": "Spas\u2019ke", "images": []}, {"id": 478999, "min_date": "2021-07-28T10:13:00Z", "max_date": "2021-07-28T10:13:00Z", "count_points": 1, "latitude": 47.16428, "longitude": 34.72395, "city": "Velyka Bilozerka", "images": []}, {"id": 479000, "min_date": "2021-07-28T10:13:00Z", "max_date": "2021-07-28T10:13:00Z", "count_points": 1, "latitude": 48.73672, "longitude": 36.24332, "city": "Lozova", "images": []}, {"id": 479001, "min_date": "2021-07-28T10:13:00Z", "max_date": "2021-07-28T10:13:00Z", "count_points": 1, "latitude": 45.50991, "longitude": 28.76329, "city": "Broska", "images": []}, {"id": 479002, "min_date": "2021-07-28T10:13:00Z", "max_date": "2021-07-28T11:00:00Z", "count_points": 2, "latitude": 45.58613, "longitude": 28.75183, "city": "Kalcheva", "images": []}, {"id": 479003, "min_date": "2021-07-28T10:13:00Z", "max_date": "2021-07-28T10:13:00Z", "count_points": 1, "latitude": 49.94241, "longitude": 37.0908, "city": "Pechenihy", "images": []}, {"id": 479004, "min_date": "2021-07-28T10:13:00Z", "max_date": "2021-07-30T10:24:00Z", "count_points": 3, "latitude": 45.87993, "longitude": 28.77652, "city": "Horodnye", "images": []}, {"id": 479005, "min_date": "2021-07-28T10:13:00Z", "max_date": "2021-07-28T10:13:00Z", "count_points": 1, "latitude": 49.60847, "longitude": 38.42628, "city": "Nyzhnya Duvanka", "images": []}, {"id": 479006, "min_date": "2021-07-28T10:13:00Z", "max_date": "2021-07-28T10:13:00Z", "count_points": 1, "latitude": 46.77851, "longitude": 30.12003, "city": "Rozdil\u2019na", "images": []}, {"id": 479007, "min_date": "2021-07-28T10:13:00Z", "max_date": "2021-07-28T10:13:00Z", "count_points": 1, "latitude": 47.21023, "longitude": 34.65876, "city": "Velyka Bilozerka", "images": []}, {"id": 479008, "min_date": "2021-07-28T10:13:00Z", "max_date": "2021-07-28T10:13:00Z", "count_points": 1, "latitude": 47.15548, "longitude": 34.65708, "city": "Velyka Bilozerka", "images": []}, {"id": 479009, "min_date": "2021-07-28T10:13:00Z", "max_date": "2021-07-28T11:00:00Z", "count_points": 3, "latitude": 46.06881, "longitude": 29.93578, "city": "Kulevcha", "images": []}, {"id": 479010, "min_date": "2021-07-28T10:13:00Z", "max_date": "2021-07-29T10:42:00Z", "count_points": 11, "latitude": 47.4287, "longitude": 32.66084, "city": "Bashtanka", "images": []}, {"id": 479011, "min_date": "2021-07-28T10:13:00Z", "max_date": "2021-07-28T10:13:00Z", "count_points": 1, "latitude": 47.74691, "longitude": 36.07384, "city": "Ternuvate", "images": []}, {"id": 479012, "min_date": "2021-07-28T10:13:00Z", "max_date": "2021-07-28T10:13:00Z", "count_points": 1, "latitude": 47.63266, "longitude": 34.14405, "city": "Chortomlyk", "images": []}, {"id": 479013, "min_date": "2021-07-28T10:13:00Z", "max_date": "2021-07-28T10:13:00Z", "count_points": 1, "latitude": 47.22699, "longitude": 32.34409, "city": "Bashtanka", "images": []}, {"id": 479014, "min_date": "2021-07-28T10:13:00Z", "max_date": "2021-07-28T11:00:00Z", "count_points": 2, "latitude": 45.85926, "longitude": 29.57734, "city": "Tatarbunary", "images": []}, {"id": 479015, "min_date": "2021-07-28T10:13:00Z", "max_date": "2021-07-28T10:13:00Z", "count_points": 1, "latitude": 46.9647, "longitude": 32.08081, "city": "Mykolayiv", "images": []}, {"id": 479016, "min_date": "2021-07-28T10:13:00Z", "max_date": "2021-08-01T11:30:00Z", "count_points": 9, "latitude": 47.33949, "longitude": 34.28446, "city": "Verkhniy Rohachyk", "images": []}, {"id": 479017, "min_date": "2021-07-28T10:13:00Z", "max_date": "2021-07-28T10:13:00Z", "count_points": 3, "latitude": 47.7043, "longitude": 35.69005, "city": "Kirove", "images": []}, {"id": 479018, "min_date": "2021-07-28T10:13:00Z", "max_date": "2021-07-28T10:13:00Z", "count_points": 1, "latitude": 48.11988, "longitude": 31.23883, "city": "Lysa Hora", "images": []}, {"id": 479019, "min_date": "2021-07-28T10:13:00Z", "max_date": "2021-07-29T10:42:00Z", "count_points": 7, "latitude": 48.10833, "longitude": 31.37166, "city": "Pomichna", "images": []}, {"id": 479020, "min_date": "2021-07-28T10:13:00Z", "max_date": "2021-07-28T10:13:00Z", "count_points": 1, "latitude": 48.14572, "longitude": 32.65924, "city": "Molodizhne", "images": []}, {"id": 479021, "min_date": "2021-07-28T10:13:00Z", "max_date": "2021-07-28T11:00:00Z", "count_points": 3, "latitude": 46.03868, "longitude": 29.85926, "city": "Kulevcha", "images": []}, {"id": 479022, "min_date": "2021-07-28T10:13:00Z", "max_date": "2021-07-28T10:13:00Z", "count_points": 3, "latitude": 47.01337, "longitude": 32.59, "city": "Snihurivka", "images": []}, {"id": 479023, "min_date": "2021-07-28T10:13:00Z", "max_date": "2021-07-28T11:00:00Z", "count_points": 2, "latitude": 47.13779, "longitude": 32.76758, "city": "Snihurivka", "images": []}, {"id": 479024, "min_date": "2021-07-28T10:13:00Z", "max_date": "2021-07-28T10:13:00Z", "count_points": 1, "latitude": 47.09821, "longitude": 32.54751, "city": "Snihurivka", "images": []}, {"id": 479025, "min_date": "2021-07-28T10:13:00Z", "max_date": "2021-07-28T10:13:00Z", "count_points": 1, "latitude": 48.2319, "longitude": 33.86428, "city": "Sofiyivka", "images": []}, {"id": 479026, "min_date": "2021-07-28T10:13:00Z", "max_date": "2021-07-28T10:13:00Z", "count_points": 1, "latitude": 48.20741, "longitude": 33.95537, "city": "Sofiyivka", "images": []}, {"id": 479027, "min_date": "2021-07-28T10:13:00Z", "max_date": "2021-07-28T10:13:00Z", "count_points": 1, "latitude": 47.38612, "longitude": 34.9357, "city": "Balky", "images": []}, {"id": 479028, "min_date": "2021-07-28T10:13:00Z", "max_date": "2021-07-28T09:24:00Z", "count_points": 2, "latitude": 48.72115, "longitude": 35.84801, "city": "Yur\u201dyivka", "images": []}, {"id": 479029, "min_date": "2021-07-28T10:13:00Z", "max_date": "2021-07-28T10:13:00Z", "count_points": 1, "latitude": 47.29033, "longitude": 34.80549, "city": "Velyka Bilozerka", "images": []}, {"id": 479030, "min_date": "2021-07-28T10:13:00Z", "max_date": "2021-07-26T10:00:00Z", "count_points": 4, "latitude": 45.56655, "longitude": 29.4038, "city": "Shevchenkove", "images": []}, {"id": 479031, "min_date": "2021-07-28T10:13:00Z", "max_date": "2021-07-28T10:13:00Z", "count_points": 2, "latitude": 47.41769, "longitude": 33.44021, "city": "Vysokopillya", "images": []}, {"id": 479032, "min_date": "2021-07-28T10:13:00Z", "max_date": "2021-07-28T10:13:00Z", "count_points": 1, "latitude": 45.78122, "longitude": 28.77926, "city": "Kalcheva", "images": []}, {"id": 479033, "min_date": "2021-07-28T10:13:00Z", "max_date": "2021-07-28T09:24:00Z", "count_points": 3, "latitude": 47.8838, "longitude": 33.78923, "city": "Sofiyivka", "images": []}, {"id": 479034, "min_date": "2021-07-28T10:13:00Z", "max_date": "2021-07-27T09:42:00Z", "count_points": 2, "latitude": 47.9455, "longitude": 33.77912, "city": "Sofiyivka", "images": []}, {"id": 479035, "min_date": "2021-07-28T10:13:00Z", "max_date": "2021-07-28T11:00:00Z", "count_points": 5, "latitude": 49.20342, "longitude": 40.06462, "city": "Milove", "images": []}, {"id": 479036, "min_date": "2021-07-28T10:13:00Z", "max_date": "2021-07-28T11:00:00Z", "count_points": 4, "latitude": 47.05002, "longitude": 35.50284, "city": "Terpinnya", "images": []}, {"id": 479037, "min_date": "2021-07-28T10:13:00Z", "max_date": "2021-07-28T10:13:00Z", "count_points": 1, "latitude": 47.97515, "longitude": 32.75059, "city": "Dolynska", "images": []}, {"id": 479038, "min_date": "2021-07-28T10:13:00Z", "max_date": "2021-07-28T10:13:00Z", "count_points": 4, "latitude": 48.8651, "longitude": 35.64163, "city": "Melioratyvne", "images": []}, {"id": 479039, "min_date": "2021-07-28T10:13:00Z", "max_date": "2021-07-28T09:24:00Z", "count_points": 2, "latitude": 47.01552, "longitude": 36.37919, "city": "Prymors\u2019k", "images": []}, {"id": 479040, "min_date": "2021-07-28T10:13:00Z", "max_date": "2021-07-28T09:24:00Z", "count_points": 7, "latitude": 48.50748, "longitude": 31.429, "city": "Zlynka", "images": []}, {"id": 479041, "min_date": "2021-07-28T10:13:00Z", "max_date": "2021-07-29T09:56:00Z", "count_points": 2, "latitude": 47.76781, "longitude": 38.55656, "city": "Amvrosiyivka", "images": []}, {"id": 479042, "min_date": "2021-07-28T10:13:00Z", "max_date": "2021-07-28T10:13:00Z", "count_points": 1, "latitude": 47.616, "longitude": 37.15517, "city": "Rozivka", "images": []}, {"id": 479043, "min_date": "2021-07-28T10:13:00Z", "max_date": "2021-07-28T10:13:00Z", "count_points": 2, "latitude": 47.50209, "longitude": 31.39731, "city": "Voznesensk", "images": []}, {"id": 479044, "min_date": "2021-07-28T10:13:00Z", "max_date": "2021-07-28T11:00:00Z", "count_points": 3, "latitude": 48.72677, "longitude": 31.50915, "city": "Novomyrhorod", "images": []}, {"id": 479045, "min_date": "2021-07-28T10:13:00Z", "max_date": "2021-07-28T11:00:00Z", "count_points": 2, "latitude": 47.87977, "longitude": 31.46764, "city": "Brats\u2019ke", "images": []}, {"id": 479046, "min_date": "2021-07-28T10:15:00Z", "max_date": "2021-07-28T11:00:00Z", "count_points": 2, "latitude": 49.25508, "longitude": 25.18112, "city": "Pidhaytsi", "images": []}, {"id": 479047, "min_date": "2021-07-28T10:15:00Z", "max_date": "2021-07-28T10:15:00Z", "count_points": 1, "latitude": 49.26362, "longitude": 29.14535, "city": "Lypovets", "images": []}, {"id": 479048, "min_date": "2021-07-28T10:15:00Z", "max_date": "2021-07-28T10:15:00Z", "count_points": 1, "latitude": 48.9355, "longitude": 30.00406, "city": "Verkhnyachka", "images": []}, {"id": 479049, "min_date": "2021-07-28T11:55:00Z", "max_date": "2021-07-28T11:55:00Z", "count_points": 2, "latitude": 47.8981, "longitude": 30.23172, "city": "Lyubashivka", "images": []}, {"id": 479050, "min_date": "2021-07-28T11:55:00Z", "max_date": "2021-07-28T11:55:00Z", "count_points": 2, "latitude": 46.67702, "longitude": 32.40247, "city": "Bilozerka", "images": []}, {"id": 479051, "min_date": "2021-07-28T11:55:00Z", "max_date": "2021-07-28T11:55:00Z", "count_points": 1, "latitude": 48.39505, "longitude": 31.06892, "city": "Lypnyazhka", "images": []}, {"id": 479052, "min_date": "2021-07-28T11:55:00Z", "max_date": "2021-07-31T10:06:00Z", "count_points": 4, "latitude": 47.05593, "longitude": 32.93967, "city": "Snihurivka", "images": []}, {"id": 479053, "min_date": "2021-07-28T11:55:00Z", "max_date": "2021-07-28T11:55:00Z", "count_points": 1, "latitude": 48.42405, "longitude": 26.83404, "city": "Kel\u2019mentsi", "images": []}, {"id": 479054, "min_date": "2021-07-28T11:55:00Z", "max_date": "2021-07-28T11:00:00Z", "count_points": 7, "latitude": 48.47919, "longitude": 26.80982, "city": "Kel\u2019mentsi", "images": []}, {"id": 479055, "min_date": "2021-07-28T11:55:00Z", "max_date": "2021-07-28T11:55:00Z", "count_points": 1, "latitude": 48.40502, "longitude": 22.52261, "city": "Strabychovo", "images": []}, {"id": 479056, "min_date": "2021-07-28T11:55:00Z", "max_date": "2021-07-28T11:55:00Z", "count_points": 1, "latitude": 47.33469, "longitude": 33.07468, "city": "Bereznehuvate", "images": []}, {"id": 479057, "min_date": "2021-07-28T22:27:00Z", "max_date": "2021-07-28T22:27:00Z", "count_points": 1, "latitude": 50.11073, "longitude": 37.65351, "city": "Dvorichna", "images": []}, {"id": 479058, "min_date": "2021-07-28T22:27:00Z", "max_date": "2021-07-29T00:54:00Z", "count_points": 16, "latitude": 48.88052, "longitude": 35.48423, "city": "Hubynykha", "images": []}, {"id": 479059, "min_date": "2021-07-28T22:27:00Z", "max_date": "2021-07-29T00:54:00Z", "count_points": 13, "latitude": 48.87385, "longitude": 35.08768, "city": "Mahdalynivka", "images": []}, {"id": 479060, "min_date": "2021-07-28T22:27:00Z", "max_date": "2021-07-28T23:18:00Z", "count_points": 7, "latitude": 47.82764, "longitude": 36.72444, "city": "Velyka Novosilka", "images": []}, {"id": 479061, "min_date": "2021-07-28T22:27:00Z", "max_date": "2021-07-29T00:09:00Z", "count_points": 2, "latitude": 48.26371, "longitude": 36.91906, "city": "Mezhova", "images": []}, {"id": 479062, "min_date": "2021-07-28T22:27:00Z", "max_date": "2021-07-29T00:09:00Z", "count_points": 2, "latitude": 47.46449, "longitude": 36.05226, "city": "Mala Tokmachka", "images": []}, {"id": 479063, "min_date": "2021-07-28T22:27:00Z", "max_date": "2021-07-28T23:18:00Z", "count_points": 6, "latitude": 47.58557, "longitude": 36.17833, "city": "Zaliznychne", "images": []}, {"id": 479064, "min_date": "2021-07-28T22:27:00Z", "max_date": "2021-07-28T22:27:00Z", "count_points": 1, "latitude": 49.79388, "longitude": 37.53748, "city": "Kupjansk", "images": []}, {"id": 479065, "min_date": "2021-07-28T22:29:00Z", "max_date": "2021-07-28T22:29:00Z", "count_points": 1, "latitude": 45.22177, "longitude": 33.35693, "city": "Yevpatoriya", "images": []}, {"id": 479066, "min_date": "2021-07-29T00:07:00Z", "max_date": "2021-07-29T00:54:00Z", "count_points": 6, "latitude": 49.73763, "longitude": 37.95604, "city": "Nyzhnya Duvanka", "images": []}, {"id": 479067, "min_date": "2021-07-29T00:07:00Z", "max_date": "2021-07-28T23:18:00Z", "count_points": 3, "latitude": 49.68452, "longitude": 36.10274, "city": "Utkivka", "images": []}, {"id": 479068, "min_date": "2021-07-29T00:07:00Z", "max_date": "2021-07-29T09:56:00Z", "count_points": 3, "latitude": 50.17733, "longitude": 37.27942, "city": "Prykolotne", "images": []}, {"id": 479069, "min_date": "2021-07-29T00:07:00Z", "max_date": "2021-07-29T10:42:00Z", "count_points": 8, "latitude": 49.98868, "longitude": 37.6178, "city": "Dvorichna", "images": []}, {"id": 479070, "min_date": "2021-07-29T00:07:00Z", "max_date": "2021-07-29T10:42:00Z", "count_points": 11, "latitude": 50.25856, "longitude": 37.15295, "city": "Vovchans\u2019k", "images": []}, {"id": 479071, "min_date": "2021-07-29T00:07:00Z", "max_date": "2021-07-29T10:42:00Z", "count_points": 4, "latitude": 49.65173, "longitude": 35.5754, "city": "Valky", "images": []}, {"id": 479072, "min_date": "2021-07-29T00:09:00Z", "max_date": "2021-07-29T00:09:00Z", "count_points": 1, "latitude": 47.21865, "longitude": 34.43068, "city": "Verkhniy Rohachyk", "images": []}, {"id": 479073, "min_date": "2021-07-29T00:09:00Z", "max_date": "2021-08-01T11:30:00Z", "count_points": 5, "latitude": 48.33057, "longitude": 37.35799, "city": "Myrnohrad", "images": []}, {"id": 479074, "min_date": "2021-07-29T00:09:00Z", "max_date": "2021-07-28T23:18:00Z", "count_points": 2, "latitude": 47.78087, "longitude": 32.75091, "city": "Kazanka", "images": []}, {"id": 479075, "min_date": "2021-07-29T00:09:00Z", "max_date": "2021-07-29T10:42:00Z", "count_points": 7, "latitude": 47.70176, "longitude": 36.7243, "city": "Velyka Novosilka", "images": []}, {"id": 479076, "min_date": "2021-07-29T00:09:00Z", "max_date": "2021-07-29T00:54:00Z", "count_points": 3, "latitude": 50.70613, "longitude": 26.32734, "city": "Horodyshche", "images": []}, {"id": 479077, "min_date": "2021-07-29T00:09:00Z", "max_date": "2021-07-29T00:54:00Z", "count_points": 12, "latitude": 46.72105, "longitude": 34.18215, "city": "Nyzhni Sirohozy", "images": []}, {"id": 479078, "min_date": "2021-07-29T00:09:00Z", "max_date": "2021-07-28T23:18:00Z", "count_points": 5, "latitude": 47.14943, "longitude": 33.77174, "city": "Dudchany", "images": []}, {"id": 479079, "min_date": "2021-07-29T00:09:00Z", "max_date": "2021-07-28T23:18:00Z", "count_points": 3, "latitude": 47.80011, "longitude": 30.47059, "city": "Vradiyivka", "images": []}, {"id": 479080, "min_date": "2021-07-29T00:09:00Z", "max_date": "2021-07-28T23:18:00Z", "count_points": 3, "latitude": 47.32616, "longitude": 33.67781, "city": "Dudchany", "images": []}, {"id": 479081, "min_date": "2021-07-29T00:09:00Z", "max_date": "2021-07-29T00:54:00Z", "count_points": 8, "latitude": 48.78236, "longitude": 36.48073, "city": "Blyznyuky", "images": []}, {"id": 479082, "min_date": "2021-07-29T00:09:00Z", "max_date": "2021-07-28T23:18:00Z", "count_points": 2, "latitude": 49.0538, "longitude": 33.93385, "city": "Kozel\u2019shchyna", "images": []}, {"id": 479083, "min_date": "2021-07-29T00:09:00Z", "max_date": "2021-07-28T23:18:00Z", "count_points": 18, "latitude": 48.23788, "longitude": 36.79762, "city": "Mezhova", "images": []}, {"id": 479084, "min_date": "2021-07-29T00:09:00Z", "max_date": "2021-07-29T09:06:00Z", "count_points": 4, "latitude": 48.49446, "longitude": 33.53094, "city": "Zhovti Vody", "images": []}, {"id": 479085, "min_date": "2021-07-29T00:09:00Z", "max_date": "2021-08-01T09:48:00Z", "count_points": 7, "latitude": 46.80887, "longitude": 32.08207, "city": "Shevchenkove", "images": []}, {"id": 479086, "min_date": "2021-07-29T00:09:00Z", "max_date": "2021-07-29T00:09:00Z", "count_points": 1, "latitude": 50.32529, "longitude": 30.16059, "city": "Boyarka", "images": []}, {"id": 479087, "min_date": "2021-07-29T00:09:00Z", "max_date": "2021-07-29T00:54:00Z", "count_points": 2, "latitude": 49.64384, "longitude": 29.9361, "city": "Volodarka", "images": []}, {"id": 479088, "min_date": "2021-07-29T00:09:00Z", "max_date": "2021-07-29T00:54:00Z", "count_points": 9, "latitude": 47.25775, "longitude": 32.70072, "city": "Bereznehuvate", "images": []}, {"id": 479089, "min_date": "2021-07-29T00:09:00Z", "max_date": "2021-07-28T23:18:00Z", "count_points": 5, "latitude": 48.07342, "longitude": 29.52763, "city": "Balta", "images": []}, {"id": 479090, "min_date": "2021-07-29T00:09:00Z", "max_date": "2021-07-29T00:09:00Z", "count_points": 1, "latitude": 48.08209, "longitude": 31.64583, "city": "Rivne", "images": []}, {"id": 479091, "min_date": "2021-07-29T00:09:00Z", "max_date": "2021-07-29T00:54:00Z", "count_points": 6, "latitude": 48.15963, "longitude": 34.63303, "city": "Novopokrovka", "images": []}, {"id": 479092, "min_date": "2021-07-29T00:09:00Z", "max_date": "2021-07-29T10:42:00Z", "count_points": 6, "latitude": 48.93748, "longitude": 35.18909, "city": "Hubynykha", "images": []}, {"id": 479093, "min_date": "2021-07-29T00:09:00Z", "max_date": "2021-07-29T00:09:00Z", "count_points": 1, "latitude": 48.0529, "longitude": 35.49263, "city": "Vil\u2019nyans\u2019k", "images": []}, {"id": 479094, "min_date": "2021-07-29T00:09:00Z", "max_date": "2021-07-29T00:09:00Z", "count_points": 1, "latitude": 49.66193, "longitude": 28.73365, "city": "Kozyatyn", "images": []}, {"id": 479095, "min_date": "2021-07-29T00:09:00Z", "max_date": "2021-07-31T10:06:00Z", "count_points": 6, "latitude": 48.02697, "longitude": 34.09402, "city": "Sofiyivka", "images": []}, {"id": 479096, "min_date": "2021-07-29T00:09:00Z", "max_date": "2021-07-28T23:18:00Z", "count_points": 3, "latitude": 48.31569, "longitude": 33.80325, "city": "Piatykhatky", "images": []}, {"id": 479097, "min_date": "2021-07-29T09:56:00Z", "max_date": "2021-07-29T10:42:00Z", "count_points": 11, "latitude": 47.21614, "longitude": 33.52745, "city": "Dudchany", "images": []}, {"id": 479098, "min_date": "2021-07-29T09:56:00Z", "max_date": "2021-07-31T11:48:00Z", "count_points": 9, "latitude": 45.51108, "longitude": 29.09076, "city": "Kiliya", "images": []}, {"id": 479099, "min_date": "2021-07-29T09:56:00Z", "max_date": "2021-07-29T10:42:00Z", "count_points": 3, "latitude": 45.55778, "longitude": 29.11806, "city": "Kiliya", "images": []}, {"id": 479100, "min_date": "2021-07-29T09:56:00Z", "max_date": "2021-07-29T10:42:00Z", "count_points": 2, "latitude": 46.75536, "longitude": 32.51718, "city": "Chornobayivka", "images": []}, {"id": 479101, "min_date": "2021-07-29T09:56:00Z", "max_date": "2021-07-29T09:56:00Z", "count_points": 1, "latitude": 48.23352, "longitude": 35.72201, "city": "Synel\u2019nykove", "images": []}, {"id": 479102, "min_date": "2021-07-29T09:56:00Z", "max_date": "2021-07-29T10:42:00Z", "count_points": 3, "latitude": 48.88756, "longitude": 35.42911, "city": "Hubynykha", "images": []}, {"id": 479103, "min_date": "2021-07-29T09:56:00Z", "max_date": "2021-08-01T09:48:00Z", "count_points": 11, "latitude": 47.80803, "longitude": 37.14238, "city": "Kurakhovo", "images": []}, {"id": 479104, "min_date": "2021-07-29T09:56:00Z", "max_date": "2021-07-29T09:00:00Z", "count_points": 9, "latitude": 48.5231, "longitude": 38.2324, "city": "Luhans\u2019ke", "images": []}, {"id": 479105, "min_date": "2021-07-29T09:56:00Z", "max_date": "2021-07-29T10:42:00Z", "count_points": 5, "latitude": 46.68808, "longitude": 34.42671, "city": "Ivanivka", "images": []}, {"id": 479106, "min_date": "2021-07-29T09:56:00Z", "max_date": "2021-07-26T11:42:00Z", "count_points": 6, "latitude": 46.08554, "longitude": 29.29526, "city": "Artsyz", "images": []}, {"id": 479107, "min_date": "2021-07-29T09:56:00Z", "max_date": "2021-07-29T10:42:00Z", "count_points": 12, "latitude": 48.87967, "longitude": 34.72285, "city": "Petrykivka", "images": []}, {"id": 479108, "min_date": "2021-07-29T09:56:00Z", "max_date": "2021-07-29T10:42:00Z", "count_points": 5, "latitude": 48.06177, "longitude": 29.94367, "city": "Savran", "images": []}, {"id": 479109, "min_date": "2021-07-29T09:56:00Z", "max_date": "2021-07-29T09:06:00Z", "count_points": 3, "latitude": 48.22745, "longitude": 33.18693, "city": "Petrove", "images": []}, {"id": 479110, "min_date": "2021-07-29T09:56:00Z", "max_date": "2021-07-29T09:56:00Z", "count_points": 3, "latitude": 46.91366, "longitude": 36.73346, "city": "Osypenko", "images": []}, {"id": 479111, "min_date": "2021-07-29T09:56:00Z", "max_date": "2021-07-29T10:42:00Z", "count_points": 3, "latitude": 51.10924, "longitude": 34.30998, "city": "Bilopillya", "images": []}, {"id": 479112, "min_date": "2021-07-29T09:56:00Z", "max_date": "2021-07-28T23:18:00Z", "count_points": 2, "latitude": 49.69169, "longitude": 35.6066, "city": "Valky", "images": []}, {"id": 479113, "min_date": "2021-07-29T09:56:00Z", "max_date": "2021-07-29T10:42:00Z", "count_points": 2, "latitude": 47.66571, "longitude": 34.28919, "city": "Nikopol", "images": []}, {"id": 479114, "min_date": "2021-07-29T09:56:00Z", "max_date": "2021-07-29T09:56:00Z", "count_points": 1, "latitude": 50.64567, "longitude": 34.10328, "city": "Nedryhayliv", "images": []}, {"id": 479115, "min_date": "2021-07-29T09:56:00Z", "max_date": "2021-07-29T09:56:00Z", "count_points": 1, "latitude": 47.60374, "longitude": 29.72093, "city": "Podil\u2019s\u2019k", "images": []}, {"id": 479116, "min_date": "2021-07-29T09:56:00Z", "max_date": "2021-07-29T10:42:00Z", "count_points": 10, "latitude": 47.67156, "longitude": 33.86313, "city": "Apostolove", "images": []}, {"id": 479117, "min_date": "2021-07-29T09:56:00Z", "max_date": "2021-07-29T09:56:00Z", "count_points": 1, "latitude": 49.30974, "longitude": 32.25968, "city": "Chervona Sloboda", "images": []}, {"id": 479118, "min_date": "2021-07-29T09:56:00Z", "max_date": "2021-07-29T10:42:00Z", "count_points": 2, "latitude": 46.29123, "longitude": 29.80728, "city": "Kamyshevka Vtoraya", "images": []}, {"id": 479119, "min_date": "2021-07-29T09:56:00Z", "max_date": "2021-07-29T10:42:00Z", "count_points": 2, "latitude": 46.77024, "longitude": 32.16979, "city": "Shevchenkove", "images": []}, {"id": 479120, "min_date": "2021-07-29T09:56:00Z", "max_date": "2021-08-01T11:24:00Z", "count_points": 16, "latitude": 46.66228, "longitude": 34.48119, "city": "Ivanivka", "images": []}, {"id": 479121, "min_date": "2021-07-29T09:56:00Z", "max_date": "2021-07-29T09:56:00Z", "count_points": 1, "latitude": 47.93855, "longitude": 34.5302, "city": "Novopokrovka", "images": []}, {"id": 479122, "min_date": "2021-07-29T09:56:00Z", "max_date": "2021-07-29T09:56:00Z", "count_points": 1, "latitude": 48.95971, "longitude": 36.58346, "city": "Blyznyuky", "images": []}, {"id": 479123, "min_date": "2021-07-29T09:56:00Z", "max_date": "2021-07-29T09:56:00Z", "count_points": 1, "latitude": 48.43719, "longitude": 31.06799, "city": "Lypnyazhka", "images": []}, {"id": 479124, "min_date": "2021-07-29T09:56:00Z", "max_date": "2021-07-29T10:42:00Z", "count_points": 3, "latitude": 47.84078, "longitude": 33.0347, "city": "Kazanka", "images": []}, {"id": 479125, "min_date": "2021-07-29T09:56:00Z", "max_date": "2021-07-29T09:56:00Z", "count_points": 1, "latitude": 48.7719, "longitude": 33.28906, "city": "Pavlysh", "images": []}, {"id": 479126, "min_date": "2021-07-29T09:56:00Z", "max_date": "2021-07-29T09:56:00Z", "count_points": 1, "latitude": 49.36016, "longitude": 33.33579, "city": "Hlobyne", "images": []}, {"id": 479127, "min_date": "2021-07-29T09:56:00Z", "max_date": "2021-07-29T09:56:00Z", "count_points": 1, "latitude": 49.24882, "longitude": 38.22215, "city": "Svatove", "images": []}, {"id": 479128, "min_date": "2021-07-29T09:56:00Z", "max_date": "2021-07-29T09:56:00Z", "count_points": 1, "latitude": 47.85707, "longitude": 34.7436, "city": "Tomakivka", "images": []}, {"id": 479129, "min_date": "2021-07-29T09:56:00Z", "max_date": "2021-07-29T09:00:00Z", "count_points": 4, "latitude": 46.34982, "longitude": 35.05444, "city": "Partyzany", "images": []}, {"id": 479130, "min_date": "2021-07-29T09:56:00Z", "max_date": "2021-07-29T09:56:00Z", "count_points": 1, "latitude": 46.42336, "longitude": 35.03467, "city": "Partyzany", "images": []}, {"id": 479131, "min_date": "2021-07-29T09:56:00Z", "max_date": "2021-07-29T09:06:00Z", "count_points": 5, "latitude": 48.18614, "longitude": 36.77782, "city": "Mezhova", "images": []}, {"id": 479132, "min_date": "2021-07-29T09:56:00Z", "max_date": "2021-07-29T09:06:00Z", "count_points": 2, "latitude": 48.33053, "longitude": 36.81677, "city": "Mezhova", "images": []}, {"id": 479133, "min_date": "2021-07-29T09:56:00Z", "max_date": "2021-08-01T11:30:00Z", "count_points": 3, "latitude": 50.341, "longitude": 37.20014, "city": "Prykolotne", "images": []}, {"id": 479134, "min_date": "2021-07-29T09:56:00Z", "max_date": "2021-07-29T10:42:00Z", "count_points": 2, "latitude": 47.74974, "longitude": 33.95768, "city": "Sholokhove", "images": []}, {"id": 479135, "min_date": "2021-07-29T09:56:00Z", "max_date": "2021-07-29T10:42:00Z", "count_points": 3, "latitude": 46.51987, "longitude": 34.89545, "city": "Partyzany", "images": []}, {"id": 479136, "min_date": "2021-07-29T09:56:00Z", "max_date": "2021-07-31T10:06:00Z", "count_points": 9, "latitude": 47.26187, "longitude": 35.01605, "city": "Mala Bilozerka", "images": []}, {"id": 479137, "min_date": "2021-07-29T09:56:00Z", "max_date": "2021-07-29T09:56:00Z", "count_points": 1, "latitude": 48.21047, "longitude": 39.28714, "city": "Millerovo", "images": []}, {"id": 479138, "min_date": "2021-07-29T09:56:00Z", "max_date": "2021-07-29T09:56:00Z", "count_points": 2, "latitude": 47.83119, "longitude": 35.68899, "city": "Kirove", "images": []}, {"id": 479139, "min_date": "2021-07-29T09:56:00Z", "max_date": "2021-07-29T10:42:00Z", "count_points": 4, "latitude": 47.8445, "longitude": 32.98733, "city": "Kazanka", "images": []}, {"id": 479140, "min_date": "2021-07-29T09:56:00Z", "max_date": "2021-07-29T10:42:00Z", "count_points": 8, "latitude": 48.0685, "longitude": 37.36335, "city": "Selydove", "images": []}, {"id": 479141, "min_date": "2021-07-29T09:56:00Z", "max_date": "2021-07-31T10:06:00Z", "count_points": 14, "latitude": 45.53154, "longitude": 29.4112, "city": "Shevchenkove", "images": []}, {"id": 479142, "min_date": "2021-07-29T09:56:00Z", "max_date": "2021-07-29T09:56:00Z", "count_points": 1, "latitude": 46.98727, "longitude": 32.45701, "city": "Shevchenkove", "images": []}, {"id": 479143, "min_date": "2021-07-29T09:56:00Z", "max_date": "2021-07-29T09:56:00Z", "count_points": 4, "latitude": 48.66771, "longitude": 29.06451, "city": "Ladyzhyn", "images": []}, {"id": 479144, "min_date": "2021-07-29T09:56:00Z", "max_date": "2021-07-29T10:42:00Z", "count_points": 3, "latitude": 46.50992, "longitude": 34.33847, "city": "Novotroyits\u2019ke", "images": []}, {"id": 479145, "min_date": "2021-07-29T09:56:00Z", "max_date": "2021-07-26T23:54:00Z", "count_points": 2, "latitude": 48.10003, "longitude": 39.05138, "city": "Kripens\u2019kyy", "images": []}, {"id": 479146, "min_date": "2021-07-29T09:56:00Z", "max_date": "2021-07-30T10:24:00Z", "count_points": 4, "latitude": 48.29642, "longitude": 33.98173, "city": "Vyshneve", "images": []}, {"id": 479147, "min_date": "2021-07-29T11:36:00Z", "max_date": "2021-07-29T11:36:00Z", "count_points": 2, "latitude": 48.74289, "longitude": 31.43038, "city": "Novomyrhorod", "images": []}, {"id": 479148, "min_date": "2021-07-29T11:36:00Z", "max_date": "2021-07-29T10:42:00Z", "count_points": 3, "latitude": 47.42678, "longitude": 32.72553, "city": "Bereznehuvate", "images": []}, {"id": 479149, "min_date": "2021-07-29T11:36:00Z", "max_date": "2021-07-29T11:36:00Z", "count_points": 1, "latitude": 48.2904, "longitude": 30.48768, "city": "Holovanivs\u2019k", "images": []}, {"id": 479150, "min_date": "2021-07-29T11:36:00Z", "max_date": "2021-07-29T11:36:00Z", "count_points": 2, "latitude": 45.79718, "longitude": 29.46685, "city": "Tatarbunary", "images": []}, {"id": 479151, "min_date": "2021-07-29T11:36:00Z", "max_date": "2021-07-30T09:37:00Z", "count_points": 2, "latitude": 47.85299, "longitude": 31.26186, "city": "Arbuzynka", "images": []}, {"id": 479152, "min_date": "2021-07-29T11:36:00Z", "max_date": "2021-07-29T11:36:00Z", "count_points": 1, "latitude": 46.62444, "longitude": 34.40105, "city": "Ivanivka", "images": []}, {"id": 479153, "min_date": "2021-07-29T11:36:00Z", "max_date": "2021-07-30T10:24:00Z", "count_points": 8, "latitude": 48.32524, "longitude": 30.51548, "city": "Holovanivs\u2019k", "images": []}, {"id": 479154, "min_date": "2021-07-29T11:36:00Z", "max_date": "2021-07-29T11:36:00Z", "count_points": 2, "latitude": 47.64547, "longitude": 36.74097, "city": "Velyka Novosilka", "images": []}, {"id": 479155, "min_date": "2021-07-29T11:36:00Z", "max_date": "2021-07-29T11:36:00Z", "count_points": 1, "latitude": 48.14381, "longitude": 22.85129, "city": "Vylok", "images": []}, {"id": 479156, "min_date": "2021-07-29T11:36:00Z", "max_date": "2021-07-29T11:36:00Z", "count_points": 2, "latitude": 48.67235, "longitude": 33.83057, "city": "Lykhivka", "images": []}, {"id": 479157, "min_date": "2021-07-29T11:36:00Z", "max_date": "2021-07-29T11:36:00Z", "count_points": 1, "latitude": 46.98108, "longitude": 30.51673, "city": "Ivanivka", "images": []}, {"id": 479158, "min_date": "2021-07-29T11:36:00Z", "max_date": "2021-07-29T11:36:00Z", "count_points": 1, "latitude": 47.69263, "longitude": 33.12875, "city": "Shyroke", "images": []}, {"id": 479159, "min_date": "2021-07-29T11:36:00Z", "max_date": "2021-07-27T11:18:00Z", "count_points": 4, "latitude": 47.46566, "longitude": 33.90728, "city": "Novovorontsovka", "images": []}, {"id": 479160, "min_date": "2021-07-29T11:36:00Z", "max_date": "2021-07-29T10:42:00Z", "count_points": 2, "latitude": 46.36249, "longitude": 34.99417, "city": "Partyzany", "images": []}, {"id": 479161, "min_date": "2021-07-29T11:36:00Z", "max_date": "2021-07-29T11:36:00Z", "count_points": 1, "latitude": 47.32719, "longitude": 32.50592, "city": "Bashtanka", "images": []}, {"id": 479162, "min_date": "2021-07-29T11:36:00Z", "max_date": "2021-08-01T11:30:00Z", "count_points": 14, "latitude": 46.80977, "longitude": 31.78816, "city": "Parutyne", "images": []}, {"id": 479163, "min_date": "2021-07-29T11:36:00Z", "max_date": "2021-07-29T11:36:00Z", "count_points": 1, "latitude": 47.70923, "longitude": 30.08846, "city": "Ananyiv Pershyi", "images": []}, {"id": 479164, "min_date": "2021-07-29T11:36:00Z", "max_date": "2021-07-29T11:36:00Z", "count_points": 4, "latitude": 48.38263, "longitude": 36.78751, "city": "Mezhova", "images": []}, {"id": 479165, "min_date": "2021-07-29T11:36:00Z", "max_date": "2021-07-29T11:36:00Z", "count_points": 2, "latitude": 46.80493, "longitude": 32.71397, "city": "Oleksandrivka", "images": []}, {"id": 479166, "min_date": "2021-07-29T11:36:00Z", "max_date": "2021-07-29T11:36:00Z", "count_points": 1, "latitude": 45.87896, "longitude": 30.06186, "city": "Kulevcha", "images": []}, {"id": 479167, "min_date": "2021-07-29T11:36:00Z", "max_date": "2021-07-29T10:42:00Z", "count_points": 4, "latitude": 46.19314, "longitude": 30.15556, "city": "Bilhorod-Dnistrovskyi", "images": []}, {"id": 479168, "min_date": "2021-07-29T11:36:00Z", "max_date": "2021-07-29T11:36:00Z", "count_points": 3, "latitude": 46.14024, "longitude": 33.43075, "city": "Kalanchak", "images": []}, {"id": 479169, "min_date": "2021-07-29T11:36:00Z", "max_date": "2021-07-29T11:36:00Z", "count_points": 2, "latitude": 47.74604, "longitude": 36.44792, "city": "Hulyaypole", "images": []}, {"id": 479170, "min_date": "2021-07-29T11:38:00Z", "max_date": "2021-07-29T11:38:00Z", "count_points": 1, "latitude": 52.04971, "longitude": 32.74153, "city": "Semenivka", "images": []}, {"id": 479171, "min_date": "2021-07-29T23:50:00Z", "max_date": "2021-07-29T23:50:00Z", "count_points": 1, "latitude": 46.83023, "longitude": 34.33746, "city": "Nyzhni Sirohozy", "images": []}, {"id": 479172, "min_date": "2021-07-29T23:50:00Z", "max_date": "2021-07-29T23:50:00Z", "count_points": 1, "latitude": 46.74495, "longitude": 34.29393, "city": "Nyzhni Sirohozy", "images": []}, {"id": 479173, "min_date": "2021-07-29T23:50:00Z", "max_date": "2021-07-29T22:54:00Z", "count_points": 2, "latitude": 50.18438, "longitude": 34.34888, "city": "Zin\u2019kiv", "images": []}, {"id": 479174, "min_date": "2021-07-29T23:50:00Z", "max_date": "2021-07-29T23:50:00Z", "count_points": 2, "latitude": 46.88579, "longitude": 34.0631, "city": "Velyka Lepetykha", "images": []}, {"id": 479175, "min_date": "2021-07-29T23:50:00Z", "max_date": "2021-08-01T11:30:00Z", "count_points": 12, "latitude": 48.15469, "longitude": 33.4547, "city": "Zhovti Vody", "images": []}, {"id": 479176, "min_date": "2021-07-29T23:50:00Z", "max_date": "2021-07-29T23:50:00Z", "count_points": 2, "latitude": 47.3924, "longitude": 34.20281, "city": "Verkhniy Rohachyk", "images": []}, {"id": 479177, "min_date": "2021-07-29T23:50:00Z", "max_date": "2021-07-29T23:50:00Z", "count_points": 1, "latitude": 46.90978, "longitude": 33.28734, "city": "Beryslav", "images": []}, {"id": 479178, "min_date": "2021-07-29T23:50:00Z", "max_date": "2021-07-30T00:36:00Z", "count_points": 11, "latitude": 46.85194, "longitude": 34.40456, "city": "Nyzhni Sirohozy", "images": []}, {"id": 479179, "min_date": "2021-07-29T23:50:00Z", "max_date": "2021-07-29T23:00:00Z", "count_points": 2, "latitude": 46.97946, "longitude": 34.29588, "city": "Nyzhni Sirohozy", "images": []}, {"id": 479180, "min_date": "2021-07-29T23:50:00Z", "max_date": "2021-07-30T00:36:00Z", "count_points": 2, "latitude": 48.74379, "longitude": 30.16236, "city": "Uman\u2019", "images": []}, {"id": 479181, "min_date": "2021-07-29T23:50:00Z", "max_date": "2021-07-29T23:50:00Z", "count_points": 1, "latitude": 50.69347, "longitude": 29.58432, "city": "Piskivka", "images": []}, {"id": 479182, "min_date": "2021-07-29T23:50:00Z", "max_date": "2021-07-29T23:50:00Z", "count_points": 1, "latitude": 47.58931, "longitude": 33.58587, "city": "Vysokopillya", "images": []}, {"id": 479183, "min_date": "2021-07-29T23:50:00Z", "max_date": "2021-07-29T23:50:00Z", "count_points": 2, "latitude": 47.04642, "longitude": 35.93727, "city": "Rozivka", "images": []}, {"id": 479184, "min_date": "2021-07-29T23:50:00Z", "max_date": "2021-07-30T00:36:00Z", "count_points": 3, "latitude": 50.05265, "longitude": 37.26612, "city": "Velykyy Burluk", "images": []}, {"id": 479185, "min_date": "2021-07-29T23:50:00Z", "max_date": "2021-07-29T22:54:00Z", "count_points": 4, "latitude": 49.92458, "longitude": 37.81916, "city": "Dvorichna", "images": []}, {"id": 479186, "min_date": "2021-07-29T23:50:00Z", "max_date": "2021-07-29T23:50:00Z", "count_points": 1, "latitude": 48.48429, "longitude": 34.29424, "city": "Novomykolayivka", "images": []}, {"id": 479187, "min_date": "2021-07-29T23:52:00Z", "max_date": "2021-07-30T11:17:00Z", "count_points": 3, "latitude": 45.97521, "longitude": 29.20522, "city": "Dmytrivka", "images": []}, {"id": 479188, "min_date": "2021-07-29T23:52:00Z", "max_date": "2021-07-29T23:52:00Z", "count_points": 1, "latitude": 46.43436, "longitude": 34.17614, "city": "Novotroyits\u2019ke", "images": []}, {"id": 479189, "min_date": "2021-07-29T23:52:00Z", "max_date": "2021-08-01T09:48:00Z", "count_points": 11, "latitude": 45.90948, "longitude": 28.91369, "city": "Novi Troyany", "images": []}, {"id": 479190, "min_date": "2021-07-29T23:52:00Z", "max_date": "2021-07-30T00:36:00Z", "count_points": 4, "latitude": 45.80735, "longitude": 29.51356, "city": "Tatarbunary", "images": []}, {"id": 479191, "min_date": "2021-07-30T09:37:00Z", "max_date": "2021-07-30T09:37:00Z", "count_points": 3, "latitude": 47.72598, "longitude": 31.84458, "city": "Yelanets\u2019", "images": []}, {"id": 479192, "min_date": "2021-07-30T09:37:00Z", "max_date": "2021-07-30T10:24:00Z", "count_points": 3, "latitude": 45.92839, "longitude": 29.90999, "city": "Kulevcha", "images": []}, {"id": 479193, "min_date": "2021-07-30T09:37:00Z", "max_date": "2021-07-30T09:37:00Z", "count_points": 3, "latitude": 48.30566, "longitude": 33.84424, "city": "Vyshneve", "images": []}, {"id": 479194, "min_date": "2021-07-30T09:37:00Z", "max_date": "2021-07-30T10:24:00Z", "count_points": 6, "latitude": 45.89278, "longitude": 30.00701, "city": "Kulevcha", "images": []}, {"id": 479195, "min_date": "2021-07-30T09:37:00Z", "max_date": "2021-07-27T09:42:00Z", "count_points": 2, "latitude": 50.72677, "longitude": 35.01799, "city": "Boromlya", "images": []}, {"id": 479196, "min_date": "2021-07-30T09:37:00Z", "max_date": "2021-07-30T09:37:00Z", "count_points": 1, "latitude": 48.51082, "longitude": 33.86786, "city": "Vyshneve", "images": []}, {"id": 479197, "min_date": "2021-07-30T09:37:00Z", "max_date": "2021-07-30T09:37:00Z", "count_points": 1, "latitude": 47.38625, "longitude": 32.5614, "city": "Bashtanka", "images": []}, {"id": 479198, "min_date": "2021-07-30T09:37:00Z", "max_date": "2021-08-01T23:42:00Z", "count_points": 7, "latitude": 48.81828, "longitude": 32.53053, "city": "Yelyzavethradka", "images": []}, {"id": 479199, "min_date": "2021-07-30T09:37:00Z", "max_date": "2021-07-30T09:37:00Z", "count_points": 2, "latitude": 46.94954, "longitude": 32.71662, "city": "Oleksandrivka", "images": []}, {"id": 479200, "min_date": "2021-07-30T09:37:00Z", "max_date": "2021-07-30T11:19:00Z", "count_points": 3, "latitude": 46.84478, "longitude": 32.41776, "city": "Chornobayivka", "images": []}, {"id": 479201, "min_date": "2021-07-30T09:37:00Z", "max_date": "2021-07-30T09:37:00Z", "count_points": 1, "latitude": 46.77472, "longitude": 31.67337, "city": "Ochakiv", "images": []}, {"id": 479202, "min_date": "2021-07-30T09:37:00Z", "max_date": "2021-07-30T09:37:00Z", "count_points": 2, "latitude": 49.0244, "longitude": 32.42283, "city": "Oleksandrivka", "images": []}, {"id": 479203, "min_date": "2021-07-30T09:37:00Z", "max_date": "2021-07-30T09:37:00Z", "count_points": 5, "latitude": 48.08608, "longitude": 33.56751, "city": "Kryvyi Rih", "images": []}, {"id": 479204, "min_date": "2021-07-30T09:37:00Z", "max_date": "2021-07-30T10:24:00Z", "count_points": 6, "latitude": 47.9308, "longitude": 31.43871, "city": "Arbuzynka", "images": []}, {"id": 479205, "min_date": "2021-07-30T09:37:00Z", "max_date": "2021-07-30T10:24:00Z", "count_points": 3, "latitude": 47.91153, "longitude": 32.9737, "city": "Kazanka", "images": []}, {"id": 479206, "min_date": "2021-07-30T09:37:00Z", "max_date": "2021-07-30T09:37:00Z", "count_points": 1, "latitude": 48.04593, "longitude": 29.34567, "city": "Slobidka", "images": []}, {"id": 479207, "min_date": "2021-07-30T11:17:00Z", "max_date": "2021-07-30T11:17:00Z", "count_points": 8, "latitude": 49.99877, "longitude": 37.81302, "city": "Dvorichna", "images": []}, {"id": 479208, "min_date": "2021-07-30T11:17:00Z", "max_date": "2021-08-01T11:24:00Z", "count_points": 21, "latitude": 45.82555, "longitude": 28.80761, "city": "Horodnye", "images": []}, {"id": 479209, "min_date": "2021-07-30T11:17:00Z", "max_date": "2021-07-30T10:24:00Z", "count_points": 2, "latitude": 50.40767, "longitude": 25.6432, "city": "Tarakaniv", "images": []}, {"id": 479210, "min_date": "2021-07-30T11:17:00Z", "max_date": "2021-07-30T11:17:00Z", "count_points": 1, "latitude": 45.92229, "longitude": 29.70751, "city": "Zorya", "images": []}, {"id": 479211, "min_date": "2021-07-30T11:17:00Z", "max_date": "2021-07-30T11:17:00Z", "count_points": 1, "latitude": 49.44614, "longitude": 23.07814, "city": "Staryy Sambir", "images": []}, {"id": 479212, "min_date": "2021-07-30T11:17:00Z", "max_date": "2021-07-30T12:06:00Z", "count_points": 3, "latitude": 45.72138, "longitude": 28.57618, "city": "Vynohradivka", "images": []}, {"id": 479213, "min_date": "2021-07-30T11:17:00Z", "max_date": "2021-07-30T11:17:00Z", "count_points": 2, "latitude": 50.08205, "longitude": 23.88394, "city": "Hlynsk", "images": []}, {"id": 479214, "min_date": "2021-07-30T11:17:00Z", "max_date": "2021-07-30T11:17:00Z", "count_points": 1, "latitude": 50.37033, "longitude": 24.35002, "city": "Chervonohrad", "images": []}, {"id": 479215, "min_date": "2021-07-30T11:17:00Z", "max_date": "2021-07-30T10:24:00Z", "count_points": 4, "latitude": 45.99199, "longitude": 29.0853, "city": "Dmytrivka", "images": []}, {"id": 479216, "min_date": "2021-07-30T11:19:00Z", "max_date": "2021-07-30T11:19:00Z", "count_points": 5, "latitude": 48.62544, "longitude": 31.68461, "city": "Mala Vyska", "images": []}, {"id": 479217, "min_date": "2021-07-30T11:19:00Z", "max_date": "2021-07-30T11:19:00Z", "count_points": 1, "latitude": 47.78821, "longitude": 30.32058, "city": "Lyubashivka", "images": []}, {"id": 479218, "min_date": "2021-07-30T11:19:00Z", "max_date": "2021-07-30T10:24:00Z", "count_points": 10, "latitude": 47.29941, "longitude": 36.86301, "city": "Komysh-Zorya", "images": []}, {"id": 479219, "min_date": "2021-07-30T11:19:00Z", "max_date": "2021-07-30T11:19:00Z", "count_points": 1, "latitude": 48.59729, "longitude": 31.50761, "city": "Zlynka", "images": []}, {"id": 479220, "min_date": "2021-07-30T11:19:00Z", "max_date": "2021-07-30T11:19:00Z", "count_points": 2, "latitude": 47.28245, "longitude": 32.1779, "city": "Bashtanka", "images": []}, {"id": 479221, "min_date": "2021-07-30T11:19:00Z", "max_date": "2021-07-30T11:19:00Z", "count_points": 1, "latitude": 48.11241, "longitude": 37.01258, "city": "Krasnoarmiys\u2019k", "images": []}, {"id": 479222, "min_date": "2021-07-30T11:19:00Z", "max_date": "2021-07-30T11:19:00Z", "count_points": 2, "latitude": 47.22862, "longitude": 33.12971, "city": "Velyka Oleksandrivka", "images": []}, {"id": 479223, "min_date": "2021-07-30T11:19:00Z", "max_date": "2021-07-30T11:19:00Z", "count_points": 1, "latitude": 48.09437, "longitude": 31.22543, "city": "Lysa Hora", "images": []}, {"id": 479224, "min_date": "2021-07-30T11:19:00Z", "max_date": "2021-07-30T11:19:00Z", "count_points": 1, "latitude": 47.31515, "longitude": 36.66043, "city": "Komysh-Zorya", "images": []}, {"id": 479225, "min_date": "2021-07-30T11:19:00Z", "max_date": "2021-07-30T11:19:00Z", "count_points": 1, "latitude": 46.81906, "longitude": 30.09933, "city": "Rozdil\u2019na", "images": []}, {"id": 479226, "min_date": "2021-07-30T11:19:00Z", "max_date": "2021-07-30T11:19:00Z", "count_points": 1, "latitude": 47.94352, "longitude": 32.14184, "city": "Bobrynets", "images": []}, {"id": 479227, "min_date": "2021-07-30T11:19:00Z", "max_date": "2021-07-30T12:06:00Z", "count_points": 3, "latitude": 47.53796, "longitude": 29.20982, "city": "Okny", "images": []}, {"id": 479304, "min_date": "2021-07-31T11:00:00Z", "max_date": "2021-07-31T11:00:00Z", "count_points": 2, "latitude": 50.36665, "longitude": 24.07184, "city": "Belz", "images": []}, {"id": 479228, "min_date": "2021-07-30T11:19:00Z", "max_date": "2021-08-01T10:41:00Z", "count_points": 2, "latitude": 47.54015, "longitude": 30.35068, "city": "Shyryayeve", "images": []}, {"id": 479229, "min_date": "2021-07-30T23:31:00Z", "max_date": "2021-07-31T00:18:00Z", "count_points": 3, "latitude": 47.61831, "longitude": 32.66476, "city": "Novyy Buh", "images": []}, {"id": 479230, "min_date": "2021-07-30T23:31:00Z", "max_date": "2021-07-31T00:18:00Z", "count_points": 2, "latitude": 48.64226, "longitude": 33.57601, "city": "Piatykhatky", "images": []}, {"id": 479231, "min_date": "2021-07-30T23:31:00Z", "max_date": "2021-07-31T00:18:00Z", "count_points": 4, "latitude": 48.25656, "longitude": 30.5097, "city": "Pobugskoye", "images": []}, {"id": 479232, "min_date": "2021-07-30T23:31:00Z", "max_date": "2021-07-30T23:31:00Z", "count_points": 2, "latitude": 47.84244, "longitude": 32.44882, "city": "Ustynivka", "images": []}, {"id": 479233, "min_date": "2021-07-30T23:31:00Z", "max_date": "2021-07-30T23:31:00Z", "count_points": 1, "latitude": 50.89116, "longitude": 34.1579, "city": "Terny", "images": []}, {"id": 479234, "min_date": "2021-07-30T23:31:00Z", "max_date": "2021-07-30T23:31:00Z", "count_points": 1, "latitude": 47.85878, "longitude": 30.45987, "city": "Vradiyivka", "images": []}, {"id": 479235, "min_date": "2021-07-30T23:31:00Z", "max_date": "2021-07-31T00:18:00Z", "count_points": 7, "latitude": 47.86952, "longitude": 32.91092, "city": "Kazanka", "images": []}, {"id": 479236, "min_date": "2021-07-30T23:31:00Z", "max_date": "2021-07-30T23:31:00Z", "count_points": 1, "latitude": 47.59498, "longitude": 36.3902, "city": "Chapayevka", "images": []}, {"id": 479237, "min_date": "2021-07-30T23:31:00Z", "max_date": "2021-07-31T00:18:00Z", "count_points": 3, "latitude": 50.03004, "longitude": 26.32261, "city": "Lyakhovtsy", "images": []}, {"id": 479238, "min_date": "2021-07-30T23:31:00Z", "max_date": "2021-07-31T10:06:00Z", "count_points": 4, "latitude": 50.40075, "longitude": 36.00353, "city": "Zolochiv", "images": []}, {"id": 479239, "min_date": "2021-07-30T23:31:00Z", "max_date": "2021-07-30T23:31:00Z", "count_points": 1, "latitude": 49.9097, "longitude": 35.33387, "city": "Kolomak", "images": []}, {"id": 479240, "min_date": "2021-07-30T23:31:00Z", "max_date": "2021-07-30T22:36:00Z", "count_points": 2, "latitude": 50.27075, "longitude": 32.97409, "city": "Chornukhy", "images": []}, {"id": 479241, "min_date": "2021-07-31T01:11:00Z", "max_date": "2021-07-31T01:11:00Z", "count_points": 1, "latitude": 48.12743, "longitude": 29.76095, "city": "Peschana", "images": []}, {"id": 479242, "min_date": "2021-07-31T09:17:00Z", "max_date": "2021-07-31T09:17:00Z", "count_points": 2, "latitude": 47.37989, "longitude": 32.05382, "city": "Nova Odesa", "images": []}, {"id": 479243, "min_date": "2021-07-31T09:17:00Z", "max_date": "2021-07-31T10:58:00Z", "count_points": 3, "latitude": 47.22209, "longitude": 34.88021, "city": "Mala Bilozerka", "images": []}, {"id": 479244, "min_date": "2021-07-31T09:17:00Z", "max_date": "2021-08-01T09:48:00Z", "count_points": 9, "latitude": 46.44009, "longitude": 34.85988, "city": "Partyzany", "images": []}, {"id": 479245, "min_date": "2021-07-31T09:17:00Z", "max_date": "2021-07-31T10:06:00Z", "count_points": 3, "latitude": 47.46618, "longitude": 33.65306, "city": "Vysokopillya", "images": []}, {"id": 479246, "min_date": "2021-07-31T09:17:00Z", "max_date": "2021-07-31T09:17:00Z", "count_points": 1, "latitude": 48.29933, "longitude": 32.68396, "city": "Novhorodka", "images": []}, {"id": 479247, "min_date": "2021-07-31T09:17:00Z", "max_date": "2021-07-31T10:06:00Z", "count_points": 2, "latitude": 48.20762, "longitude": 34.33899, "city": "Krynychky", "images": []}, {"id": 479248, "min_date": "2021-07-31T09:17:00Z", "max_date": "2021-07-31T10:06:00Z", "count_points": 2, "latitude": 47.02588, "longitude": 34.0701, "city": "Velyka Lepetykha", "images": []}, {"id": 479249, "min_date": "2021-07-31T09:17:00Z", "max_date": "2021-07-31T09:17:00Z", "count_points": 2, "latitude": 47.94128, "longitude": 29.8994, "city": "Ananyiv Pershyi", "images": []}, {"id": 479250, "min_date": "2021-07-31T09:17:00Z", "max_date": "2021-07-31T10:06:00Z", "count_points": 3, "latitude": 46.3723, "longitude": 34.9431, "city": "Partyzany", "images": []}, {"id": 479251, "min_date": "2021-07-31T09:17:00Z", "max_date": "2021-07-31T10:06:00Z", "count_points": 12, "latitude": 47.11942, "longitude": 33.11467, "city": "Velyka Oleksandrivka", "images": []}, {"id": 479252, "min_date": "2021-07-31T09:17:00Z", "max_date": "2021-07-31T09:17:00Z", "count_points": 1, "latitude": 47.86865, "longitude": 35.86243, "city": "Novomykolayivka", "images": []}, {"id": 479253, "min_date": "2021-07-31T09:17:00Z", "max_date": "2021-07-31T09:17:00Z", "count_points": 1, "latitude": 47.43971, "longitude": 33.19051, "city": "Velyka Oleksandrivka", "images": []}, {"id": 479254, "min_date": "2021-07-31T09:17:00Z", "max_date": "2021-07-31T09:17:00Z", "count_points": 1, "latitude": 47.79438, "longitude": 37.21719, "city": "Kurakhovo", "images": []}, {"id": 479255, "min_date": "2021-07-31T09:20:00Z", "max_date": "2021-07-31T10:06:00Z", "count_points": 4, "latitude": 48.51619, "longitude": 29.5932, "city": "Viytivka", "images": []}, {"id": 479256, "min_date": "2021-07-31T09:20:00Z", "max_date": "2021-07-31T10:06:00Z", "count_points": 5, "latitude": 50.63199, "longitude": 33.27479, "city": "Romny", "images": []}, {"id": 479257, "min_date": "2021-07-31T10:58:00Z", "max_date": "2021-07-31T10:58:00Z", "count_points": 1, "latitude": 48.51834, "longitude": 26.08555, "city": "Klishkivtsi", "images": []}, {"id": 479258, "min_date": "2021-07-31T10:58:00Z", "max_date": "2021-07-31T11:48:00Z", "count_points": 4, "latitude": 49.20072, "longitude": 34.77679, "city": "Hupalivka", "images": []}, {"id": 479259, "min_date": "2021-07-31T10:58:00Z", "max_date": "2021-08-01T09:48:00Z", "count_points": 4, "latitude": 47.05972, "longitude": 34.35622, "city": "Verkhniy Rohachyk", "images": []}, {"id": 479260, "min_date": "2021-07-31T10:58:00Z", "max_date": "2021-08-01T10:41:00Z", "count_points": 2, "latitude": 46.86461, "longitude": 34.04567, "city": "Nyzhni Sirohozy", "images": []}, {"id": 479261, "min_date": "2021-07-31T10:58:00Z", "max_date": "2021-08-01T10:41:00Z", "count_points": 34, "latitude": 47.95091, "longitude": 29.79051, "city": "Balta", "images": []}, {"id": 479262, "min_date": "2021-07-31T10:58:00Z", "max_date": "2021-07-31T10:58:00Z", "count_points": 2, "latitude": 46.27531, "longitude": 34.03132, "city": "Askaniya-Nova", "images": []}, {"id": 479263, "min_date": "2021-07-31T10:58:00Z", "max_date": "2021-08-01T10:41:00Z", "count_points": 2, "latitude": 46.94917, "longitude": 33.15602, "city": "Dnipryany", "images": []}, {"id": 479264, "min_date": "2021-07-31T10:58:00Z", "max_date": "2021-07-31T10:58:00Z", "count_points": 1, "latitude": 48.44273, "longitude": 33.80844, "city": "Piatykhatky", "images": []}, {"id": 479265, "min_date": "2021-07-31T10:58:00Z", "max_date": "2021-07-31T10:06:00Z", "count_points": 2, "latitude": 48.60962, "longitude": 34.25966, "city": "Verkhn\u2019odniprovs\u2019k", "images": []}, {"id": 479266, "min_date": "2021-07-31T10:58:00Z", "max_date": "2021-07-31T10:58:00Z", "count_points": 2, "latitude": 47.08593, "longitude": 30.50388, "city": "Ivanivka", "images": []}, {"id": 479267, "min_date": "2021-07-31T10:58:00Z", "max_date": "2021-08-01T11:30:00Z", "count_points": 6, "latitude": 48.14435, "longitude": 36.90733, "city": "Mezhova", "images": []}, {"id": 479268, "min_date": "2021-07-31T10:58:00Z", "max_date": "2021-07-31T10:06:00Z", "count_points": 3, "latitude": 48.07395, "longitude": 36.91221, "city": "Velyka Novosilka", "images": []}, {"id": 479269, "min_date": "2021-07-31T10:58:00Z", "max_date": "2021-07-31T10:58:00Z", "count_points": 2, "latitude": 48.77475, "longitude": 25.67638, "city": "Nyrkiv", "images": []}, {"id": 479270, "min_date": "2021-07-31T10:58:00Z", "max_date": "2021-07-31T10:58:00Z", "count_points": 2, "latitude": 46.26262, "longitude": 29.59421, "city": "Plakhtiyivka", "images": []}, {"id": 479271, "min_date": "2021-07-31T10:58:00Z", "max_date": "2021-07-31T10:06:00Z", "count_points": 4, "latitude": 47.48777, "longitude": 31.24239, "city": "Voznesensk", "images": []}, {"id": 479272, "min_date": "2021-07-31T10:58:00Z", "max_date": "2021-07-27T11:18:00Z", "count_points": 3, "latitude": 46.38883, "longitude": 34.73017, "city": "Partyzany", "images": []}, {"id": 479273, "min_date": "2021-07-31T10:58:00Z", "max_date": "2021-07-31T10:58:00Z", "count_points": 1, "latitude": 46.94496, "longitude": 34.44861, "city": "Nyzhni Sirohozy", "images": []}, {"id": 479274, "min_date": "2021-07-31T10:58:00Z", "max_date": "2021-08-01T09:48:00Z", "count_points": 3, "latitude": 46.54235, "longitude": 34.71805, "city": "Partyzany", "images": []}, {"id": 479275, "min_date": "2021-07-31T10:58:00Z", "max_date": "2021-07-31T11:48:00Z", "count_points": 6, "latitude": 46.52836, "longitude": 34.77076, "city": "Partyzany", "images": []}, {"id": 479276, "min_date": "2021-07-31T10:58:00Z", "max_date": "2021-07-31T10:58:00Z", "count_points": 2, "latitude": 49.46993, "longitude": 38.42943, "city": "Nyzhnya Duvanka", "images": []}, {"id": 479277, "min_date": "2021-07-31T10:58:00Z", "max_date": "2021-07-31T10:58:00Z", "count_points": 1, "latitude": 48.15714, "longitude": 26.18808, "city": "Novoselytsya", "images": []}, {"id": 479278, "min_date": "2021-07-31T10:58:00Z", "max_date": "2021-07-31T10:58:00Z", "count_points": 1, "latitude": 48.2201, "longitude": 26.30553, "city": "Marshintsy", "images": []}, {"id": 479279, "min_date": "2021-07-31T10:58:00Z", "max_date": "2021-08-01T23:42:00Z", "count_points": 4, "latitude": 48.29925, "longitude": 33.6407, "city": "Piatykhatky", "images": []}, {"id": 479280, "min_date": "2021-07-31T10:58:00Z", "max_date": "2021-07-31T10:58:00Z", "count_points": 2, "latitude": 48.17692, "longitude": 33.62595, "city": "Zhovti Vody", "images": []}, {"id": 479281, "min_date": "2021-07-31T10:58:00Z", "max_date": "2021-07-31T10:58:00Z", "count_points": 1, "latitude": 48.90843, "longitude": 30.59851, "city": "Talne", "images": []}, {"id": 479282, "min_date": "2021-07-31T10:58:00Z", "max_date": "2021-08-01T10:41:00Z", "count_points": 2, "latitude": 46.93792, "longitude": 32.21783, "city": "Shevchenkove", "images": []}, {"id": 479283, "min_date": "2021-07-31T10:58:00Z", "max_date": "2021-07-31T10:58:00Z", "count_points": 1, "latitude": 45.67733, "longitude": 29.78035, "city": "Tatarbunary", "images": []}, {"id": 479284, "min_date": "2021-07-31T10:58:00Z", "max_date": "2021-07-31T11:48:00Z", "count_points": 5, "latitude": 46.53725, "longitude": 34.47706, "city": "Ivanivka", "images": []}, {"id": 479285, "min_date": "2021-07-31T10:58:00Z", "max_date": "2021-07-31T10:58:00Z", "count_points": 2, "latitude": 46.9956, "longitude": 32.52684, "city": "Oleksandrivka", "images": []}, {"id": 479286, "min_date": "2021-07-31T10:58:00Z", "max_date": "2021-07-31T10:58:00Z", "count_points": 2, "latitude": 47.46833, "longitude": 32.32893, "city": "Bashtanka", "images": []}, {"id": 479287, "min_date": "2021-07-31T10:58:00Z", "max_date": "2021-07-31T10:06:00Z", "count_points": 3, "latitude": 47.20908, "longitude": 32.21525, "city": "Bashtanka", "images": []}, {"id": 479288, "min_date": "2021-07-31T10:58:00Z", "max_date": "2021-07-31T00:18:00Z", "count_points": 2, "latitude": 48.15773, "longitude": 29.96943, "city": "Zavallya", "images": []}, {"id": 479289, "min_date": "2021-07-31T10:58:00Z", "max_date": "2021-07-31T10:58:00Z", "count_points": 1, "latitude": 48.10866, "longitude": 30.06678, "city": "Savran", "images": []}, {"id": 479290, "min_date": "2021-07-31T10:58:00Z", "max_date": "2021-07-31T10:58:00Z", "count_points": 3, "latitude": 47.75812, "longitude": 30.30451, "city": "Lyubashivka", "images": []}, {"id": 479291, "min_date": "2021-07-31T10:58:00Z", "max_date": "2021-07-31T10:58:00Z", "count_points": 3, "latitude": 48.17568, "longitude": 29.69671, "city": "Peschana", "images": []}, {"id": 479292, "min_date": "2021-07-31T10:58:00Z", "max_date": "2021-07-31T10:06:00Z", "count_points": 2, "latitude": 47.25136, "longitude": 36.60534, "city": "Kuybysheve", "images": []}, {"id": 479293, "min_date": "2021-07-31T10:58:00Z", "max_date": "2021-07-31T10:58:00Z", "count_points": 2, "latitude": 46.70862, "longitude": 34.9258, "city": "Yakymivka", "images": []}, {"id": 479294, "min_date": "2021-07-31T10:58:00Z", "max_date": "2021-07-31T10:06:00Z", "count_points": 3, "latitude": 45.91465, "longitude": 30.04504, "city": "Kulevcha", "images": []}, {"id": 479295, "min_date": "2021-07-31T10:58:00Z", "max_date": "2021-07-31T10:58:00Z", "count_points": 1, "latitude": 45.90055, "longitude": 29.95639, "city": "Kulevcha", "images": []}, {"id": 479296, "min_date": "2021-07-31T10:58:00Z", "max_date": "2021-07-31T10:06:00Z", "count_points": 2, "latitude": 46.71356, "longitude": 30.06361, "city": "Stepove", "images": []}, {"id": 479297, "min_date": "2021-07-31T10:58:00Z", "max_date": "2021-07-31T10:58:00Z", "count_points": 1, "latitude": 47.41803, "longitude": 33.11682, "city": "Velyka Oleksandrivka", "images": []}, {"id": 479298, "min_date": "2021-07-31T10:58:00Z", "max_date": "2021-07-26T11:42:00Z", "count_points": 2, "latitude": 47.92894, "longitude": 32.80771, "city": "Kazanka", "images": []}, {"id": 479299, "min_date": "2021-07-31T10:58:00Z", "max_date": "2021-07-31T11:48:00Z", "count_points": 3, "latitude": 47.27821, "longitude": 30.98626, "city": "Berezivka", "images": []}, {"id": 479300, "min_date": "2021-07-31T10:58:00Z", "max_date": "2021-07-31T10:06:00Z", "count_points": 2, "latitude": 47.92813, "longitude": 30.20227, "city": "Lyubashivka", "images": []}, {"id": 479301, "min_date": "2021-07-31T10:58:00Z", "max_date": "2021-07-31T10:58:00Z", "count_points": 1, "latitude": 45.76748, "longitude": 28.9058, "city": "Kalcheva", "images": []}, {"id": 479302, "min_date": "2021-07-31T10:58:00Z", "max_date": "2021-07-31T10:58:00Z", "count_points": 1, "latitude": 49.15109, "longitude": 31.92522, "city": "Smila", "images": []}, {"id": 479303, "min_date": "2021-07-31T10:58:00Z", "max_date": "2021-07-31T10:06:00Z", "count_points": 2, "latitude": 48.71765, "longitude": 31.81935, "city": "Novomyrhorod", "images": []},