[{"id": 477710, "min_date": "2021-07-15T00:05:00Z", "max_date": "2021-07-15T00:18:00Z", "count_points": 8, "latitude": 49.95343, "longitude": 36.29346, "city": "Kharkiv", "images": []}, {"id": 477693, "min_date": "2021-07-12T08:55:00Z", "max_date": "2021-07-12T08:55:00Z", "count_points": 1, "latitude": 47.874, "longitude": 34.785, "city": "Tomakivka", "images": []}, {"id": 477694, "min_date": "2021-07-12T08:55:00Z", "max_date": "2021-07-12T08:55:00Z", "count_points": 1, "latitude": 47.791, "longitude": 36.58, "city": "Velyka Novosilka", "images": []}, {"id": 477695, "min_date": "2021-07-12T08:55:00Z", "max_date": "2021-07-12T09:24:00Z", "count_points": 4, "latitude": 48.06822, "longitude": 33.80447, "city": "Sofiyivka", "images": []}, {"id": 477696, "min_date": "2021-07-12T08:55:00Z", "max_date": "2021-07-12T08:55:00Z", "count_points": 2, "latitude": 48.508, "longitude": 34.8015, "city": "Kamianske", "images": []}, {"id": 477697, "min_date": "2021-07-12T08:55:00Z", "max_date": "2021-07-12T08:55:00Z", "count_points": 1, "latitude": 48.863, "longitude": 31.797, "city": "Kapitanivka", "images": []}, {"id": 477698, "min_date": "2021-07-12T08:55:00Z", "max_date": "2021-07-12T08:55:00Z", "count_points": 1, "latitude": 47.634, "longitude": 33.842, "city": "Apostolove", "images": []}, {"id": 477699, "min_date": "2021-07-12T08:55:00Z", "max_date": "2021-07-12T09:24:00Z", "count_points": 3, "latitude": 51.68317, "longitude": 32.70578, "city": "Kholmy", "images": []}, {"id": 477700, "min_date": "2021-07-12T10:40:00Z", "max_date": "2021-07-12T10:40:00Z", "count_points": 1, "latitude": 48.034, "longitude": 36.074, "city": "Pokrovs\u2019ke", "images": []}, {"id": 477701, "min_date": "2021-07-13T11:25:00Z", "max_date": "2021-07-13T11:25:00Z", "count_points": 1, "latitude": 48.843, "longitude": 26.422, "city": "Chemerivtsi", "images": []}, {"id": 477702, "min_date": "2021-07-14T08:45:00Z", "max_date": "2021-07-15T10:06:00Z", "count_points": 4, "latitude": 50.30321, "longitude": 37.12081, "city": "Vovchans\u2019k", "images": []}, {"id": 477703, "min_date": "2021-07-14T08:45:00Z", "max_date": "2021-07-14T10:24:00Z", "count_points": 6, "latitude": 50.59722, "longitude": 34.63207, "city": "Lebedyn", "images": []}, {"id": 477704, "min_date": "2021-07-14T08:45:00Z", "max_date": "2021-07-14T08:45:00Z", "count_points": 1, "latitude": 49.648, "longitude": 32.559, "city": "Orzhytsya", "images": []}, {"id": 477705, "min_date": "2021-07-14T08:45:00Z", "max_date": "2021-07-14T08:45:00Z", "count_points": 1, "latitude": 47.014, "longitude": 30.855, "city": "Kurisove", "images": []}, {"id": 477706, "min_date": "2021-07-14T10:30:00Z", "max_date": "2021-07-14T10:24:00Z", "count_points": 5, "latitude": 48.87053, "longitude": 38.24204, "city": "Bilohorivka", "images": []}, {"id": 477707, "min_date": "2021-07-14T10:30:00Z", "max_date": "2021-07-14T10:24:00Z", "count_points": 5, "latitude": 48.8295, "longitude": 30.04087, "city": "Verkhnyachka", "images": []}, {"id": 477708, "min_date": "2021-07-14T10:30:00Z", "max_date": "2021-07-14T10:30:00Z", "count_points": 1, "latitude": 46.322, "longitude": 34.678, "city": "Partyzany", "images": []}, {"id": 477709, "min_date": "2021-07-14T19:55:00Z", "max_date": "2021-07-14T19:55:00Z", "count_points": 2, "latitude": 48.129, "longitude": 31.315, "city": "Pomichna", "images": []}, {"id": 477786, "min_date": "2021-07-13T09:54:00Z", "max_date": "2021-07-13T09:54:00Z", "count_points": 1, "latitude": 49.42553, "longitude": 37.07091, "city": "Savyntsi", "images": []}, {"id": 477787, "min_date": "2021-07-13T09:54:00Z", "max_date": "2021-07-17T11:06:00Z", "count_points": 10, "latitude": 48.80324, "longitude": 26.90063, "city": "Dunaivtsi", "images": []}, {"id": 477788, "min_date": "2021-07-13T09:54:00Z", "max_date": "2021-07-13T10:42:00Z", "count_points": 2, "latitude": 48.11238, "longitude": 38.91517, "city": "Miusyns\u2019k", "images": []}, {"id": 477789, "min_date": "2021-07-13T09:54:00Z", "max_date": "2021-07-13T11:36:00Z", "count_points": 4, "latitude": 48.26554, "longitude": 25.98419, "city": "Chernivtsi", "images": []}, {"id": 477790, "min_date": "2021-07-13T09:54:00Z", "max_date": "2021-07-13T09:54:00Z", "count_points": 1, "latitude": 49.83901, "longitude": 38.37542, "city": "Troyits\u2019ke", "images": []}, {"id": 477791, "min_date": "2021-07-13T09:54:00Z", "max_date": "2021-07-13T09:54:00Z", "count_points": 2, "latitude": 49.83128, "longitude": 30.14894, "city": "Bila Tserkva", "images": []}, {"id": 477792, "min_date": "2021-07-13T09:54:00Z", "max_date": "2021-07-13T09:54:00Z", "count_points": 1, "latitude": 49.34613, "longitude": 38.52047, "city": "Bilokurakyne", "images": []}, {"id": 477793, "min_date": "2021-07-13T09:54:00Z", "max_date": "2021-07-13T10:42:00Z", "count_points": 4, "latitude": 49.78083, "longitude": 24.43575, "city": "Verkhnyaya Belka", "images": []}, {"id": 477794, "min_date": "2021-07-13T09:54:00Z", "max_date": "2021-07-13T09:54:00Z", "count_points": 1, "latitude": 48.61332, "longitude": 39.39342, "city": "Luhansk", "images": []}, {"id": 477795, "min_date": "2021-07-13T11:36:00Z", "max_date": "2021-07-13T11:36:00Z", "count_points": 10, "latitude": 47.81726, "longitude": 36.07261, "city": "Ternuvate", "images": []}, {"id": 477796, "min_date": "2021-07-13T11:36:00Z", "max_date": "2021-07-13T11:36:00Z", "count_points": 2, "latitude": 48.97277, "longitude": 34.38708, "city": "Tsarychanka", "images": []}, {"id": 477797, "min_date": "2021-07-13T11:36:00Z", "max_date": "2021-07-13T11:36:00Z", "count_points": 4, "latitude": 48.07987, "longitude": 31.40732, "city": "Pomichna", "images": []}, {"id": 477798, "min_date": "2021-07-13T23:48:00Z", "max_date": "2021-07-14T00:36:00Z", "count_points": 2, "latitude": 51.11814, "longitude": 34.33565, "city": "Bilopillya", "images": []}, {"id": 477799, "min_date": "2021-07-13T23:48:00Z", "max_date": "2021-07-16T00:00:00Z", "count_points": 7, "latitude": 50.01385, "longitude": 34.07599, "city": "Velyki Sorochyntsi", "images": []}, {"id": 477800, "min_date": "2021-07-13T23:48:00Z", "max_date": "2021-07-16T00:00:00Z", "count_points": 7, "latitude": 48.53001, "longitude": 32.50426, "city": "Adzhamka", "images": []}, {"id": 477801, "min_date": "2021-07-13T23:48:00Z", "max_date": "2021-07-13T23:00:00Z", "count_points": 2, "latitude": 48.74359, "longitude": 30.16152, "city": "Uman\u2019", "images": []}, {"id": 477802, "min_date": "2021-07-13T23:48:00Z", "max_date": "2021-07-13T23:48:00Z", "count_points": 1, "latitude": 49.92394, "longitude": 34.58236, "city": "Oposhnya", "images": []}, {"id": 477803, "min_date": "2021-07-13T23:48:00Z", "max_date": "2021-07-13T23:00:00Z", "count_points": 2, "latitude": 48.24938, "longitude": 39.72535, "city": "Krasnodon", "images": []}, {"id": 477804, "min_date": "2021-07-13T23:48:00Z", "max_date": "2021-07-15T00:18:00Z", "count_points": 4, "latitude": 49.07968, "longitude": 34.88957, "city": "Hupalivka", "images": []}, {"id": 477805, "min_date": "2021-07-13T23:48:00Z", "max_date": "2021-07-18T23:54:00Z", "count_points": 2, "latitude": 50.22021, "longitude": 33.40261, "city": "Sencha", "images": []}, {"id": 477806, "min_date": "2021-07-13T23:48:00Z", "max_date": "2021-07-16T00:00:00Z", "count_points": 7, "latitude": 49.18392, "longitude": 33.45855, "city": "Kremenchuk", "images": []}, {"id": 477807, "min_date": "2021-07-13T23:48:00Z", "max_date": "2021-07-14T00:36:00Z", "count_points": 2, "latitude": 49.00145, "longitude": 23.80862, "city": "Bolekhiv", "images": []}, {"id": 477808, "min_date": "2021-07-14T09:36:00Z", "max_date": "2021-07-14T10:24:00Z", "count_points": 2, "latitude": 48.56493, "longitude": 29.60034, "city": "Viytivka", "images": []}, {"id": 477809, "min_date": "2021-07-14T09:36:00Z", "max_date": "2021-07-14T10:24:00Z", "count_points": 2, "latitude": 47.92893, "longitude": 33.36182, "city": "Kryvyi Rih", "images": []}, {"id": 477810, "min_date": "2021-07-14T11:12:00Z", "max_date": "2021-07-14T11:12:00Z", "count_points": 2, "latitude": 48.20844, "longitude": 31.32289, "city": "Pomichna", "images": []}, {"id": 477811, "min_date": "2021-07-14T11:12:00Z", "max_date": "2021-07-14T11:12:00Z", "count_points": 3, "latitude": 46.60674, "longitude": 33.72791, "city": "Askaniya-Nova", "images": []}, {"id": 477812, "min_date": "2021-07-14T11:18:00Z", "max_date": "2021-07-14T11:18:00Z", "count_points": 1, "latitude": 50.38863, "longitude": 25.36614, "city": "Demydivka", "images": []}, {"id": 477813, "min_date": "2021-07-14T11:18:00Z", "max_date": "2021-07-14T10:24:00Z", "count_points": 2, "latitude": 50.80165, "longitude": 33.05113, "city": "Talalayivka", "images": []}, {"id": 477814, "min_date": "2021-07-14T11:18:00Z", "max_date": "2021-07-14T11:18:00Z", "count_points": 1, "latitude": 49.67384, "longitude": 35.07787, "city": "Chutove", "images": []}, {"id": 477815, "min_date": "2021-07-14T11:18:00Z", "max_date": "2021-07-14T11:18:00Z", "count_points": 1, "latitude": 48.6073, "longitude": 26.85599, "city": "Kel\u2019mentsi", "images": []}, {"id": 477816, "min_date": "2021-07-14T23:30:00Z", "max_date": "2021-07-15T00:18:00Z", "count_points": 2, "latitude": 50.25776, "longitude": 33.90362, "city": "Hadyach", "images": []}, {"id": 477817, "min_date": "2021-07-14T23:30:00Z", "max_date": "2021-07-15T00:18:00Z", "count_points": 2, "latitude": 47.97952, "longitude": 33.5131, "city": "Kryvyi Rih", "images": []}, {"id": 477818, "min_date": "2021-07-14T23:30:00Z", "max_date": "2021-07-14T23:30:00Z", "count_points": 1, "latitude": 48.52739, "longitude": 34.905, "city": "Dnipro", "images": []}, {"id": 477819, "min_date": "2021-07-14T23:30:00Z", "max_date": "2021-07-15T00:18:00Z", "count_points": 5, "latitude": 45.40653, "longitude": 32.50154, "city": "Olenevka", "images": []}, {"id": 477820, "min_date": "2021-07-15T01:06:00Z", "max_date": "2021-07-15T01:06:00Z", "count_points": 1, "latitude": 50.98297, "longitude": 24.337, "city": "Volodymyr-Volynskyi", "images": []}, {"id": 477821, "min_date": "2021-07-15T09:18:00Z", "max_date": "2021-07-15T09:18:00Z", "count_points": 1, "latitude": 48.94606, "longitude": 34.53658, "city": "Tsarychanka", "images": []}, {"id": 477822, "min_date": "2021-07-15T10:54:00Z", "max_date": "2021-07-15T10:06:00Z", "count_points": 6, "latitude": 48.29476, "longitude": 32.16958, "city": "Kompaniyivka", "images": []}, {"id": 477823, "min_date": "2021-07-15T10:54:00Z", "max_date": "2021-07-15T10:54:00Z", "count_points": 3, "latitude": 50.34533, "longitude": 31.23344, "city": "Baryshivka", "images": []}, {"id": 477824, "min_date": "2021-07-15T10:54:00Z", "max_date": "2021-07-15T10:06:00Z", "count_points": 2, "latitude": 49.76953, "longitude": 26.70059, "city": "Antoniny", "images": []}, {"id": 477825, "min_date": "2021-07-15T10:54:00Z", "max_date": "2021-07-15T10:54:00Z", "count_points": 1, "latitude": 48.49439, "longitude": 28.24419, "city": "Chernivtsi", "images": []}, {"id": 477826, "min_date": "2021-07-15T10:54:00Z", "max_date": "2021-07-15T10:06:00Z", "count_points": 2, "latitude": 50.24526, "longitude": 35.04162, "city": "Kyrykivka", "images": []}, {"id": 477827, "min_date": "2021-07-15T10:54:00Z", "max_date": "2021-07-15T10:54:00Z", "count_points": 1, "latitude": 50.32373, "longitude": 35.26056, "city": "Kyrykivka", "images": []}, {"id": 477828, "min_date": "2021-07-15T10:54:00Z", "max_date": "2021-07-15T10:54:00Z", "count_points": 1, "latitude": 47.19262, "longitude": 31.50973, "city": "Olshanskoye", "images": []}, {"id": 477829, "min_date": "2021-07-15T10:54:00Z", "max_date": "2021-07-15T10:54:00Z", "count_points": 1, "latitude": 50.50123, "longitude": 24.60936, "city": "Horokhiv", "images": []}, {"id": 477830, "min_date": "2021-07-15T10:54:00Z", "max_date": "2021-07-15T10:54:00Z", "count_points": 1, "latitude": 50.65764, "longitude": 25.55618, "city": "Mlyniv", "images": []}, {"id": 477831, "min_date": "2021-07-15T10:54:00Z", "max_date": "2021-07-15T10:54:00Z", "count_points": 2, "latitude": 48.72082, "longitude": 33.11621, "city": "Pryyutivka", "images": []}, {"id": 477832, "min_date": "2021-07-15T10:54:00Z", "max_date": "2021-07-16T11:30:00Z", "count_points": 13, "latitude": 49.62961, "longitude": 28.65106, "city": "Kozyatyn", "images": []}, {"id": 477833, "min_date": "2021-07-15T10:54:00Z", "max_date": "2021-07-15T10:54:00Z", "count_points": 1, "latitude": 49.52678, "longitude": 26.03546, "city": "Pidvolochysk", "images": []}, {"id": 477834, "min_date": "2021-07-15T10:54:00Z", "max_date": "2021-07-15T10:54:00Z", "count_points": 1, "latitude": 49.44583, "longitude": 25.36474, "city": "Ozerna", "images": []}, {"id": 477835, "min_date": "2021-07-15T10:54:00Z", "max_date": "2021-07-15T10:54:00Z", "count_points": 1, "latitude": 49.42512, "longitude": 25.49408, "city": "Mikulintsy", "images": []}, {"id": 477836, "min_date": "2021-07-15T10:54:00Z", "max_date": "2021-07-15T10:54:00Z", "count_points": 1, "latitude": 49.22459, "longitude": 26.82663, "city": "Yarmolyntsi", "images": []}, {"id": 477837, "min_date": "2021-07-15T10:54:00Z", "max_date": "2021-07-15T10:54:00Z", "count_points": 1, "latitude": 47.12416, "longitude": 35.12423, "city": "Matviyivka", "images": []}, {"id": 477838, "min_date": "2021-07-15T10:54:00Z", "max_date": "2021-07-15T10:54:00Z", "count_points": 1, "latitude": 51.02974, "longitude": 31.30607, "city": "Olyshivka", "images": []}, {"id": 477839, "min_date": "2021-07-15T23:12:00Z", "max_date": "2021-07-15T23:12:00Z", "count_points": 1, "latitude": 50.58608, "longitude": 32.70306, "city": "Dihtyari", "images": []}, {"id": 477840, "min_date": "2021-07-15T23:12:00Z", "max_date": "2021-07-14T10:24:00Z", "count_points": 2, "latitude": 50.45528, "longitude": 34.11751, "city": "Hadyach", "images": []}, {"id": 477841, "min_date": "2021-07-15T23:12:00Z", "max_date": "2021-07-16T00:00:00Z", "count_points": 2, "latitude": 48.41685, "longitude": 38.13232, "city": "Svetlodarsk", "images": []}, {"id": 477842, "min_date": "2021-07-15T23:12:00Z", "max_date": "2021-07-18T23:06:00Z", "count_points": 9, "latitude": 49.36517, "longitude": 35.62669, "city": "Berezivka", "images": []}, {"id": 477843, "min_date": "2021-07-15T23:12:00Z", "max_date": "2021-07-15T23:12:00Z", "count_points": 1, "latitude": 49.00996, "longitude": 35.25514, "city": "Zachepylivka", "images": []}, {"id": 477844, "min_date": "2021-07-15T23:12:00Z", "max_date": "2021-07-15T23:12:00Z", "count_points": 1, "latitude": 47.65196, "longitude": 36.11249, "city": "Zaliznychne", "images": []}, {"id": 477845, "min_date": "2021-07-15T23:12:00Z", "max_date": "2021-07-16T00:00:00Z", "count_points": 2, "latitude": 51.28479, "longitude": 26.0898, "city": "Volodymyrets\u2019", "images": []}, {"id": 477846, "min_date": "2021-07-16T10:36:00Z", "max_date": "2021-07-16T10:36:00Z", "count_points": 1, "latitude": 47.26192, "longitude": 35.73834, "city": "Tokmak", "images": []}, {"id": 477847, "min_date": "2021-07-16T10:36:00Z", "max_date": "2021-07-16T09:48:00Z", "count_points": 3, "latitude": 46.91573, "longitude": 35.42885, "city": "Voznesenka", "images": []}, {"id": 477848, "min_date": "2021-07-16T10:36:00Z", "max_date": "2021-07-16T09:48:00Z", "count_points": 4, "latitude": 47.12104, "longitude": 36.23164, "city": "Chernihivka", "images": []}, {"id": 477849, "min_date": "2021-07-16T10:36:00Z", "max_date": "2021-07-16T10:36:00Z", "count_points": 1, "latitude": 49.29489, "longitude": 30.34763, "city": "Kalynove", "images": []}, {"id": 477850, "min_date": "2021-07-16T10:36:00Z", "max_date": "2021-07-16T09:48:00Z", "count_points": 5, "latitude": 48.64625, "longitude": 30.73284, "city": "Novoarkhanhel\u2019s\u2019k", "images": []}, {"id": 477851, "min_date": "2021-07-16T10:36:00Z", "max_date": "2021-07-16T10:36:00Z", "count_points": 1, "latitude": 47.7967, "longitude": 31.72022, "city": "Brats\u2019ke", "images": []}, {"id": 477852, "min_date": "2021-07-16T10:36:00Z", "max_date": "2021-07-16T10:36:00Z", "count_points": 1, "latitude": 50.61543, "longitude": 31.06874, "city": "Velyka Dymerka", "images": []}, {"id": 477853, "min_date": "2021-07-16T10:36:00Z", "max_date": "2021-07-16T10:36:00Z", "count_points": 1, "latitude": 49.25441, "longitude": 30.13687, "city": "Zhashkiv", "images": []}, {"id": 477854, "min_date": "2021-07-16T10:36:00Z", "max_date": "2021-07-16T10:36:00Z", "count_points": 1, "latitude": 46.60397, "longitude": 35.24661, "city": "Yakymivka", "images": []}, {"id": 477855, "min_date": "2021-07-16T10:36:00Z", "max_date": "2021-07-18T09:12:00Z", "count_points": 7, "latitude": 48.58989, "longitude": 32.51663, "city": "Adzhamka", "images": []}, {"id": 477856, "min_date": "2021-07-16T10:36:00Z", "max_date": "2021-07-16T10:36:00Z", "count_points": 1, "latitude": 48.88125, "longitude": 35.6179, "city": "Melioratyvne", "images": []}, {"id": 477857, "min_date": "2021-07-16T10:36:00Z", "max_date": "2021-07-16T10:36:00Z", "count_points": 1, "latitude": 48.52083, "longitude": 25.38481, "city": "Zabolotiv", "images": []}, {"id": 477858, "min_date": "2021-07-16T10:36:00Z", "max_date": "2021-07-17T10:18:00Z", "count_points": 2, "latitude": 48.21554, "longitude": 33.52378, "city": "Zhovti Vody", "images": []}, {"id": 477859, "min_date": "2021-07-16T22:48:00Z", "max_date": "2021-07-16T22:48:00Z", "count_points": 1, "latitude": 49.91338, "longitude": 35.78039, "city": "Staryy Merchyk", "images": []}, {"id": 477860, "min_date": "2021-07-16T22:54:00Z", "max_date": "2021-07-16T22:54:00Z", "count_points": 2, "latitude": 47.85886, "longitude": 29.75401, "city": "Balta", "images": []}, {"id": 477861, "min_date": "2021-07-17T00:30:00Z", "max_date": "2021-07-16T23:42:00Z", "count_points": 3, "latitude": 47.3724, "longitude": 31.95642, "city": "Nova Odesa", "images": []}, {"id": 477862, "min_date": "2021-07-17T00:30:00Z", "max_date": "2021-07-16T23:42:00Z", "count_points": 3, "latitude": 46.11358, "longitude": 30.31553, "city": "Shabo", "images": []}, {"id": 477863, "min_date": "2021-07-17T00:30:00Z", "max_date": "2021-07-16T23:42:00Z", "count_points": 2, "latitude": 50.35626, "longitude": 30.53441, "city": "Khotiv", "images": []}, {"id": 477864, "min_date": "2021-07-17T10:18:00Z", "max_date": "2021-07-17T11:06:00Z", "count_points": 5, "latitude": 47.44945, "longitude": 33.49662, "city": "Vysokopillya", "images": []}, {"id": 477865, "min_date": "2021-07-17T10:18:00Z", "max_date": "2021-07-17T10:18:00Z", "count_points": 1, "latitude": 45.36672, "longitude": 33.5177, "city": "Stolbovoye", "images": []}, {"id": 477866, "min_date": "2021-07-17T10:18:00Z", "max_date": "2021-07-17T10:18:00Z", "count_points": 1, "latitude": 47.84708, "longitude": 29.71246, "city": "Balta", "images": []}, {"id": 477867, "min_date": "2021-07-17T10:18:00Z", "max_date": "2021-07-17T11:06:00Z", "count_points": 6, "latitude": 49.06956, "longitude": 35.17615, "city": "Zachepylivka", "images": []}, {"id": 477868, "min_date": "2021-07-17T10:18:00Z", "max_date": "2021-07-17T11:06:00Z", "count_points": 7, "latitude": 47.69721, "longitude": 36.14678, "city": "Zaliznychne", "images": []}, {"id": 477869, "min_date": "2021-07-17T10:18:00Z", "max_date": "2021-07-17T10:18:00Z", "count_points": 1, "latitude": 50.10279, "longitude": 31.80389, "city": "Chernyakhivka", "images": []}, {"id": 477870, "min_date": "2021-07-17T10:18:00Z", "max_date": "2021-07-17T10:18:00Z", "count_points": 1, "latitude": 51.00025, "longitude": 31.87997, "city": "Nizhyn", "images": []}, {"id": 477871, "min_date": "2021-07-17T10:18:00Z", "max_date": "2021-07-17T10:18:00Z", "count_points": 1, "latitude": 44.95994, "longitude": 34.09216, "city": "Simferopol", "images": []}, {"id": 477872, "min_date": "2021-07-17T10:18:00Z", "max_date": "2021-07-17T11:06:00Z", "count_points": 5, "latitude": 46.6908, "longitude": 36.19967, "city": "Prymors\u2019k", "images": []}, {"id": 477873, "min_date": "2021-07-17T10:18:00Z", "max_date": "2021-07-17T10:18:00Z", "count_points": 1, "latitude": 50.64439, "longitude": 31.64326, "city": "Zgurovka", "images": []}, {"id": 477874, "min_date": "2021-07-17T10:18:00Z", "max_date": "2021-07-17T10:18:00Z", "count_points": 1, "latitude": 51.52888, "longitude": 32.35782, "city": "Sosnytsya", "images": []}, {"id": 477875, "min_date": "2021-07-17T10:18:00Z", "max_date": "2021-07-17T10:18:00Z", "count_points": 1, "latitude": 47.47722, "longitude": 36.36849, "city": "Chapayevka", "images": []}, {"id": 477876, "min_date": "2021-07-17T10:18:00Z", "max_date": "2021-07-18T10:48:00Z", "count_points": 3, "latitude": 48.7174, "longitude": 24.72193, "city": "Tysmenychany", "images": []}, {"id": 477877, "min_date": "2021-07-17T12:00:00Z", "max_date": "2021-07-17T11:12:00Z", "count_points": 3, "latitude": 50.76017, "longitude": 24.26321, "city": "Blahodatne", "images": []}, {"id": 477878, "min_date": "2021-07-17T22:30:00Z", "max_date": "2021-07-18T00:12:00Z", "count_points": 2, "latitude": 46.47165, "longitude": 34.75932, "city": "Partyzany", "images": []}, {"id": 477879, "min_date": "2021-07-17T22:30:00Z", "max_date": "2021-07-17T22:30:00Z", "count_points": 2, "latitude": 47.23506, "longitude": 32.9661, "city": "Bereznehuvate", "images": []}, {"id": 477880, "min_date": "2021-07-17T22:30:00Z", "max_date": "2021-07-18T00:12:00Z", "count_points": 2, "latitude": 48.93095, "longitude": 34.77217, "city": "Mahdalynivka", "images": []}, {"id": 477881, "min_date": "2021-07-17T22:30:00Z", "max_date": "2021-07-18T00:12:00Z", "count_points": 6, "latitude": 48.84728, "longitude": 38.49601, "city": "Lysychans\u2019k", "images": []}, {"id": 477882, "min_date": "2021-07-17T22:30:00Z", "max_date": "2021-07-18T00:12:00Z", "count_points": 2, "latitude": 48.50651, "longitude": 38.59978, "city": "Bryanka", "images": []}, {"id": 477883, "min_date": "2021-07-18T00:12:00Z", "max_date": "2021-07-18T00:12:00Z", "count_points": 3, "latitude": 48.12996, "longitude": 29.58346, "city": "Peschana", "images": []}, {"id": 477884, "min_date": "2021-07-18T00:12:00Z", "max_date": "2021-07-18T00:12:00Z", "count_points": 1, "latitude": 47.90063, "longitude": 32.20439, "city": "Bobrynets", "images": []}, {"id": 477885, "min_date": "2021-07-18T00:12:00Z", "max_date": "2021-07-18T00:12:00Z", "count_points": 2, "latitude": 51.11452, "longitude": 30.31705, "city": "Kryva Hora", "images": []}, {"id": 477886, "min_date": "2021-07-18T00:12:00Z", "max_date": "2021-07-18T00:12:00Z", "count_points": 1, "latitude": 48.9874, "longitude": 30.9738, "city": "Yerky", "images": []}, {"id": 477887, "min_date": "2021-07-18T10:00:00Z", "max_date": "2021-07-18T10:00:00Z", "count_points": 2, "latitude": 49.3372, "longitude": 37.61491, "city": "Borova", "images": []}, {"id": 477888, "min_date": "2021-07-18T10:00:00Z", "max_date": "2021-07-18T10:48:00Z", "count_points": 8, "latitude": 47.78355, "longitude": 32.4179, "city": "Novyy Buh", "images": []}, {"id": 477889, "min_date": "2021-07-18T10:00:00Z", "max_date": "2021-07-18T10:48:00Z", "count_points": 2, "latitude": 47.32229, "longitude": 36.11693, "city": "Chernihivka", "images": []}, {"id": 477890, "min_date": "2021-07-18T10:00:00Z", "max_date": "2021-07-18T10:48:00Z", "count_points": 4, "latitude": 49.78045, "longitude": 35.10529, "city": "Chutove", "images": []}, {"id": 477891, "min_date": "2021-07-18T10:00:00Z", "max_date": "2021-07-18T09:12:00Z", "count_points": 3, "latitude": 47.35739, "longitude": 33.15011, "city": "Velyka Oleksandrivka", "images": []}, {"id": 477892, "min_date": "2021-07-18T10:00:00Z", "max_date": "2021-07-18T10:00:00Z", "count_points": 1, "latitude": 49.2422, "longitude": 39.09228, "city": "Starobil\u2019s\u2019k", "images": []}, {"id": 477893, "min_date": "2021-07-18T10:00:00Z", "max_date": "2021-07-18T10:00:00Z", "count_points": 1, "latitude": 49.02949, "longitude": 38.97221, "city": "Novoaydar", "images": []}, {"id": 477894, "min_date": "2021-07-18T10:00:00Z", "max_date": "2021-07-18T10:00:00Z", "count_points": 1, "latitude": 50.2773, "longitude": 33.65415, "city": "Komyshnya", "images": []}, {"id": 477895, "min_date": "2021-07-18T10:00:00Z", "max_date": "2021-07-18T10:00:00Z", "count_points": 1, "latitude": 45.65463, "longitude": 29.41179, "city": "Shevchenkove", "images": []}, {"id": 477896, "min_date": "2021-07-18T10:00:00Z", "max_date": "2021-07-18T10:48:00Z", "count_points": 2, "latitude": 49.43323, "longitude": 30.32735, "city": "Kalynove", "images": []}, {"id": 477897, "min_date": "2021-07-18T11:42:00Z", "max_date": "2021-07-18T11:42:00Z", "count_points": 1, "latitude": 48.35236, "longitude": 25.1964, "city": "Rozhniv", "images": []}, {"id": 477898, "min_date": "2021-07-18T11:42:00Z", "max_date": "2021-07-18T11:42:00Z", "count_points": 1, "latitude": 51.45729, "longitude": 30.61451, "city": "Slavutych", "images": []}, {"id": 477899, "min_date": "2021-07-18T11:42:00Z", "max_date": "2021-07-18T10:48:00Z", "count_points": 3, "latitude": 46.78365, "longitude": 30.13175, "city": "Rozdil\u2019na", "images": []}, {"id": 477900, "min_date": "2021-07-18T11:42:00Z", "max_date": "2021-07-18T10:48:00Z", "count_points": 2, "latitude": 45.53149, "longitude": 29.30645, "city": "Shevchenkove", "images": []}, {"id": 477901, "min_date": "2021-07-18T23:54:00Z", "max_date": "2021-07-18T23:54:00Z", "count_points": 1, "latitude": 47.97318, "longitude": 33.72334, "city": "Sofiyivka", "images": []}, {"id": 477902, "min_date": "2021-07-18T23:54:00Z", "max_date": "2021-07-18T23:54:00Z", "count_points": 1, "latitude": 48.53215, "longitude": 32.25681, "city": "Kropyvnytskyi", "images": []}, {"id": 477903, "min_date": "2021-07-18T23:54:00Z", "max_date": "2021-07-18T23:06:00Z", "count_points": 2, "latitude": 48.47366, "longitude": 26.66063, "city": "Kel\u2019mentsi", "images": []}, {"id": 477904, "min_date": "2021-07-18T23:54:00Z", "max_date": "2021-07-18T23:54:00Z", "count_points": 1, "latitude": 49.16039, "longitude": 34.41944, "city": "Novi Sanzhary", "images": []}, {"id": 477905, "min_date": "2021-07-18T23:54:00Z", "max_date": "2021-07-18T23:06:00Z", "count_points": 5, "latitude": 47.67346, "longitude": 32.51349, "city": "Novyy Buh", "images": []}, {"id": 477906, "min_date": "2021-07-12T09:24:00Z", "max_date": "2021-07-12T09:24:00Z", "count_points": 1, "latitude": 47.581, "longitude": 31.80091, "city": "Yelanets\u2019", "images": []}, {"id": 477907, "min_date": "2021-07-12T11:00:00Z", "max_date": "2021-07-12T11:00:00Z", "count_points": 1, "latitude": 48.09616, "longitude": 29.11451, "city": "Kodyma", "images": []}, {"id": 477908, "min_date": "2021-07-12T11:00:00Z", "max_date": "2021-07-12T11:00:00Z", "count_points": 1, "latitude": 48.42412, "longitude": 22.73458, "city": "Mukacheve", "images": []}, {"id": 477909, "min_date": "2021-07-12T11:00:00Z", "max_date": "2021-07-12T11:00:00Z", "count_points": 1, "latitude": 51.30221, "longitude": 26.88127, "city": "Sarny", "images": []}, {"id": 477910, "min_date": "2021-07-12T11:06:00Z", "max_date": "2021-07-12T11:06:00Z", "count_points": 1, "latitude": 51.62778, "longitude": 27.23481, "city": "Rokytne", "images": []}, {"id": 477911, "min_date": "2021-07-12T11:06:00Z", "max_date": "2021-07-12T11:06:00Z", "count_points": 1, "latitude": 51.61029, "longitude": 24.4185, "city": "Ratne", "images": []}, {"id": 477912, "min_date": "2021-07-12T23:18:00Z", "max_date": "2021-07-12T23:18:00Z", "count_points": 1, "latitude": 48.03387, "longitude": 39.32179, "city": "Roven\u2019ky", "images": []}, {"id": 477913, "min_date": "2021-07-13T00:54:00Z", "max_date": "2021-07-13T00:54:00Z", "count_points": 1, "latitude": 49.85028, "longitude": 28.57617, "city": "Berdychiv", "images": []}, {"id": 477914, "min_date": "2021-07-13T00:54:00Z", "max_date": "2021-07-13T00:54:00Z", "count_points": 2, "latitude": 51.08305, "longitude": 28.89398, "city": "Narodychi", "images": []}, {"id": 477915, "min_date": "2021-07-13T10:42:00Z", "max_date": "2021-07-13T10:42:00Z", "count_points": 1, "latitude": 47.5462, "longitude": 33.20985, "city": "Shyroke", "images": []}, {"id": 477916, "min_date": "2021-07-13T10:42:00Z", "max_date": "2021-07-13T10:42:00Z", "count_points": 2, "latitude": 50.52417, "longitude": 25.84225, "city": "Dubno", "images": []}, {"id": 477917, "min_date": "2021-07-13T10:42:00Z", "max_date": "2021-07-13T10:42:00Z", "count_points": 1, "latitude": 50.6999, "longitude": 30.16344, "city": "Katyuzhanka", "images": []}, {"id": 477918, "min_date": "2021-07-13T10:42:00Z", "max_date": "2021-07-13T10:42:00Z", "count_points": 1, "latitude": 48.23395, "longitude": 25.03963, "city": "Kosiv", "images": []}, {"id": 477919, "min_date": "2021-07-13T10:42:00Z", "max_date": "2021-07-13T10:42:00Z", "count_points": 1, "latitude": 49.48201, "longitude": 34.43893, "city": "Poltava", "images": []}, {"id": 477920, "min_date": "2021-07-14T00:36:00Z", "max_date": "2021-07-14T00:36:00Z", "count_points": 1, "latitude": 50.06141, "longitude": 35.63217, "city": "Bohodukhiv", "images": []}, {"id": 477921, "min_date": "2021-07-14T10:24:00Z", "max_date": "2021-07-14T10:24:00Z", "count_points": 1, "latitude": 50.49042, "longitude": 30.74929, "city": "Knyazhichi", "images": []}, {"id": 477922, "min_date": "2021-07-14T10:24:00Z", "max_date": "2021-07-14T10:24:00Z", "count_points": 2, "latitude": 48.4965, "longitude": 34.0197, "city": "Vyshneve", "images": []}, {"id": 477923, "min_date": "2021-07-14T10:24:00Z", "max_date": "2021-07-14T10:24:00Z", "count_points": 1, "latitude": 49.24792, "longitude": 29.81429, "city": "Tsibulev", "images": []}, {"id": 477924, "min_date": "2021-07-14T10:24:00Z", "max_date": "2021-07-14T10:24:00Z", "count_points": 1, "latitude": 50.41409, "longitude": 30.60602, "city": "Kyiv", "images": []}, {"id": 477925, "min_date": "2021-07-14T10:24:00Z", "max_date": "2021-07-14T10:24:00Z", "count_points": 1, "latitude": 47.84365, "longitude": 30.12011, "city": "Lyubashivka", "images": []}, {"id": 477926, "min_date": "2021-07-14T10:24:00Z", "max_date": "2021-07-14T10:24:00Z", "count_points": 1, "latitude": 50.4982, "longitude": 33.75232, "city": "Lypova Dolyna", "images": []}, {"id": 477927, "min_date": "2021-07-14T10:24:00Z", "max_date": "2021-07-14T10:24:00Z", "count_points": 1, "latitude": 46.75342, "longitude": 36.77894, "city": "Berdyansk", "images": []}, {"id": 477928, "min_date": "2021-07-14T10:24:00Z", "max_date": "2021-07-14T10:24:00Z", "count_points": 1, "latitude": 50.15908, "longitude": 31.75722, "city": "Yahotyn", "images": []}, {"id": 477929, "min_date": "2021-07-14T10:24:00Z", "max_date": "2021-07-14T10:24:00Z", "count_points": 1, "latitude": 51.23767, "longitude": 25.89126, "city": "Volodymyrets\u2019", "images": []}, {"id": 477930, "min_date": "2021-07-14T10:24:00Z", "max_date": "2021-07-14T10:24:00Z", "count_points": 1, "latitude": 46.79947, "longitude": 35.42471, "city": "Kostyantynivka", "images": []}, {"id": 477931, "min_date": "2021-07-14T10:24:00Z", "max_date": "2021-07-14T10:24:00Z", "count_points": 1, "latitude": 49.76693, "longitude": 36.09337, "city": "Utkivka", "images": []}, {"id": 477932, "min_date": "2021-07-14T10:24:00Z", "max_date": "2021-07-14T10:24:00Z", "count_points": 1, "latitude": 49.43614, "longitude": 30.09908, "city": "Stavyshche", "images": []}, {"id": 477933, "min_date": "2021-07-14T12:06:00Z", "max_date": "2021-07-14T12:06:00Z", "count_points": 1, "latitude": 48.40586, "longitude": 22.59502, "city": "Nove Davydkovo", "images": []}, {"id": 477934, "min_date": "2021-07-15T00:18:00Z", "max_date": "2021-07-15T00:18:00Z", "count_points": 1, "latitude": 50.85992, "longitude": 29.7348, "city": "Ivankiv", "images": []}, {"id": 477935, "min_date": "2021-07-15T00:18:00Z", "max_date": "2021-07-15T00:18:00Z", "count_points": 1, "latitude": 50.51481, "longitude": 30.5789, "city": "Kyiv", "images": []}, {"id": 477936, "min_date": "2021-07-15T00:18:00Z", "max_date": "2021-07-15T00:18:00Z", "count_points": 1, "latitude": 51.06445, "longitude": 29.49764, "city": "Krasyatychi", "images": []}, {"id": 477937, "min_date": "2021-07-15T10:06:00Z", "max_date": "2021-07-15T10:06:00Z", "count_points": 2, "latitude": 50.28401, "longitude": 27.321, "city": "Poninka", "images": []}, {"id": 477938, "min_date": "2021-07-15T10:06:00Z", "max_date": "2021-07-15T10:06:00Z", "count_points": 1, "latitude": 48.67926, "longitude": 35.02969, "city": "Spas\u2019ke", "images": []}, {"id": 477939, "min_date": "2021-07-15T10:06:00Z", "max_date": "2021-07-15T10:06:00Z", "count_points": 2, "latitude": 45.21288, "longitude": 33.22172, "city": "Molochnoye", "images": []}, {"id": 477940, "min_date": "2021-07-15T10:06:00Z", "max_date": "2021-07-15T10:06:00Z", "count_points": 1, "latitude": 48.19149, "longitude": 31.11975, "city": "Lysa Hora", "images": []}, {"id": 477941, "min_date": "2021-07-15T10:06:00Z", "max_date": "2021-07-15T10:06:00Z", "count_points": 1, "latitude": 47.64216, "longitude": 35.01811, "city": "Vyshchetarasivka", "images": []}, {"id": 477942, "min_date": "2021-07-15T10:06:00Z", "max_date": "2021-07-15T10:06:00Z", "count_points": 2, "latitude": 49.2624, "longitude": 24.03347, "city": "Zhydachiv", "images": []}, {"id": 477943, "min_date": "2021-07-15T10:06:00Z", "max_date": "2021-07-15T10:06:00Z", "count_points": 1, "latitude": 48.45344, "longitude": 34.48612, "city": "Krynychky", "images": []}, {"id": 477944, "min_date": "2021-07-15T10:06:00Z", "max_date": "2021-07-15T10:06:00Z", "count_points": 1, "latitude": 49.88655, "longitude": 37.80602, "city": "Dvorichna", "images": []}, {"id": 477945, "min_date": "2021-07-15T10:06:00Z", "max_date": "2021-07-15T10:06:00Z", "count_points": 1, "latitude": 47.17911, "longitude": 36.30633, "city": "Chernihivka", "images": []}, {"id": 477946, "min_date": "2021-07-15T10:06:00Z", "max_date": "2021-07-15T10:06:00Z", "count_points": 2, "latitude": 46.35339, "longitude": 33.57935, "city": "Chaplynka", "images": []}, {"id": 477947, "min_date": "2021-07-15T10:06:00Z", "max_date": "2021-07-15T10:06:00Z", "count_points": 1, "latitude": 49.62021, "longitude": 34.53716, "city": "Poltava", "images": []}, {"id": 477948, "min_date": "2021-07-15T10:06:00Z", "max_date": "2021-07-15T10:06:00Z", "count_points": 1, "latitude": 47.83878, "longitude": 32.64653, "city": "Ustynivka", "images": []}, {"id": 477949, "min_date": "2021-07-15T10:06:00Z", "max_date": "2021-07-15T10:06:00Z", "count_points": 1, "latitude": 47.36397, "longitude": 32.86591, "city": "Bereznehuvate", "images": []}, {"id": 477950, "min_date": "2021-07-16T01:42:00Z", "max_date": "2021-07-16T01:42:00Z", "count_points": 1, "latitude": 49.0666, "longitude": 24.29396, "city": "Kalush", "images": []}, {"id": 477951, "min_date": "2021-07-16T09:48:00Z", "max_date": "2021-07-16T09:48:00Z", "count_points": 1, "latitude": 45.65743, "longitude": 29.59772, "city": "Tatarbunary", "images": []}, {"id": 477952, "min_date": "2021-07-16T09:48:00Z", "max_date": "2021-07-16T09:48:00Z", "count_points": 6, "latitude": 48.70126, "longitude": 33.86024, "city": "Lykhivka", "images": []}, {"id": 477953, "min_date": "2021-07-16T11:24:00Z", "max_date": "2021-07-16T11:24:00Z", "count_points": 2, "latitude": 47.13423, "longitude": 32.91177, "city": "Snihurivka", "images": []}, {"id": 477954, "min_date": "2021-07-16T11:30:00Z", "max_date": "2021-07-16T11:30:00Z", "count_points": 1, "latitude": 50.4254, "longitude": 26.02133, "city": "Mizoch", "images": []}, {"id": 477955, "min_date": "2021-07-16T11:30:00Z", "max_date": "2021-07-16T11:30:00Z", "count_points": 1, "latitude": 47.65274, "longitude": 32.74946, "city": "Kazanka", "images": []}, {"id": 477956, "min_date": "2021-07-16T11:30:00Z", "max_date": "2021-07-16T11:30:00Z", "count_points": 1, "latitude": 49.54663, "longitude": 22.91806, "city": "Murovane", "images": []}, {"id": 477957, "min_date": "2021-07-16T23:42:00Z", "max_date": "2021-07-16T23:42:00Z", "count_points": 1, "latitude": 48.65581, "longitude": 38.65348, "city": "Kirovs\u2019k", "images": []}, {"id": 477958, "min_date": "2021-07-16T23:42:00Z", "max_date": "2021-07-16T23:42:00Z", "count_points": 1, "latitude": 49.23408, "longitude": 34.47592, "city": "Novi Sanzhary", "images": []}, {"id": 477959, "min_date": "2021-07-16T23:42:00Z", "max_date": "2021-07-16T23:42:00Z", "count_points": 1, "latitude": 47.63236, "longitude": 35.32856, "city": "Malokaterynivka", "images": []}, {"id": 477960, "min_date": "2021-07-17T09:30:00Z", "max_date": "2021-07-17T09:30:00Z", "count_points": 2, "latitude": 47.66263, "longitude": 32.9886, "city": "Kazanka", "images": []}, {"id": 477961, "min_date": "2021-07-17T09:30:00Z", "max_date": "2021-07-17T09:30:00Z", "count_points": 1, "latitude": 51.75681, "longitude": 31.11899, "city": "Ripky", "images": []}, {"id": 477962, "min_date": "2021-07-17T09:30:00Z", "max_date": "2021-07-17T09:30:00Z", "count_points": 1, "latitude": 51.43916, "longitude": 33.43939, "city": "Krolevets\u2019", "images": []}, {"id": 477963, "min_date": "2021-07-17T11:06:00Z", "max_date": "2021-07-17T11:06:00Z", "count_points": 1, "latitude": 49.69153, "longitude": 26.49787, "city": "Bazaliya", "images": []}, {"id": 477964, "min_date": "2021-07-17T11:06:00Z", "max_date": "2021-07-17T11:06:00Z", "count_points": 1, "latitude": 49.87357, "longitude": 33.80687, "city": "Velyka Bahachka", "images": []}, {"id": 477965, "min_date": "2021-07-17T11:06:00Z", "max_date": "2021-07-17T11:12:00Z", "count_points": 3, "latitude": 49.73818, "longitude": 23.22296, "city": "Pnikut", "images": []}, {"id": 477966, "min_date": "2021-07-17T11:06:00Z", "max_date": "2021-07-17T11:06:00Z", "count_points": 1, "latitude": 48.36113, "longitude": 25.4339, "city": "Vashkivtsi", "images": []}, {"id": 477967, "min_date": "2021-07-17T11:06:00Z", "max_date": "2021-07-17T11:06:00Z", "count_points": 1, "latitude": 49.00332, "longitude": 24.27251, "city": "Novytsya", "images": []}, {"id": 477968, "min_date": "2021-07-17T11:06:00Z", "max_date": "2021-07-17T11:06:00Z", "count_points": 1, "latitude": 48.70055, "longitude": 32.55388, "city": "Subottsi", "images": []}, {"id": 477969, "min_date": "2021-07-17T11:06:00Z", "max_date": "2021-07-17T11:06:00Z", "count_points": 2, "latitude": 47.03471, "longitude": 29.86413, "city": "Velyka Mykhaylivka", "images": []}, {"id": 477970, "min_date": "2021-07-17T11:06:00Z", "max_date": "2021-07-17T11:06:00Z", "count_points": 1, "latitude": 47.94718, "longitude": 32.7449, "city": "Kazanka", "images": []}, {"id": 477971, "min_date": "2021-07-17T11:12:00Z", "max_date": "2021-07-17T11:12:00Z", "count_points": 1, "latitude": 50.55757, "longitude": 27.80481, "city": "Novohrad-Volynskyi", "images": []}, {"id": 477972, "min_date": "2021-07-18T09:12:00Z", "max_date": "2021-07-18T09:12:00Z", "count_points": 2, "latitude": 48.17504, "longitude": 33.46585, "city": "Zhovti Vody", "images": []}, {"id": 477973, "min_date": "2021-07-18T10:48:00Z", "max_date": "2021-07-18T10:48:00Z", "count_points": 2, "latitude": 48.15197, "longitude": 29.09722, "city": "Kodyma", "images": []}, {"id": 477974, "min_date": "2021-07-18T10:48:00Z", "max_date": "2021-07-18T10:48:00Z", "count_points": 1, "latitude": 49.88148, "longitude": 25.98444, "city": "Lanivtsi", "images": []}, {"id": 477975, "min_date": "2021-07-18T10:48:00Z", "max_date": "2021-07-18T10:48:00Z", "count_points": 2, "latitude": 47.38845, "longitude": 33.69078, "city": "Vysokopillya", "images": []}, {"id": 477976, "min_date": "2021-07-18T10:48:00Z", "max_date": "2021-07-18T10:48:00Z", "count_points": 1, "latitude": 48.27986, "longitude": 30.49061, "city": "Holovanivs\u2019k", "images": []}, {"id": 477977, "min_date": "2021-07-18T10:48:00Z", "max_date": "2021-07-18T10:48:00Z", "count_points": 1, "latitude": 50.71653, "longitude": 26.1705, "city": "Orzhiv", "images": []}, {"id": 477978, "min_date": "2021-07-18T10:48:00Z", "max_date": "2021-07-18T10:48:00Z", "count_points": 1, "latitude": 49.81414, "longitude": 26.77994, "city": "Antoniny", "images": []}, {"id": 477979, "min_date": "2021-07-18T10:48:00Z", "max_date": "2021-07-18T10:48:00Z", "count_points": 1, "latitude": 48.30839, "longitude": 30.52125, "city": "Holovanivs\u2019k", "images": []}, {"id": 477980, "min_date": "2021-07-18T10:48:00Z", "max_date": "2021-07-18T10:48:00Z", "count_points": 1, "latitude": 48.09327, "longitude": 31.30636, "city": "Arbuzynka", "images": []}, {"id": 477981, "min_date": "2021-07-18T10:48:00Z", "max_date": "2021-07-18T10:48:00Z", "count_points": 5, "latitude": 47.5289, "longitude": 32.95313, "city": "Bereznehuvate", "images": []}, {"id": 477982, "min_date": "2021-07-18T10:48:00Z", "max_date": "2021-07-18T10:48:00Z", "count_points": 1, "latitude": 51.14194, "longitude": 30.96191, "city": "Oster", "images": []}, {"id": 477983, "min_date": "2021-07-18T10:48:00Z", "max_date": "2021-07-18T10:48:00Z", "count_points": 1, "latitude": 46.81765, "longitude": 30.10756, "city": "Rozdil\u2019na", "images": []}, {"id": 477984, "min_date": "2021-07-18T10:48:00Z", "max_date": "2021-07-18T10:48:00Z", "count_points": 1, "latitude": 48.57087, "longitude": 38.46585, "city": "Pervomays\u2019k", "images": []}, {"id": 477985, "min_date": "2021-07-18T10:48:00Z", "max_date": "2021-07-18T10:48:00Z", "count_points": 2, "latitude": 48.05429, "longitude": 33.496, "city": "Kryvyi Rih", "images": []}, {"id": 477986, "min_date": "2021-07-18T10:48:00Z", "max_date": "2021-07-18T10:48:00Z", "count_points": 1, "latitude": 51.16828, "longitude": 28.31782, "city": "Luhyny", "images": []}, {"id": 477987, "min_date": "2021-07-18T10:48:00Z", "max_date": "2021-07-18T10:48:00Z", "count_points": 1, "latitude": 50.10544, "longitude": 27.54129, "city": "Polonne", "images": []}, {"id": 477711, "min_date": "2021-07-15T09:25:00Z", "max_date": "2021-07-15T10:06:00Z", "count_points": 2, "latitude": 46.00476, "longitude": 29.66111, "city": "Sarata", "images": []}, {"id": 477712, "min_date": "2021-07-15T09:25:00Z", "max_date": "2021-07-15T09:25:00Z", "count_points": 1, "latitude": 48.411, "longitude": 35.822, "city": "Pavlohrad", "images": []}, {"id": 477713, "min_date": "2021-07-15T09:25:00Z", "max_date": "2021-07-15T09:25:00Z", "count_points": 1, "latitude": 50.496, "longitude": 29.175, "city": "Radomyshl", "images": []}, {"id": 477714, "min_date": "2021-07-15T11:15:00Z", "max_date": "2021-07-15T10:54:00Z", "count_points": 3, "latitude": 49.72722, "longitude": 37.66918, "city": "Kupjansk", "images": []}, {"id": 477715, "min_date": "2021-07-15T18:55:00Z", "max_date": "2021-07-15T18:55:00Z", "count_points": 2, "latitude": 46.6475, "longitude": 33.4495, "city": "Chornyanka", "images": []}, {"id": 477716, "min_date": "2021-07-16T08:30:00Z", "max_date": "2021-07-16T09:48:00Z", "count_points": 4, "latitude": 46.37795, "longitude": 33.99202, "city": "Askaniya-Nova", "images": []}, {"id": 477717, "min_date": "2021-07-16T08:30:00Z", "max_date": "2021-07-16T09:48:00Z", "count_points": 3, "latitude": 48.62331, "longitude": 37.48855, "city": "Druzhkivka", "images": []}, {"id": 477718, "min_date": "2021-07-16T08:30:00Z", "max_date": "2021-07-18T23:06:00Z", "count_points": 35, "latitude": 47.75591, "longitude": 36.91963, "city": "Velyka Novosilka", "images": []}, {"id": 477719, "min_date": "2021-07-16T08:30:00Z", "max_date": "2021-07-16T11:30:00Z", "count_points": 13, "latitude": 47.87781, "longitude": 36.8079, "city": "Velyka Novosilka", "images": []}, {"id": 477720, "min_date": "2021-07-16T08:30:00Z", "max_date": "2021-07-18T08:20:00Z", "count_points": 2, "latitude": 48.5255, "longitude": 33.0425, "city": "Oleksandriys\u2019ke", "images": []}, {"id": 477721, "min_date": "2021-07-16T08:30:00Z", "max_date": "2021-07-16T08:30:00Z", "count_points": 1, "latitude": 46.624, "longitude": 34.435, "city": "Ivanivka", "images": []}, {"id": 477722, "min_date": "2021-07-16T08:30:00Z", "max_date": "2021-07-16T08:30:00Z", "count_points": 1, "latitude": 47.449, "longitude": 34.725, "city": "Energodar", "images": []}, {"id": 477723, "min_date": "2021-07-16T08:30:00Z", "max_date": "2021-07-16T08:30:00Z", "count_points": 1, "latitude": 48.444, "longitude": 34.733, "city": "Kamianske", "images": []}, {"id": 477724, "min_date": "2021-07-16T10:20:00Z", "max_date": "2021-07-18T10:48:00Z", "count_points": 12, "latitude": 46.57258, "longitude": 34.95936, "city": "Yakymivka", "images": []}, {"id": 477725, "min_date": "2021-07-16T10:20:00Z", "max_date": "2021-07-16T10:20:00Z", "count_points": 2, "latitude": 48.7225, "longitude": 33.897, "city": "Lykhivka", "images": []}, {"id": 477726, "min_date": "2021-07-16T10:20:00Z", "max_date": "2021-07-17T11:06:00Z", "count_points": 9, "latitude": 47.90949, "longitude": 36.77045, "city": "Velyka Novosilka", "images": []}, {"id": 477727, "min_date": "2021-07-16T10:20:00Z", "max_date": "2021-07-15T10:06:00Z", "count_points": 2, "latitude": 48.62492, "longitude": 35.20295, "city": "Novomoskovs\u2019k", "images": []}, {"id": 477728, "min_date": "2021-07-16T23:50:00Z", "max_date": "2021-07-16T23:42:00Z", "count_points": 5, "latitude": 49.9996, "longitude": 34.27551, "city": "Zin\u2019kiv", "images": []}, {"id": 477729, "min_date": "2021-07-17T09:15:00Z", "max_date": "2021-07-17T09:15:00Z", "count_points": 1, "latitude": 49.819, "longitude": 31.772, "city": "Tsybli", "images": []}, {"id": 477730, "min_date": "2021-07-17T09:15:00Z", "max_date": "2021-07-17T09:15:00Z", "count_points": 1, "latitude": 50.66, "longitude": 27.43, "city": "Horodnytsya", "images": []}, {"id": 477731, "min_date": "2021-07-17T09:15:00Z", "max_date": "2021-07-17T09:15:00Z", "count_points": 1, "latitude": 51.507, "longitude": 31.959, "city": "Berezna", "images": []}, {"id": 477732, "min_date": "2021-07-17T09:15:00Z", "max_date": "2021-07-17T09:15:00Z", "count_points": 1, "latitude": 51.848, "longitude": 25.813, "city": "Kuznetsovs\u2019k", "images": []}, {"id": 477733, "min_date": "2021-07-17T09:15:00Z", "max_date": "2021-07-14T09:36:00Z", "count_points": 2, "latitude": 51.2392, "longitude": 30.83281, "city": "Oster", "images": []}, {"id": 477734, "min_date": "2021-07-17T09:15:00Z", "max_date": "2021-07-17T09:15:00Z", "count_points": 1, "latitude": 48.213, "longitude": 30.247, "city": "Blahovishchens\u2019ke", "images": []}, {"id": 477735, "min_date": "2021-07-17T09:15:00Z", "max_date": "2021-07-17T09:15:00Z", "count_points": 1, "latitude": 48.571, "longitude": 30.287, "city": "Uman\u2019", "images": []}, {"id": 477736, "min_date": "2021-07-17T09:15:00Z", "max_date": "2021-07-17T09:15:00Z", "count_points": 1, "latitude": 51.786, "longitude": 31.418, "city": "Sedniv", "images": []}, {"id": 477737, "min_date": "2021-07-17T09:15:00Z", "max_date": "2021-07-17T09:15:00Z", "count_points": 1, "latitude": 49.787, "longitude": 30.197, "city": "Bila Tserkva", "images": []}, {"id": 477738, "min_date": "2021-07-17T09:15:00Z", "max_date": "2021-07-17T09:15:00Z", "count_points": 1, "latitude": 49.857, "longitude": 29.9, "city": "Kozhanka", "images": []}, {"id": 477739, "min_date": "2021-07-17T09:15:00Z", "max_date": "2021-07-17T09:15:00Z", "count_points": 1, "latitude": 46.424, "longitude": 34.515, "city": "Novotroyits\u2019ke", "images": []}, {"id": 477740, "min_date": "2021-07-17T09:15:00Z", "max_date": "2021-07-17T09:30:00Z", "count_points": 7, "latitude": 46.4184, "longitude": 29.38975, "city": "Borodino", "images": []}, {"id": 477741, "min_date": "2021-07-17T11:00:00Z", "max_date": "2021-07-17T11:00:00Z", "count_points": 1, "latitude": 47.935, "longitude": 32.685, "city": "Ustynivka", "images": []}, {"id": 477742, "min_date": "2021-07-17T11:00:00Z", "max_date": "2021-07-17T11:00:00Z", "count_points": 1, "latitude": 48.586, "longitude": 32.31, "city": "Kropyvnytskyi", "images": []}, {"id": 477743, "min_date": "2021-07-17T11:00:00Z", "max_date": "2021-07-17T11:00:00Z", "count_points": 1, "latitude": 46.934, "longitude": 34.162, "city": "Nyzhni Sirohozy", "images": []}, {"id": 477744, "min_date": "2021-07-17T11:00:00Z", "max_date": "2021-07-17T11:00:00Z", "count_points": 1, "latitude": 48.166, "longitude": 36.948, "city": "Mezhova", "images": []}, {"id": 477745, "min_date": "2021-07-17T11:00:00Z", "max_date": "2021-07-17T11:00:00Z", "count_points": 1, "latitude": 50.471, "longitude": 31.702, "city": "Zgurovka", "images": []}, {"id": 477746, "min_date": "2021-07-17T11:00:00Z", "max_date": "2021-07-17T11:00:00Z", "count_points": 1, "latitude": 47.965, "longitude": 29.389, "city": "Slobidka", "images": []}, {"id": 477747, "min_date": "2021-07-17T18:45:00Z", "max_date": "2021-07-18T10:48:00Z", "count_points": 8, "latitude": 47.97116, "longitude": 32.7778, "city": "Kazanka", "images": []}, {"id": 477748, "min_date": "2021-07-17T18:45:00Z", "max_date": "2021-07-17T18:45:00Z", "count_points": 2, "latitude": 48.5165, "longitude": 32.583, "city": "Adzhamka", "images": []}, {"id": 477749, "min_date": "2021-07-17T18:45:00Z", "max_date": "2021-07-17T18:45:00Z", "count_points": 1, "latitude": 48.507, "longitude": 32.545, "city": "Adzhamka", "images": []}, {"id": 477750, "min_date": "2021-07-17T18:45:00Z", "max_date": "2021-07-17T09:30:00Z", "count_points": 6, "latitude": 48.18893, "longitude": 31.28106, "city": "Lysa Hora", "images": []}, {"id": 477751, "min_date": "2021-07-18T08:20:00Z", "max_date": "2021-07-18T08:20:00Z", "count_points": 1, "latitude": 47.736, "longitude": 35.434, "city": "Komyshuvakha", "images": []}, {"id": 477752, "min_date": "2021-07-18T08:20:00Z", "max_date": "2021-07-18T08:20:00Z", "count_points": 1, "latitude": 49.597, "longitude": 32.57, "city": "Orzhytsya", "images": []}, {"id": 477753, "min_date": "2021-07-18T08:20:00Z", "max_date": "2021-07-18T08:20:00Z", "count_points": 1, "latitude": 47.378, "longitude": 33.244, "city": "Velyka Oleksandrivka", "images": []}, {"id": 477754, "min_date": "2021-07-18T08:20:00Z", "max_date": "2021-07-18T08:20:00Z", "count_points": 1, "latitude": 47.056, "longitude": 33.452, "city": "Beryslav", "images": []}, {"id": 477755, "min_date": "2021-07-18T08:20:00Z", "max_date": "2021-07-18T08:20:00Z", "count_points": 1, "latitude": 49.513, "longitude": 34.936, "city": "Mashivka", "images": []}, {"id": 477756, "min_date": "2021-07-18T08:20:00Z", "max_date": "2021-07-18T08:20:00Z", "count_points": 1, "latitude": 50.045, "longitude": 37.139, "city": "Prykolotne", "images": []}, {"id": 477757, "min_date": "2021-07-18T09:55:00Z", "max_date": "2021-07-18T10:48:00Z", "count_points": 4, "latitude": 49.97613, "longitude": 28.36697, "city": "Denyshi", "images": []}, {"id": 477758, "min_date": "2021-07-18T10:05:00Z", "max_date": "2021-07-18T10:05:00Z", "count_points": 1, "latitude": 50.003, "longitude": 35.712, "city": "Staryy Merchyk", "images": []}, {"id": 477759, "min_date": "2021-07-18T10:05:00Z", "max_date": "2021-07-18T10:05:00Z", "count_points": 1, "latitude": 48.451, "longitude": 33.317, "city": "Petrove", "images": []}, {"id": 477760, "min_date": "2021-07-18T10:05:00Z", "max_date": "2021-07-18T10:05:00Z", "count_points": 1, "latitude": 47.457, "longitude": 36.727, "city": "Kuybysheve", "images": []}, {"id": 477761, "min_date": "2021-07-18T19:30:00Z", "max_date": "2021-07-18T10:00:00Z", "count_points": 2, "latitude": 48.91209, "longitude": 35.03, "city": "Mahdalynivka", "images": []}, {"id": 477762, "min_date": "2021-07-18T19:30:00Z", "max_date": "2021-07-18T19:30:00Z", "count_points": 1, "latitude": 47.509, "longitude": 33.765, "city": "Novovorontsovka", "images": []}, {"id": 477763, "min_date": "2021-07-18T23:40:00Z", "max_date": "2021-07-18T23:06:00Z", "count_points": 18, "latitude": 48.24344, "longitude": 31.88297, "city": "Rivne", "images": []}, {"id": 477764, "min_date": "2021-07-12T00:24:00Z", "max_date": "2021-07-12T00:24:00Z", "count_points": 1, "latitude": 49.36849, "longitude": 32.06543, "city": "Cherkasy", "images": []}, {"id": 477765, "min_date": "2021-07-12T00:24:00Z", "max_date": "2021-07-12T00:24:00Z", "count_points": 1, "latitude": 48.69722, "longitude": 25.52296, "city": "Horodenka", "images": []}, {"id": 477766, "min_date": "2021-07-12T00:24:00Z", "max_date": "2021-07-12T11:00:00Z", "count_points": 11, "latitude": 49.52549, "longitude": 23.71203, "city": "Komarno", "images": []}, {"id": 477767, "min_date": "2021-07-12T00:24:00Z", "max_date": "2021-07-16T23:42:00Z", "count_points": 12, "latitude": 47.97592, "longitude": 37.82962, "city": "Donetsk", "images": []}, {"id": 477768, "min_date": "2021-07-12T00:24:00Z", "max_date": "2021-07-12T00:24:00Z", "count_points": 1, "latitude": 49.99532, "longitude": 24.36791, "city": "Novyy Yarychiv", "images": []}, {"id": 477769, "min_date": "2021-07-12T10:12:00Z", "max_date": "2021-07-12T10:12:00Z", "count_points": 1, "latitude": 49.88512, "longitude": 32.11783, "city": "Drabiv", "images": []}, {"id": 477770, "min_date": "2021-07-12T10:12:00Z", "max_date": "2021-07-12T10:12:00Z", "count_points": 1, "latitude": 50.1879, "longitude": 35.37026, "city": "Huty", "images": []}, {"id": 477771, "min_date": "2021-07-12T10:12:00Z", "max_date": "2021-07-15T10:54:00Z", "count_points": 9, "latitude": 45.50155, "longitude": 29.34126, "city": "Shevchenkove", "images": []}, {"id": 477772, "min_date": "2021-07-12T10:12:00Z", "max_date": "2021-07-12T10:12:00Z", "count_points": 1, "latitude": 50.65139, "longitude": 33.47387, "city": "Romny", "images": []}, {"id": 477773, "min_date": "2021-07-12T10:12:00Z", "max_date": "2021-07-12T11:54:00Z", "count_points": 2, "latitude": 49.65599, "longitude": 28.73195, "city": "Kozyatyn", "images": []}, {"id": 477774, "min_date": "2021-07-12T10:12:00Z", "max_date": "2021-07-12T10:12:00Z", "count_points": 1, "latitude": 49.42656, "longitude": 39.30462, "city": "Novopskov", "images": []}, {"id": 477775, "min_date": "2021-07-12T10:12:00Z", "max_date": "2021-07-13T23:48:00Z", "count_points": 2, "latitude": 49.73434, "longitude": 36.86752, "city": "Pechenihy", "images": []}, {"id": 477776, "min_date": "2021-07-12T10:12:00Z", "max_date": "2021-07-12T10:12:00Z", "count_points": 1, "latitude": 49.12669, "longitude": 32.07066, "city": "Kamianka", "images": []}, {"id": 477777, "min_date": "2021-07-12T10:12:00Z", "max_date": "2021-07-12T10:12:00Z", "count_points": 1, "latitude": 50.35724, "longitude": 34.33559, "city": "Zin\u2019kiv", "images": []}, {"id": 477778, "min_date": "2021-07-12T11:54:00Z", "max_date": "2021-07-12T11:54:00Z", "count_points": 1, "latitude": 48.61956, "longitude": 25.59726, "city": "Stetseva", "images": []}, {"id": 477779, "min_date": "2021-07-13T00:06:00Z", "max_date": "2021-07-13T00:54:00Z", "count_points": 3, "latitude": 48.97314, "longitude": 23.9178, "city": "Dolyna", "images": []}, {"id": 477780, "min_date": "2021-07-13T00:06:00Z", "max_date": "2021-07-13T00:54:00Z", "count_points": 5, "latitude": 50.04114, "longitude": 34.04427, "city": "Velyki Sorochyntsi", "images": []}, {"id": 477781, "min_date": "2021-07-13T00:06:00Z", "max_date": "2021-07-13T00:06:00Z", "count_points": 1, "latitude": 49.21102, "longitude": 30.27423, "city": "Zhashkiv", "images": []}, {"id": 477782, "min_date": "2021-07-13T01:48:00Z", "max_date": "2021-07-13T01:48:00Z", "count_points": 1, "latitude": 50.12956, "longitude": 24.07013, "city": "Zhovkva", "images": []}, {"id": 477783, "min_date": "2021-07-13T09:54:00Z", "max_date": "2021-07-13T10:42:00Z", "count_points": 4, "latitude": 50.1415, "longitude": 28.92866, "city": "Andrushivka", "images": []}, {"id": 477784, "min_date": "2021-07-13T09:54:00Z", "max_date": "2021-07-13T09:54:00Z", "count_points": 2, "latitude": 49.5446, "longitude": 27.41345, "city": "Medzhybizh", "images": []}, {"id": 477785, "min_date": "2021-07-13T09:54:00Z", "max_date": "2021-07-13T09:54:00Z", "count_points": 2, "latitude": 50.61731, "longitude": 30.84424, "city": "Velyka Dymerka", "images": []}]