[{"id": 494247, "min_date": "2022-02-28T08:58:00Z", "max_date": "2022-02-28T09:43:00Z", "count_points": 9, "latitude": 50.83618, "longitude": 30.06757, "city": "Katyuzhanka", "images": []}, {"id": 494248, "min_date": "2022-02-28T08:58:00Z", "max_date": "2022-02-28T11:23:00Z", "count_points": 11, "latitude": 50.8216, "longitude": 29.6485, "city": "Piskivka", "images": []}, {"id": 494249, "min_date": "2022-02-28T08:58:00Z", "max_date": "2022-02-28T09:43:00Z", "count_points": 6, "latitude": 50.59774, "longitude": 29.87429, "city": "Borodianka", "images": []}, {"id": 494250, "min_date": "2022-02-28T08:58:00Z", "max_date": "2022-02-28T08:58:00Z", "count_points": 1, "latitude": 48.4353, "longitude": 29.76355, "city": "Hayvoron", "images": []}, {"id": 494251, "min_date": "2022-02-28T08:58:00Z", "max_date": "2022-02-28T09:43:00Z", "count_points": 3, "latitude": 48.06457, "longitude": 31.57372, "city": "Brats\u2019ke", "images": [{"image_url": "494251.jpg", "timestamp": "2022-02-28T09:43:00Z"}]}, {"id": 494252, "min_date": "2022-02-28T08:58:00Z", "max_date": "2022-02-28T09:43:00Z", "count_points": 2, "latitude": 48.28778, "longitude": 29.80116, "city": "Hayvoron", "images": []}, {"id": 494253, "min_date": "2022-02-28T08:58:00Z", "max_date": "2022-02-28T08:58:00Z", "count_points": 1, "latitude": 47.52293, "longitude": 31.46507, "city": "Voznesensk", "images": []}, {"id": 494254, "min_date": "2022-02-28T08:58:00Z", "max_date": "2022-02-28T08:58:00Z", "count_points": 1, "latitude": 47.01178, "longitude": 32.81861, "city": "Snihurivka", "images": []}, {"id": 494255, "min_date": "2022-02-28T08:58:00Z", "max_date": "2022-02-28T08:58:00Z", "count_points": 1, "latitude": 46.98617, "longitude": 32.11396, "city": "Mykolayiv", "images": []}, {"id": 494256, "min_date": "2022-02-28T10:49:00Z", "max_date": "2022-02-28T10:49:00Z", "count_points": 1, "latitude": 46.22124, "longitude": 32.55912, "city": "Lazurne", "images": []}, {"id": 494258, "min_date": "2022-02-28T10:51:00Z", "max_date": "2022-02-28T11:23:00Z", "count_points": 5, "latitude": 47.60157, "longitude": 31.13638, "city": "Domanivka", "images": []}, {"id": 494259, "min_date": "2022-02-28T10:51:00Z", "max_date": "2022-02-28T10:51:00Z", "count_points": 1, "latitude": 48.01198, "longitude": 33.38261, "city": "Kryvyi Rih", "images": []}, {"id": 494260, "min_date": "2022-02-28T10:51:00Z", "max_date": "2022-02-28T10:34:00Z", "count_points": 2, "latitude": 48.74166, "longitude": 28.28033, "city": "Sharhorod", "images": []}, {"id": 494261, "min_date": "2022-02-28T10:51:00Z", "max_date": "2022-02-28T11:23:00Z", "count_points": 43, "latitude": 50.41704, "longitude": 30.00404, "city": "Klavdiyevo-Tarasove", "images": []}, {"id": 494262, "min_date": "2022-02-28T10:51:00Z", "max_date": "2022-02-28T11:23:00Z", "count_points": 13, "latitude": 50.64751, "longitude": 30.21091, "city": "Hostomel", "images": []}, {"id": 494263, "min_date": "2022-02-28T10:51:00Z", "max_date": "2022-02-28T11:23:00Z", "count_points": 9, "latitude": 50.62944, "longitude": 29.89876, "city": "Borodianka", "images": []}, {"id": 494264, "min_date": "2022-02-28T10:51:00Z", "max_date": "2022-02-28T11:23:00Z", "count_points": 7, "latitude": 50.66092, "longitude": 30.06387, "city": "Klavdiyevo-Tarasove", "images": []}, {"id": 494265, "min_date": "2022-02-28T10:51:00Z", "max_date": "2022-03-05T23:43:00Z", "count_points": 9, "latitude": 51.52803, "longitude": 31.34615, "city": "Chernihiv", "images": []}, {"id": 494266, "min_date": "2022-02-28T20:08:00Z", "max_date": "2022-02-28T20:08:00Z", "count_points": 1, "latitude": 48.90484, "longitude": 28.49265, "city": "Tyvriv", "images": []}, {"id": 494267, "min_date": "2022-03-03T11:21:00Z", "max_date": "2022-03-03T11:21:00Z", "count_points": 1, "latitude": 48.20156, "longitude": 22.87504, "city": "Oleshnyk", "images": []}, {"id": 494268, "min_date": "2022-03-04T10:13:00Z", "max_date": "2022-03-06T11:12:00Z", "count_points": 3, "latitude": 48.10765, "longitude": 22.68085, "city": "Vary", "images": []}, {"id": 494269, "min_date": "2022-03-06T00:41:00Z", "max_date": "2022-03-06T00:34:00Z", "count_points": 4, "latitude": 51.34748, "longitude": 31.36163, "city": "Olyshivka", "images": []}, {"id": 494270, "min_date": "2022-03-06T10:00:00Z", "max_date": "2022-03-06T11:12:00Z", "count_points": 8, "latitude": 48.43423, "longitude": 22.60899, "city": "Nove Davydkovo", "images": []}, {"id": 494271, "min_date": "2022-03-06T11:51:00Z", "max_date": "2022-03-06T12:01:00Z", "count_points": 2, "latitude": 48.11225, "longitude": 23.48128, "city": "Bushtyno", "images": []}, {"id": 494272, "min_date": "2022-03-06T11:51:00Z", "max_date": "2022-03-06T11:12:00Z", "count_points": 8, "latitude": 48.5088, "longitude": 22.44938, "city": "Serednye", "images": []}, {"id": 494273, "min_date": "2022-02-28T00:45:00Z", "max_date": "2022-02-28T11:23:00Z", "count_points": 5, "latitude": 50.95171, "longitude": 29.9182, "city": "Ivankiv", "images": []}, {"id": 494274, "min_date": "2022-02-28T10:32:00Z", "max_date": "2022-02-28T10:32:00Z", "count_points": 1, "latitude": 46.15297, "longitude": 33.60542, "city": "Armyansk", "images": []}, {"id": 494275, "min_date": "2022-02-28T10:32:00Z", "max_date": "2022-02-28T10:32:00Z", "count_points": 1, "latitude": 46.18222, "longitude": 33.14621, "city": "Kalanchak", "images": []}, {"id": 494276, "min_date": "2022-02-28T10:32:00Z", "max_date": "2022-02-28T11:21:00Z", "count_points": 6, "latitude": 46.21946, "longitude": 33.08363, "city": "Skadovs\u2019k", "images": []}, {"id": 494277, "min_date": "2022-02-28T10:32:00Z", "max_date": "2022-02-28T10:32:00Z", "count_points": 1, "latitude": 46.67404, "longitude": 32.86833, "city": "Kozachi Laheri", "images": []}, {"id": 494278, "min_date": "2022-02-28T10:34:00Z", "max_date": "2022-02-28T10:34:00Z", "count_points": 4, "latitude": 47.38383, "longitude": 34.42872, "city": "Kamenka-Na-Dnepre", "images": []}, {"id": 494279, "min_date": "2022-02-28T10:34:00Z", "max_date": "2022-02-28T09:43:00Z", "count_points": 7, "latitude": 47.62779, "longitude": 29.95223, "city": "Ananyiv Pershyi", "images": []}, {"id": 494280, "min_date": "2022-02-28T10:34:00Z", "max_date": "2022-02-28T09:43:00Z", "count_points": 2, "latitude": 48.45566, "longitude": 33.80679, "city": "Piatykhatky", "images": []}, {"id": 494281, "min_date": "2022-02-28T10:34:00Z", "max_date": "2022-02-28T10:34:00Z", "count_points": 1, "latitude": 48.77554, "longitude": 29.91201, "city": "Khrystynivka", "images": []}, {"id": 494282, "min_date": "2022-02-28T10:34:00Z", "max_date": "2022-02-28T09:43:00Z", "count_points": 4, "latitude": 49.28885, "longitude": 29.23059, "city": "Lypovets", "images": []}, {"id": 494283, "min_date": "2022-02-28T10:34:00Z", "max_date": "2022-02-28T10:34:00Z", "count_points": 1, "latitude": 49.32676, "longitude": 28.1713, "city": "Lityn", "images": []}, {"id": 494284, "min_date": "2022-02-28T10:34:00Z", "max_date": "2022-02-28T09:43:00Z", "count_points": 4, "latitude": 49.98078, "longitude": 30.35515, "city": "Uzyn", "images": []}, {"id": 494286, "min_date": "2022-02-28T10:34:00Z", "max_date": "2022-02-28T11:23:00Z", "count_points": 4, "latitude": 50.53808, "longitude": 31.42589, "city": "Korniyivka", "images": []}, {"id": 494287, "min_date": "2022-02-28T10:34:00Z", "max_date": "2022-02-28T09:43:00Z", "count_points": 3, "latitude": 50.58489, "longitude": 31.64853, "city": "Zgurovka", "images": []}, {"id": 494288, "min_date": "2022-02-28T10:34:00Z", "max_date": "2022-02-28T09:43:00Z", "count_points": 5, "latitude": 50.19072, "longitude": 28.4962, "city": "Denyshi", "images": []}, {"id": 494291, "min_date": "2022-02-28T10:34:00Z", "max_date": "2022-02-28T11:23:00Z", "count_points": 2, "latitude": 51.21684, "longitude": 32.21538, "city": "Kruty", "images": []}, {"id": 494292, "min_date": "2022-02-28T10:34:00Z", "max_date": "2022-02-28T11:23:00Z", "count_points": 3, "latitude": 50.99418, "longitude": 29.76933, "city": "Ivankiv", "images": []}, {"id": 494294, "min_date": "2022-02-28T10:34:00Z", "max_date": "2022-02-28T10:34:00Z", "count_points": 1, "latitude": 51.5469, "longitude": 31.25489, "city": "Chernihiv", "images": []}, {"id": 494295, "min_date": "2022-02-28T10:34:00Z", "max_date": "2022-02-28T09:43:00Z", "count_points": 3, "latitude": 51.60705, "longitude": 31.23474, "city": "Chernihiv", "images": []}, {"id": 494296, "min_date": "2022-03-01T10:17:00Z", "max_date": "2022-03-01T10:17:00Z", "count_points": 1, "latitude": 48.29333, "longitude": 22.44704, "city": "Koson\u2019", "images": []}, {"id": 494297, "min_date": "2022-03-01T10:17:00Z", "max_date": "2022-03-01T11:06:00Z", "count_points": 3, "latitude": 51.46913, "longitude": 24.02661, "city": "Shats\u2019k", "images": []}, {"id": 494298, "min_date": "2022-03-02T11:36:00Z", "max_date": "2022-03-02T11:36:00Z", "count_points": 1, "latitude": 48.52171, "longitude": 22.18808, "city": "Chop", "images": []}, {"id": 494299, "min_date": "2022-03-03T23:30:00Z", "max_date": "2022-03-04T00:20:00Z", "count_points": 6, "latitude": 51.48392, "longitude": 31.24059, "city": "Chernihiv", "images": []}, {"id": 494300, "min_date": "2022-03-04T10:57:00Z", "max_date": "2022-03-06T11:12:00Z", "count_points": 8, "latitude": 48.65635, "longitude": 22.80013, "city": "Poroshkovo", "images": []}, {"id": 494301, "min_date": "2022-03-04T11:00:00Z", "max_date": "2022-03-04T11:00:00Z", "count_points": 1, "latitude": 50.03263, "longitude": 23.34762, "city": "Verblyany", "images": []}, {"id": 494302, "min_date": "2022-03-06T10:21:00Z", "max_date": "2022-03-06T11:10:00Z", "count_points": 5, "latitude": 48.02407, "longitude": 23.44762, "city": "Vyshkovo", "images": [{"image_url": "494302.jpg", "timestamp": "2022-03-06T11:10:00Z"}]}, {"id": 494303, "min_date": "2022-03-06T12:01:00Z", "max_date": "2022-03-06T12:01:00Z", "count_points": 2, "latitude": 48.09686, "longitude": 23.43113, "city": "Vyshkovo", "images": []}, {"id": 494304, "min_date": "2022-03-06T12:01:00Z", "max_date": "2022-03-06T12:01:00Z", "count_points": 2, "latitude": 48.47304, "longitude": 22.83881, "city": "Chynadiyovo", "images": []}, {"id": 494305, "min_date": "2022-03-06T12:01:00Z", "max_date": "2022-03-06T12:01:00Z", "count_points": 1, "latitude": 48.6969, "longitude": 22.81677, "city": "Poroshkovo", "images": []}, {"id": 494306, "min_date": "2022-03-06T12:01:00Z", "max_date": "2022-03-06T11:12:00Z", "count_points": 3, "latitude": 48.83439, "longitude": 22.46295, "city": "Velykyi Bereznyi", "images": []}, {"id": 494307, "min_date": "2022-02-28T09:41:00Z", "max_date": "2022-02-28T09:41:00Z", "count_points": 1, "latitude": 46.1071, "longitude": 33.43144, "city": "Kalanchak", "images": []}, {"id": 494308, "min_date": "2022-02-28T09:41:00Z", "max_date": "2022-02-28T11:21:00Z", "count_points": 4, "latitude": 46.95077, "longitude": 32.75388, "city": "Oleksandrivka", "images": []}, {"id": 494309, "min_date": "2022-02-28T09:43:00Z", "max_date": "2022-02-28T09:43:00Z", "count_points": 2, "latitude": 48.65671, "longitude": 31.07193, "city": "Tyshkivka", "images": []}, {"id": 494310, "min_date": "2022-02-28T09:43:00Z", "max_date": "2022-02-28T09:43:00Z", "count_points": 1, "latitude": 51.02045, "longitude": 33.939, "city": "Terny", "images": []}, {"id": 494311, "min_date": "2022-02-28T09:43:00Z", "max_date": "2022-02-28T09:43:00Z", "count_points": 1, "latitude": 50.60527, "longitude": 30.30813, "city": "Horenka", "images": []}, {"id": 494312, "min_date": "2022-02-28T11:23:00Z", "max_date": "2022-02-28T11:23:00Z", "count_points": 1, "latitude": 49.68649, "longitude": 31.32586, "city": "Kaniv", "images": []}, {"id": 494313, "min_date": "2022-02-28T11:23:00Z", "max_date": "2022-02-28T11:23:00Z", "count_points": 1, "latitude": 49.8648, "longitude": 28.61725, "city": "Berdychiv", "images": []}, {"id": 494314, "min_date": "2022-02-28T11:23:00Z", "max_date": "2022-02-28T11:23:00Z", "count_points": 1, "latitude": 50.19209, "longitude": 33.36639, "city": "Sencha", "images": []}, {"id": 494315, "min_date": "2022-02-28T11:23:00Z", "max_date": "2022-02-28T11:23:00Z", "count_points": 1, "latitude": 50.21212, "longitude": 29.76943, "city": "Fastiv", "images": []}, {"id": 494316, "min_date": "2022-02-28T11:21:00Z", "max_date": "2022-02-28T11:21:00Z", "count_points": 1, "latitude": 46.41341, "longitude": 33.15482, "city": "Brylivka", "images": []}, {"id": 494317, "min_date": "2022-02-28T11:21:00Z", "max_date": "2022-02-28T11:21:00Z", "count_points": 1, "latitude": 47.02628, "longitude": 32.68705, "city": "Snihurivka", "images": []}, {"id": 494318, "min_date": "2022-02-28T11:23:00Z", "max_date": "2022-02-28T11:23:00Z", "count_points": 1, "latitude": 48.15674, "longitude": 30.68973, "city": "Pobugskoye", "images": []}, {"id": 494319, "min_date": "2022-02-28T11:23:00Z", "max_date": "2022-02-28T11:23:00Z", "count_points": 1, "latitude": 48.58998, "longitude": 28.45113, "city": "Tomashpil\u2019", "images": []}, {"id": 494320, "min_date": "2022-02-28T11:23:00Z", "max_date": "2022-02-28T11:23:00Z", "count_points": 1, "latitude": 48.32874, "longitude": 23.07916, "city": "Irshava", "images": []}, {"id": 494322, "min_date": "2022-02-28T11:23:00Z", "max_date": "2022-02-28T11:23:00Z", "count_points": 2, "latitude": 49.22549, "longitude": 31.90473, "city": "Smila", "images": []}, {"id": 494323, "min_date": "2022-02-28T11:23:00Z", "max_date": "2022-02-28T11:23:00Z", "count_points": 1, "latitude": 49.28372, "longitude": 28.75622, "city": "Turbiv", "images": []}, {"id": 494324, "min_date": "2022-02-28T23:37:00Z", "max_date": "2022-02-28T23:37:00Z", "count_points": 3, "latitude": 50.56119, "longitude": 30.16429, "city": "Vorzel\u2019", "images": []}, {"id": 494325, "min_date": "2022-03-01T23:20:00Z", "max_date": "2022-03-01T23:20:00Z", "count_points": 1, "latitude": 45.26096, "longitude": 34.22001, "city": "Pyatikhatka", "images": []}, {"id": 494326, "min_date": "2022-03-05T00:05:00Z", "max_date": "2022-03-05T00:05:00Z", "count_points": 1, "latitude": 46.02188, "longitude": 34.55583, "city": "Medvedevka", "images": []}, {"id": 494327, "min_date": "2022-03-06T11:10:00Z", "max_date": "2022-03-06T11:10:00Z", "count_points": 1, "latitude": 47.9679, "longitude": 23.91578, "city": "Serednye Vodyane", "images": []}, {"id": 494328, "min_date": "2022-03-06T11:10:00Z", "max_date": "2022-03-06T11:10:00Z", "count_points": 1, "latitude": 48.08387, "longitude": 22.96711, "city": "Pidvynohradiv", "images": []}, {"id": 494329, "min_date": "2022-03-06T11:12:00Z", "max_date": "2022-03-06T11:12:00Z", "count_points": 1, "latitude": 48.19542, "longitude": 22.67955, "city": "Muzhiyevo", "images": []}, {"id": 494330, "min_date": "2022-03-06T11:12:00Z", "max_date": "2022-03-06T11:12:00Z", "count_points": 2, "latitude": 48.33627, "longitude": 22.93588, "city": "Irshava", "images": []}, {"id": 494331, "min_date": "2022-03-06T11:12:00Z", "max_date": "2022-03-06T11:12:00Z", "count_points": 1, "latitude": 48.38583, "longitude": 22.26634, "city": "Chop", "images": []}, {"id": 494332, "min_date": "2022-03-06T11:12:00Z", "max_date": "2022-03-06T11:12:00Z", "count_points": 1, "latitude": 48.4796, "longitude": 22.27251, "city": "Chop", "images": []}, {"id": 494333, "min_date": "2022-03-06T11:12:00Z", "max_date": "2022-03-06T11:12:00Z", "count_points": 2, "latitude": 48.68541, "longitude": 22.65864, "city": "Poroshkovo", "images": []}, {"id": 494290, "min_date": "2022-02-28T10:34:00Z", "max_date": "2022-02-28T10:34:00Z", "count_points": 2, "latitude": 50.72584, "longitude": 30.15865, "city": "Katyuzhanka", "images": []}, {"id": 494257, "min_date": "2022-02-28T10:49:00Z", "max_date": "2022-02-28T10:34:00Z", "count_points": 2, "latitude": 47.01214, "longitude": 32.13484, "city": "Mykolayiv", "images": []}, {"id": 494285, "min_date": "2022-02-28T10:34:00Z", "max_date": "2022-02-28T10:34:00Z", "count_points": 1, "latitude": 50.0799, "longitude": 30.6974, "city": "Ukrainka", "images": []}, {"id": 494289, "min_date": "2022-02-28T10:34:00Z", "max_date": "2022-02-28T10:34:00Z", "count_points": 1, "latitude": 50.42527, "longitude": 29.6689, "city": "Stavyshche", "images": []}, {"id": 494293, "min_date": "2022-02-28T10:34:00Z", "max_date": "2022-02-28T10:34:00Z", "count_points": 1, "latitude": 50.97414, "longitude": 29.52717, "city": "Krasyatychi", "images": []}, {"id": 495163, "min_date": "2022-03-06T23:24:00Z", "max_date": "2022-03-06T23:24:00Z", "count_points": 1, "latitude": 49.19641, "longitude": 37.27687, "city": "Izyum", "images": []}, {"id": 495164, "min_date": "2022-02-28T00:45:00Z", "max_date": "2022-02-28T00:45:00Z", "count_points": 2, "latitude": 50.06562, "longitude": 36.62396, "city": "Staryy Saltiv", "images": []}, {"id": 494321, "min_date": "2022-02-28T11:23:00Z", "max_date": "2022-02-28T11:23:00Z", "count_points": 1, "latitude": 49.09136, "longitude": 30.91902, "city": "Zvenihorodka", "images": []}]