[{"id": 493397, "min_date": "2022-02-13T11:55:00Z", "max_date": "2022-02-13T11:04:00Z", "count_points": 3, "latitude": 47.32074, "longitude": 30.14092, "city": "Shyryayeve", "images": []}, {"id": 493398, "min_date": "2022-02-13T11:55:00Z", "max_date": "2022-02-13T11:55:00Z", "count_points": 1, "latitude": 48.39148, "longitude": 25.49416, "city": "Vashkivtsi", "images": []}, {"id": 493399, "min_date": "2022-02-13T11:55:00Z", "max_date": "2022-02-13T11:55:00Z", "count_points": 1, "latitude": 48.39059, "longitude": 25.33716, "city": "Banyliv", "images": []}, {"id": 493400, "min_date": "2022-02-13T11:55:00Z", "max_date": "2022-02-13T11:55:00Z", "count_points": 1, "latitude": 49.34143, "longitude": 32.26437, "city": "Chervona Sloboda", "images": []}, {"id": 493401, "min_date": "2022-02-13T11:55:00Z", "max_date": "2022-02-13T11:55:00Z", "count_points": 2, "latitude": 49.25447, "longitude": 23.63416, "city": "Ulychne", "images": []}, {"id": 493402, "min_date": "2022-02-13T11:55:00Z", "max_date": "2022-02-13T11:55:00Z", "count_points": 2, "latitude": 49.53538, "longitude": 23.31244, "city": "Ralivka", "images": []}, {"id": 493403, "min_date": "2022-02-13T11:04:00Z", "max_date": "2022-02-13T11:04:00Z", "count_points": 1, "latitude": 45.39494, "longitude": 33.506, "city": "Stolbovoye", "images": []}, {"id": 493404, "min_date": "2022-02-13T11:04:00Z", "max_date": "2022-02-13T11:04:00Z", "count_points": 2, "latitude": 45.46775, "longitude": 29.43865, "city": "Vylkove", "images": []}, {"id": 493405, "min_date": "2022-02-13T11:04:00Z", "max_date": "2022-02-13T11:04:00Z", "count_points": 1, "latitude": 45.55123, "longitude": 29.46542, "city": "Shevchenkove", "images": []}, {"id": 493406, "min_date": "2022-02-13T11:04:00Z", "max_date": "2022-02-13T11:04:00Z", "count_points": 1, "latitude": 46.12844, "longitude": 33.48116, "city": "Suvorovo", "images": []}, {"id": 493407, "min_date": "2022-02-13T11:04:00Z", "max_date": "2022-02-13T11:04:00Z", "count_points": 5, "latitude": 46.22655, "longitude": 34.24268, "city": "Novotroyits\u2019ke", "images": []}, {"id": 493408, "min_date": "2022-02-13T11:04:00Z", "max_date": "2022-02-13T11:04:00Z", "count_points": 1, "latitude": 46.16299, "longitude": 33.13346, "city": "Kalanchak", "images": []}, {"id": 493409, "min_date": "2022-02-13T11:04:00Z", "max_date": "2022-02-13T11:04:00Z", "count_points": 1, "latitude": 46.51003, "longitude": 32.65075, "city": "Hola Prystan\u2019", "images": []}, {"id": 493410, "min_date": "2022-02-13T11:04:00Z", "max_date": "2022-02-13T11:04:00Z", "count_points": 1, "latitude": 46.36263, "longitude": 29.84447, "city": "Kamyshevka Vtoraya", "images": []}, {"id": 493411, "min_date": "2022-02-13T11:04:00Z", "max_date": "2022-02-13T11:04:00Z", "count_points": 1, "latitude": 46.91843, "longitude": 34.21025, "city": "Nyzhni Sirohozy", "images": []}, {"id": 493412, "min_date": "2022-02-13T11:04:00Z", "max_date": "2022-02-13T11:04:00Z", "count_points": 2, "latitude": 46.40673, "longitude": 29.1928, "city": "Borodino", "images": []}, {"id": 493413, "min_date": "2022-02-13T11:04:00Z", "max_date": "2022-02-13T11:04:00Z", "count_points": 1, "latitude": 47.31793, "longitude": 30.91612, "city": "Berezivka", "images": []}, {"id": 493414, "min_date": "2022-02-13T11:04:00Z", "max_date": "2022-02-13T11:04:00Z", "count_points": 2, "latitude": 47.40562, "longitude": 30.17551, "city": "Shyryayeve", "images": []}, {"id": 493415, "min_date": "2022-02-13T11:04:00Z", "max_date": "2022-02-13T11:04:00Z", "count_points": 1, "latitude": 48.05294, "longitude": 29.02582, "city": "Kodyma", "images": []}, {"id": 493416, "min_date": "2022-02-13T11:04:00Z", "max_date": "2022-02-13T11:04:00Z", "count_points": 1, "latitude": 48.75276, "longitude": 24.9473, "city": "Otyniya", "images": []}, {"id": 493417, "min_date": "2022-02-13T11:04:00Z", "max_date": "2022-02-13T11:04:00Z", "count_points": 1, "latitude": 49.01204, "longitude": 24.26074, "city": "Broshniv-Osada", "images": []}, {"id": 493418, "min_date": "2022-02-13T11:04:00Z", "max_date": "2022-02-13T11:04:00Z", "count_points": 1, "latitude": 49.12003, "longitude": 24.33385, "city": "Kalush", "images": []}, {"id": 493419, "min_date": "2022-02-13T11:04:00Z", "max_date": "2022-02-13T11:04:00Z", "count_points": 1, "latitude": 49.06843, "longitude": 23.75914, "city": "Bolekhiv", "images": []}, {"id": 493420, "min_date": "2022-02-13T11:04:00Z", "max_date": "2022-02-13T11:04:00Z", "count_points": 1, "latitude": 49.39722, "longitude": 23.27073, "city": "Pidbuzh", "images": []}, {"id": 493421, "min_date": "2022-02-13T11:04:00Z", "max_date": "2022-02-13T11:04:00Z", "count_points": 1, "latitude": 49.54934, "longitude": 23.43852, "city": "Dublyany", "images": []}, {"id": 493422, "min_date": "2022-02-13T11:04:00Z", "max_date": "2022-02-13T11:04:00Z", "count_points": 1, "latitude": 49.5618, "longitude": 22.95826, "city": "Skelivka", "images": []}, {"id": 493423, "min_date": "2022-02-13T11:04:00Z", "max_date": "2022-02-13T11:04:00Z", "count_points": 1, "latitude": 49.66351, "longitude": 23.33575, "city": "Sudova Vyshnya", "images": []}, {"id": 493424, "min_date": "2022-02-13T23:18:00Z", "max_date": "2022-02-13T23:18:00Z", "count_points": 1, "latitude": 50.64944, "longitude": 29.8078, "city": "Borodianka", "images": []}, {"id": 493386, "min_date": "2022-02-13T11:34:00Z", "max_date": "2022-02-13T11:34:00Z", "count_points": 1, "latitude": 46.20425, "longitude": 29.13847, "city": "Tarutyne", "images": []}, {"id": 493387, "min_date": "2022-02-13T11:34:00Z", "max_date": "2022-02-13T11:04:00Z", "count_points": 4, "latitude": 46.53433, "longitude": 33.4041, "city": "Chornyanka", "images": []}, {"id": 493388, "min_date": "2022-02-13T11:34:00Z", "max_date": "2022-02-13T11:04:00Z", "count_points": 3, "latitude": 48.24849, "longitude": 29.30301, "city": "Chechelnyk", "images": []}, {"id": 493389, "min_date": "2022-02-13T11:34:00Z", "max_date": "2022-02-13T11:04:00Z", "count_points": 5, "latitude": 49.25432, "longitude": 24.48934, "city": "Burshtyn", "images": []}, {"id": 493390, "min_date": "2022-02-13T11:34:00Z", "max_date": "2022-02-13T11:55:00Z", "count_points": 3, "latitude": 49.46562, "longitude": 23.03461, "city": "Staryy Sambir", "images": []}, {"id": 493391, "min_date": "2022-02-13T10:15:00Z", "max_date": "2022-02-13T10:15:00Z", "count_points": 1, "latitude": 46.63445, "longitude": 34.73556, "city": "Ivanivka", "images": []}, {"id": 493392, "min_date": "2022-02-13T10:15:00Z", "max_date": "2022-02-13T10:15:00Z", "count_points": 1, "latitude": 45.92718, "longitude": 29.63018, "city": "Tatarbunary", "images": []}, {"id": 493393, "min_date": "2022-02-13T10:15:00Z", "max_date": "2022-02-13T11:04:00Z", "count_points": 4, "latitude": 46.88571, "longitude": 33.4656, "city": "Beryslav", "images": []}, {"id": 493394, "min_date": "2022-02-13T10:15:00Z", "max_date": "2022-02-13T11:04:00Z", "count_points": 3, "latitude": 47.42442, "longitude": 31.62926, "city": "Nova Odesa", "images": []}, {"id": 493395, "min_date": "2022-02-13T10:15:00Z", "max_date": "2022-02-13T11:04:00Z", "count_points": 4, "latitude": 48.38863, "longitude": 28.05588, "city": "Chernivtsi", "images": []}, {"id": 493396, "min_date": "2022-02-13T10:15:00Z", "max_date": "2022-02-13T11:04:00Z", "count_points": 3, "latitude": 48.36975, "longitude": 26.50301, "city": "Khotyn", "images": []}]