[{"id": 493737, "min_date": "2022-02-21T08:54:00Z", "max_date": "2022-02-21T08:54:00Z", "count_points": 1, "latitude": 47.6661, "longitude": 34.2564, "city": "Chortomlyk", "images": []}, {"id": 493738, "min_date": "2022-02-21T08:54:00Z", "max_date": "2022-02-21T08:54:00Z", "count_points": 1, "latitude": 47.65049, "longitude": 32.96572, "city": "Kazanka", "images": []}, {"id": 493739, "min_date": "2022-02-21T08:54:00Z", "max_date": "2022-02-21T08:54:00Z", "count_points": 1, "latitude": 47.8166, "longitude": 29.41054, "city": "Slobidka", "images": []}, {"id": 493741, "min_date": "2022-02-21T08:54:00Z", "max_date": "2022-02-21T08:54:00Z", "count_points": 2, "latitude": 46.85019, "longitude": 33.42862, "city": "Beryslav", "images": []}, {"id": 493742, "min_date": "2022-02-21T08:54:00Z", "max_date": "2022-02-21T10:15:00Z", "count_points": 20, "latitude": 47.28479, "longitude": 30.52737, "city": "Ivanivka", "images": [{"image_url": "493742.jpg", "timestamp": "2022-02-21T10:15:00Z"}]}, {"id": 493743, "min_date": "2022-02-21T08:54:00Z", "max_date": "2022-02-21T08:54:00Z", "count_points": 1, "latitude": 46.35606, "longitude": 32.95596, "city": "Vynohradove", "images": []}, {"id": 493744, "min_date": "2022-02-21T08:54:00Z", "max_date": "2022-02-21T08:54:00Z", "count_points": 1, "latitude": 46.17796, "longitude": 33.17525, "city": "Kalanchak", "images": []}, {"id": 493745, "min_date": "2022-02-21T08:54:00Z", "max_date": "2022-02-21T10:15:00Z", "count_points": 3, "latitude": 45.79063, "longitude": 29.1528, "city": "Dmytrivka", "images": [{"image_url": "493745.jpg", "timestamp": "2022-02-21T10:15:00Z"}]}, {"id": 493746, "min_date": "2022-02-21T10:45:00Z", "max_date": "2022-02-21T10:45:00Z", "count_points": 1, "latitude": 44.95129, "longitude": 33.92017, "city": "Pozharskoye", "images": []}, {"id": 493747, "min_date": "2022-02-21T10:45:00Z", "max_date": "2022-02-21T10:15:00Z", "count_points": 5, "latitude": 45.85788, "longitude": 34.66707, "city": "Chaykino", "images": []}, {"id": 493748, "min_date": "2022-02-21T10:45:00Z", "max_date": "2022-02-21T10:15:00Z", "count_points": 4, "latitude": 46.31508, "longitude": 34.32238, "city": "Novotroyits\u2019ke", "images": []}, {"id": 493749, "min_date": "2022-02-21T10:45:00Z", "max_date": "2022-02-26T10:19:00Z", "count_points": 6, "latitude": 46.14448, "longitude": 33.13348, "city": "Kalanchak", "images": []}, {"id": 493750, "min_date": "2022-02-21T10:45:00Z", "max_date": "2022-02-21T10:45:00Z", "count_points": 1, "latitude": 46.17333, "longitude": 33.23404, "city": "Kalanchak", "images": []}, {"id": 493751, "min_date": "2022-02-21T10:45:00Z", "max_date": "2022-02-21T11:53:00Z", "count_points": 5, "latitude": 46.2134, "longitude": 33.0038, "city": "Skadovs\u2019k", "images": []}, {"id": 493752, "min_date": "2022-02-21T10:45:00Z", "max_date": "2022-02-21T10:45:00Z", "count_points": 2, "latitude": 46.47683, "longitude": 32.85657, "city": "Radens\u2019k", "images": []}, {"id": 493753, "min_date": "2022-02-21T10:45:00Z", "max_date": "2022-02-21T10:45:00Z", "count_points": 1, "latitude": 46.63454, "longitude": 33.76369, "city": "Askaniya-Nova", "images": []}, {"id": 493754, "min_date": "2022-02-21T10:45:00Z", "max_date": "2022-02-21T11:04:00Z", "count_points": 2, "latitude": 46.74005, "longitude": 33.0945, "city": "Kozachi Laheri", "images": []}, {"id": 493757, "min_date": "2022-02-21T10:45:00Z", "max_date": "2022-02-21T11:04:00Z", "count_points": 4, "latitude": 47.00218, "longitude": 34.18171, "city": "Nyzhni Sirohozy", "images": []}, {"id": 493758, "min_date": "2022-02-21T10:45:00Z", "max_date": "2022-02-21T10:45:00Z", "count_points": 1, "latitude": 46.72842, "longitude": 32.27953, "city": "Shevchenkove", "images": []}, {"id": 493759, "min_date": "2022-02-21T10:45:00Z", "max_date": "2022-02-21T11:04:00Z", "count_points": 7, "latitude": 47.22592, "longitude": 34.57416, "city": "Velyka Bilozerka", "images": []}, {"id": 493760, "min_date": "2022-02-21T10:45:00Z", "max_date": "2022-02-21T10:15:00Z", "count_points": 3, "latitude": 46.94875, "longitude": 32.6684, "city": "Oleksandrivka", "images": []}, {"id": 493761, "min_date": "2022-02-21T10:45:00Z", "max_date": "2022-02-21T11:04:00Z", "count_points": 2, "latitude": 47.32822, "longitude": 34.99213, "city": "Dniprorudne", "images": []}, {"id": 493762, "min_date": "2022-02-21T10:45:00Z", "max_date": "2022-02-21T10:45:00Z", "count_points": 1, "latitude": 46.68468, "longitude": 30.06581, "city": "Stepove", "images": []}, {"id": 493763, "min_date": "2022-02-21T10:45:00Z", "max_date": "2022-02-21T10:15:00Z", "count_points": 2, "latitude": 46.89987, "longitude": 30.96346, "city": "Kurisove", "images": []}, {"id": 493764, "min_date": "2022-02-21T10:45:00Z", "max_date": "2022-02-21T11:04:00Z", "count_points": 2, "latitude": 46.80747, "longitude": 29.97532, "city": "Stepanivka", "images": []}, {"id": 493765, "min_date": "2022-02-21T10:45:00Z", "max_date": "2022-02-21T11:04:00Z", "count_points": 4, "latitude": 47.67401, "longitude": 34.64366, "city": "Marhanets\u2019", "images": []}, {"id": 493766, "min_date": "2022-02-21T10:45:00Z", "max_date": "2022-02-21T11:53:00Z", "count_points": 10, "latitude": 47.13863, "longitude": 30.90586, "city": "Berezivka", "images": [{"image_url": "493766.jpg", "timestamp": "2022-02-21T11:53:00Z"}]}, {"id": 493767, "min_date": "2022-02-21T10:45:00Z", "max_date": "2022-02-21T10:15:00Z", "count_points": 9, "latitude": 47.75692, "longitude": 34.55507, "city": "Chervonohryhorivka", "images": []}, {"id": 493768, "min_date": "2022-02-21T10:45:00Z", "max_date": "2022-02-21T11:53:00Z", "count_points": 16, "latitude": 47.27986, "longitude": 30.77409, "city": "Berezivka", "images": []}, {"id": 493769, "min_date": "2022-02-21T10:45:00Z", "max_date": "2022-02-21T10:15:00Z", "count_points": 8, "latitude": 47.81743, "longitude": 34.06766, "city": "Sholokhove", "images": []}, {"id": 493770, "min_date": "2022-02-21T10:45:00Z", "max_date": "2022-02-21T10:15:00Z", "count_points": 3, "latitude": 47.23639, "longitude": 30.42036, "city": "Shyryayeve", "images": [{"image_url": "493770.jpg", "timestamp": "2022-02-21T10:15:00Z"}]}, {"id": 493771, "min_date": "2022-02-21T10:45:00Z", "max_date": "2022-02-21T10:45:00Z", "count_points": 1, "latitude": 47.14561, "longitude": 29.73059, "city": "Kuchurhan", "images": []}, {"id": 493773, "min_date": "2022-02-21T10:45:00Z", "max_date": "2022-02-21T10:15:00Z", "count_points": 5, "latitude": 47.28002, "longitude": 30.0391, "city": "Zatyshshya", "images": []}, {"id": 493774, "min_date": "2022-02-21T10:45:00Z", "max_date": "2022-02-21T10:45:00Z", "count_points": 1, "latitude": 47.34017, "longitude": 30.22246, "city": "Shyryayeve", "images": []}, {"id": 493775, "min_date": "2022-02-21T10:45:00Z", "max_date": "2022-02-21T11:53:00Z", "count_points": 5, "latitude": 47.35164, "longitude": 29.93211, "city": "Zatyshshya", "images": []}, {"id": 493776, "min_date": "2022-02-21T10:45:00Z", "max_date": "2022-02-21T11:04:00Z", "count_points": 2, "latitude": 47.8128, "longitude": 32.41713, "city": "Novyy Buh", "images": []}, {"id": 493777, "min_date": "2022-02-21T10:45:00Z", "max_date": "2022-02-21T10:15:00Z", "count_points": 3, "latitude": 48.23211, "longitude": 34.79026, "city": "Solone", "images": [{"image_url": "493777.jpg", "timestamp": "2022-02-21T10:15:00Z"}]}, {"id": 493778, "min_date": "2022-02-21T10:45:00Z", "max_date": "2022-02-25T11:29:00Z", "count_points": 3, "latitude": 47.4189, "longitude": 29.54579, "city": "Okny", "images": []}, {"id": 493779, "min_date": "2022-02-21T10:45:00Z", "max_date": "2022-02-21T10:45:00Z", "count_points": 2, "latitude": 47.70482, "longitude": 30.63998, "city": "Vradiyivka", "images": []}, {"id": 493780, "min_date": "2022-02-21T10:45:00Z", "max_date": "2022-02-21T11:53:00Z", "count_points": 10, "latitude": 47.56128, "longitude": 29.48006, "city": "Okny", "images": []}, {"id": 493781, "min_date": "2022-02-21T10:45:00Z", "max_date": "2022-02-21T10:15:00Z", "count_points": 3, "latitude": 48.43596, "longitude": 34.64636, "city": "Kamianske", "images": []}, {"id": 493782, "min_date": "2022-02-21T10:45:00Z", "max_date": "2022-02-25T10:40:00Z", "count_points": 3, "latitude": 48.10661, "longitude": 32.32729, "city": "Bobrynets", "images": [{"image_url": "493782.jpg", "timestamp": "2022-02-25T10:40:00Z"}]}, {"id": 493783, "min_date": "2022-02-21T10:45:00Z", "max_date": "2022-02-23T11:17:00Z", "count_points": 5, "latitude": 47.84964, "longitude": 29.60197, "city": "Balta", "images": []}, {"id": 493784, "min_date": "2022-02-21T10:45:00Z", "max_date": "2022-02-21T10:45:00Z", "count_points": 2, "latitude": 47.91586, "longitude": 29.82934, "city": "Balta", "images": []}, {"id": 493785, "min_date": "2022-02-21T10:45:00Z", "max_date": "2022-02-21T10:45:00Z", "count_points": 1, "latitude": 48.18988, "longitude": 31.00245, "city": "Lysa Hora", "images": []}, {"id": 493786, "min_date": "2022-02-21T10:45:00Z", "max_date": "2022-02-23T11:17:00Z", "count_points": 5, "latitude": 48.01717, "longitude": 29.92808, "city": "Savran", "images": []}, {"id": 493787, "min_date": "2022-02-21T10:45:00Z", "max_date": "2022-02-21T10:45:00Z", "count_points": 1, "latitude": 48.12852, "longitude": 29.85427, "city": "Peschana", "images": []}, {"id": 493788, "min_date": "2022-02-22T09:36:00Z", "max_date": "2022-02-22T11:36:00Z", "count_points": 3, "latitude": 48.45136, "longitude": 26.77212, "city": "Kel\u2019mentsi", "images": [{"image_url": "493788.jpg", "timestamp": "2022-02-22T11:36:00Z"}]}, {"id": 493789, "min_date": "2022-02-22T09:36:00Z", "max_date": "2022-02-22T10:47:00Z", "count_points": 4, "latitude": 48.40449, "longitude": 26.93855, "city": "Kel\u2019mentsi", "images": [{"image_url": "493789.jpg", "timestamp": "2022-02-22T10:47:00Z"}]}, {"id": 493790, "min_date": "2022-02-22T11:29:00Z", "max_date": "2022-02-25T11:29:00Z", "count_points": 2, "latitude": 48.14639, "longitude": 26.22274, "city": "Novoselytsya", "images": []}, {"id": 493791, "min_date": "2022-02-22T11:29:00Z", "max_date": "2022-02-22T11:36:00Z", "count_points": 3, "latitude": 48.40343, "longitude": 28.39046, "city": "Klembivka", "images": []}, {"id": 493792, "min_date": "2022-02-22T11:29:00Z", "max_date": "2022-02-22T11:29:00Z", "count_points": 1, "latitude": 48.16978, "longitude": 25.85668, "city": "Voloka", "images": []}, {"id": 493793, "min_date": "2022-02-22T11:29:00Z", "max_date": "2022-02-22T11:36:00Z", "count_points": 5, "latitude": 48.34392, "longitude": 26.18546, "city": "Boyany", "images": [{"image_url": "493793.jpg", "timestamp": "2022-02-22T11:36:00Z"}]}, {"id": 493794, "min_date": "2022-02-22T11:29:00Z", "max_date": "2022-02-22T11:36:00Z", "count_points": 4, "latitude": 48.47722, "longitude": 26.84755, "city": "Kel\u2019mentsi", "images": []}, {"id": 493795, "min_date": "2022-02-22T11:29:00Z", "max_date": "2022-02-22T11:29:00Z", "count_points": 1, "latitude": 48.63795, "longitude": 26.66745, "city": "Kamianets-Podilskyi", "images": []}, {"id": 493796, "min_date": "2022-02-22T11:29:00Z", "max_date": "2022-02-22T10:47:00Z", "count_points": 2, "latitude": 48.63951, "longitude": 26.3081, "city": "Zhvanets", "images": []}, {"id": 493797, "min_date": "2022-02-23T08:39:00Z", "max_date": "2022-02-23T08:39:00Z", "count_points": 1, "latitude": 48.44138, "longitude": 32.94518, "city": "Nova Praha", "images": []}, {"id": 493798, "min_date": "2022-02-23T08:39:00Z", "max_date": "2022-02-23T11:17:00Z", "count_points": 9, "latitude": 47.94933, "longitude": 29.2538, "city": "Slobidka", "images": []}, {"id": 493800, "min_date": "2022-02-23T10:32:00Z", "max_date": "2022-02-23T10:25:00Z", "count_points": 2, "latitude": 47.05125, "longitude": 34.31661, "city": "Verkhniy Rohachyk", "images": []}, {"id": 493801, "min_date": "2022-02-23T10:32:00Z", "max_date": "2022-02-23T11:17:00Z", "count_points": 3, "latitude": 46.49842, "longitude": 30.04191, "city": "Starokozache", "images": []}, {"id": 493802, "min_date": "2022-02-23T10:32:00Z", "max_date": "2022-02-23T10:32:00Z", "count_points": 1, "latitude": 47.43076, "longitude": 34.63401, "city": "Dniprovka", "images": []}, {"id": 493803, "min_date": "2022-02-23T10:32:00Z", "max_date": "2022-02-23T10:32:00Z", "count_points": 1, "latitude": 47.58522, "longitude": 34.00493, "city": "Ordzhonikidze", "images": []}, {"id": 493804, "min_date": "2022-02-23T10:32:00Z", "max_date": "2022-02-23T10:32:00Z", "count_points": 1, "latitude": 46.85833, "longitude": 30.12609, "city": "Rozdil\u2019na", "images": []}, {"id": 493805, "min_date": "2022-02-23T10:32:00Z", "max_date": "2022-02-23T10:32:00Z", "count_points": 1, "latitude": 48.19936, "longitude": 34.88699, "city": "Solone", "images": []}, {"id": 493806, "min_date": "2022-02-23T10:32:00Z", "max_date": "2022-02-23T11:17:00Z", "count_points": 8, "latitude": 47.29943, "longitude": 29.90085, "city": "Zatyshshya", "images": []}, {"id": 493807, "min_date": "2022-02-23T10:32:00Z", "max_date": "2022-02-23T10:32:00Z", "count_points": 1, "latitude": 48.2145, "longitude": 34.75966, "city": "Surs\u2019ko-Mykhaylivka", "images": []}, {"id": 493808, "min_date": "2022-02-23T10:32:00Z", "max_date": "2022-02-23T11:17:00Z", "count_points": 8, "latitude": 47.48181, "longitude": 30.76398, "city": "Mykolayivka", "images": [{"image_url": "493808.jpg", "timestamp": "2022-02-23T11:17:00Z"}]}, {"id": 493809, "min_date": "2022-02-23T10:32:00Z", "max_date": "2022-02-23T10:32:00Z", "count_points": 2, "latitude": 47.46594, "longitude": 30.30817, "city": "Shyryayeve", "images": []}, {"id": 493810, "min_date": "2022-02-23T10:32:00Z", "max_date": "2022-02-23T10:32:00Z", "count_points": 2, "latitude": 48.36445, "longitude": 34.42015, "city": "Krynychky", "images": []}, {"id": 493811, "min_date": "2022-02-23T10:32:00Z", "max_date": "2022-02-23T11:17:00Z", "count_points": 13, "latitude": 47.61965, "longitude": 30.05809, "city": "Ananyiv Pershyi", "images": []}, {"id": 493812, "min_date": "2022-02-23T10:32:00Z", "max_date": "2022-02-23T10:32:00Z", "count_points": 1, "latitude": 47.7184, "longitude": 29.98425, "city": "Ananyiv Pershyi", "images": []}, {"id": 493813, "min_date": "2022-02-23T10:32:00Z", "max_date": "2022-02-21T11:04:00Z", "count_points": 2, "latitude": 47.72626, "longitude": 29.7677, "city": "Ananyiv Pershyi", "images": []}, {"id": 493814, "min_date": "2022-02-23T10:32:00Z", "max_date": "2022-02-23T11:17:00Z", "count_points": 10, "latitude": 47.7506, "longitude": 29.39765, "city": "Podil\u2019s\u2019k", "images": []}, {"id": 493815, "min_date": "2022-02-23T10:32:00Z", "max_date": "2022-02-23T11:17:00Z", "count_points": 3, "latitude": 47.94422, "longitude": 30.04425, "city": "Savran", "images": []}, {"id": 493816, "min_date": "2022-02-23T10:34:00Z", "max_date": "2022-02-23T11:17:00Z", "count_points": 3, "latitude": 47.95927, "longitude": 29.03362, "city": "Zagnitkiv", "images": []}, {"id": 493817, "min_date": "2022-02-23T10:34:00Z", "max_date": "2022-02-23T10:28:00Z", "count_points": 5, "latitude": 48.48452, "longitude": 26.43611, "city": "Khotyn", "images": []}, {"id": 493818, "min_date": "2022-02-23T10:34:00Z", "max_date": "2022-02-23T10:28:00Z", "count_points": 5, "latitude": 49.74706, "longitude": 30.29262, "city": "Uzyn", "images": []}, {"id": 493819, "min_date": "2022-02-24T09:24:00Z", "max_date": "2022-02-24T09:24:00Z", "count_points": 1, "latitude": 48.73864, "longitude": 30.05054, "city": "Verkhnyachka", "images": []}, {"id": 493820, "min_date": "2022-02-24T09:24:00Z", "max_date": "2022-02-24T09:24:00Z", "count_points": 1, "latitude": 47.01478, "longitude": 34.08203, "city": "Velyka Lepetykha", "images": []}, {"id": 493821, "min_date": "2022-02-24T11:14:00Z", "max_date": "2022-02-25T11:29:00Z", "count_points": 3, "latitude": 47.43625, "longitude": 32.29285, "city": "Bashtanka", "images": []}, {"id": 493822, "min_date": "2022-02-25T08:26:00Z", "max_date": "2022-02-26T00:34:00Z", "count_points": 8, "latitude": 51.22658, "longitude": 29.41312, "city": "Krasyatychi", "images": []}, {"id": 493823, "min_date": "2022-02-25T08:26:00Z", "max_date": "2022-02-27T00:13:00Z", "count_points": 25, "latitude": 50.92387, "longitude": 29.9164, "city": "Ivankiv", "images": [{"image_url": "493823.jpg", "timestamp": "2022-02-27T00:13:00Z"}]}, {"id": 493824, "min_date": "2022-02-25T10:21:00Z", "max_date": "2022-02-25T10:40:00Z", "count_points": 11, "latitude": 51.34083, "longitude": 31.93516, "city": "Berezna", "images": []}, {"id": 493825, "min_date": "2022-02-25T10:21:00Z", "max_date": "2022-02-25T09:49:00Z", "count_points": 4, "latitude": 51.60168, "longitude": 31.23147, "city": "Chernihiv", "images": []}, {"id": 493827, "min_date": "2022-02-26T09:09:00Z", "max_date": "2022-02-26T12:01:00Z", "count_points": 4, "latitude": 50.80033, "longitude": 30.31566, "city": "Dymer", "images": []}, {"id": 493828, "min_date": "2022-02-26T09:09:00Z", "max_date": "2022-02-26T10:21:00Z", "count_points": 27, "latitude": 50.59475, "longitude": 30.19436, "city": "Bucha", "images": [{"image_url": "493828.jpg", "timestamp": "2022-02-26T10:21:00Z"}]}, {"id": 493829, "min_date": "2022-02-26T09:11:00Z", "max_date": "2022-02-26T09:11:00Z", "count_points": 2, "latitude": 48.32037, "longitude": 26.09337, "city": "Boyany", "images": []}, {"id": 493830, "min_date": "2022-02-26T09:11:00Z", "max_date": "2022-02-26T09:11:00Z", "count_points": 1, "latitude": 46.99553, "longitude": 30.02556, "city": "Rozdil\u2019na", "images": []}, {"id": 493756, "min_date": "2022-02-21T10:45:00Z", "max_date": "2022-02-21T10:45:00Z", "count_points": 1, "latitude": 46.68996, "longitude": 32.62189, "city": "Kherson", "images": []}, {"id": 493833, "min_date": "2022-02-26T11:04:00Z", "max_date": "2022-02-26T10:19:00Z", "count_points": 9, "latitude": 46.72228, "longitude": 32.69729, "city": "Kherson", "images": []}, {"id": 493834, "min_date": "2022-02-26T11:04:00Z", "max_date": "2022-02-27T10:02:00Z", "count_points": 8, "latitude": 46.80957, "longitude": 33.32618, "city": "Nova Kakhovka", "images": []}, {"id": 493835, "min_date": "2022-02-26T11:04:00Z", "max_date": "2022-02-27T00:15:00Z", "count_points": 9, "latitude": 46.47167, "longitude": 30.41726, "city": "Teplodar", "images": []}, {"id": 493836, "min_date": "2022-02-26T11:04:00Z", "max_date": "2022-02-26T11:10:00Z", "count_points": 8, "latitude": 46.84681, "longitude": 33.21296, "city": "Dnipryany", "images": []}, {"id": 493837, "min_date": "2022-02-26T11:04:00Z", "max_date": "2022-02-26T11:10:00Z", "count_points": 3, "latitude": 47.49551, "longitude": 30.84118, "city": "Mykolayivka", "images": []}, {"id": 493838, "min_date": "2022-02-26T11:04:00Z", "max_date": "2022-02-26T12:01:00Z", "count_points": 6, "latitude": 51.52647, "longitude": 31.32525, "city": "Chernihiv", "images": [{"image_url": "493838.jpg", "timestamp": "2022-02-26T12:01:00Z"}]}, {"id": 493839, "min_date": "2022-02-27T00:37:00Z", "max_date": "2022-02-26T23:24:00Z", "count_points": 9, "latitude": 50.22591, "longitude": 30.2919, "city": "Vasylkiv", "images": []}, {"id": 493841, "min_date": "2022-02-27T09:53:00Z", "max_date": "2022-02-27T10:02:00Z", "count_points": 4, "latitude": 51.12129, "longitude": 30.13216, "city": "Kryva Hora", "images": []}, {"id": 493842, "min_date": "2022-02-27T09:53:00Z", "max_date": "2022-02-27T10:02:00Z", "count_points": 29, "latitude": 50.78577, "longitude": 29.58794, "city": "Piskivka", "images": []}, {"id": 493843, "min_date": "2022-02-27T11:46:00Z", "max_date": "2022-02-27T11:42:00Z", "count_points": 5, "latitude": 48.46346, "longitude": 22.80961, "city": "Chynadiyovo", "images": []}, {"id": 493844, "min_date": "2022-02-21T01:17:00Z", "max_date": "2022-02-25T11:32:00Z", "count_points": 2, "latitude": 51.25629, "longitude": 29.24813, "city": "Narodychi", "images": []}, {"id": 493845, "min_date": "2022-02-21T01:17:00Z", "max_date": "2022-02-21T00:28:00Z", "count_points": 3, "latitude": 49.04937, "longitude": 29.38212, "city": "Dashiv", "images": []}, {"id": 493846, "min_date": "2022-02-21T01:17:00Z", "max_date": "2022-02-21T01:17:00Z", "count_points": 2, "latitude": 49.39429, "longitude": 23.56849, "city": "Rykhtychi", "images": []}, {"id": 493847, "min_date": "2022-02-21T01:17:00Z", "max_date": "2022-02-21T01:17:00Z", "count_points": 1, "latitude": 49.21154, "longitude": 23.9105, "city": "Morshyn", "images": []}, {"id": 493848, "min_date": "2022-02-21T01:17:00Z", "max_date": "2022-02-24T11:51:00Z", "count_points": 7, "latitude": 49.29852, "longitude": 23.51206, "city": "Truskavets\u2019", "images": []}, {"id": 493849, "min_date": "2022-02-21T01:17:00Z", "max_date": "2022-02-21T00:28:00Z", "count_points": 2, "latitude": 48.80059, "longitude": 24.95412, "city": "Chornoliztsi", "images": []}, {"id": 493850, "min_date": "2022-02-21T09:24:00Z", "max_date": "2022-02-21T09:24:00Z", "count_points": 2, "latitude": 46.42399, "longitude": 34.25579, "city": "Novotroyits\u2019ke", "images": []}, {"id": 493851, "min_date": "2022-02-21T09:24:00Z", "max_date": "2022-02-21T10:15:00Z", "count_points": 12, "latitude": 46.74936, "longitude": 34.98393, "city": "Yakymivka", "images": []}, {"id": 493852, "min_date": "2022-02-21T09:24:00Z", "max_date": "2022-02-21T09:24:00Z", "count_points": 2, "latitude": 46.49398, "longitude": 30.47021, "city": "Teplodar", "images": []}, {"id": 493853, "min_date": "2022-02-21T09:24:00Z", "max_date": "2022-02-21T09:24:00Z", "count_points": 1, "latitude": 47.626, "longitude": 33.20903, "city": "Shyroke", "images": []}, {"id": 493854, "min_date": "2022-02-21T09:24:00Z", "max_date": "2022-02-21T09:24:00Z", "count_points": 2, "latitude": 46.73823, "longitude": 30.14797, "city": "Stepove", "images": []}, {"id": 493855, "min_date": "2022-02-21T09:24:00Z", "max_date": "2022-02-21T10:15:00Z", "count_points": 5, "latitude": 47.25495, "longitude": 30.07703, "city": "Shyryayeve", "images": [{"image_url": "493855.jpg", "timestamp": "2022-02-21T10:15:00Z"}]}, {"id": 493856, "min_date": "2022-02-21T09:24:00Z", "max_date": "2022-02-21T11:53:00Z", "count_points": 2, "latitude": 47.26326, "longitude": 29.67891, "city": "Zakharivka", "images": []}, {"id": 493857, "min_date": "2022-02-21T09:24:00Z", "max_date": "2022-02-21T10:15:00Z", "count_points": 3, "latitude": 47.58464, "longitude": 30.14184, "city": "Shyryayeve", "images": [{"image_url": "493857.jpg", "timestamp": "2022-02-21T10:15:00Z"}]}, {"id": 493858, "min_date": "2022-02-21T09:24:00Z", "max_date": "2022-02-21T10:15:00Z", "count_points": 7, "latitude": 47.83519, "longitude": 29.98006, "city": "Ananyiv Pershyi", "images": []}, {"id": 493859, "min_date": "2022-02-21T09:24:00Z", "max_date": "2022-02-21T11:04:00Z", "count_points": 4, "latitude": 48.67652, "longitude": 31.40157, "city": "Zlynka", "images": []}, {"id": 493860, "min_date": "2022-02-21T11:04:00Z", "max_date": "2022-02-26T10:19:00Z", "count_points": 10, "latitude": 45.43083, "longitude": 29.10067, "city": "Kiliya", "images": []}, {"id": 493861, "min_date": "2022-02-21T11:04:00Z", "max_date": "2022-02-24T10:57:00Z", "count_points": 2, "latitude": 45.46537, "longitude": 29.38605, "city": "Shevchenkove", "images": []}, {"id": 493862, "min_date": "2022-02-21T11:04:00Z", "max_date": "2022-02-21T11:04:00Z", "count_points": 2, "latitude": 45.49428, "longitude": 29.489, "city": "Vylkove", "images": []}, {"id": 493863, "min_date": "2022-02-21T11:04:00Z", "max_date": "2022-02-21T11:04:00Z", "count_points": 2, "latitude": 45.44839, "longitude": 28.68335, "city": "Ozerne", "images": []}, {"id": 493864, "min_date": "2022-02-21T11:04:00Z", "max_date": "2022-02-21T11:04:00Z", "count_points": 1, "latitude": 45.67561, "longitude": 29.22952, "city": "Shevchenkove", "images": []}, {"id": 493865, "min_date": "2022-02-21T11:04:00Z", "max_date": "2022-02-21T11:04:00Z", "count_points": 1, "latitude": 46.18109, "longitude": 32.48281, "city": "Lazurne", "images": []}, {"id": 493866, "min_date": "2022-02-21T11:04:00Z", "max_date": "2022-02-23T11:17:00Z", "count_points": 3, "latitude": 45.89085, "longitude": 29.06552, "city": "Dmytrivka", "images": []}, {"id": 493867, "min_date": "2022-02-21T11:04:00Z", "max_date": "2022-02-21T11:04:00Z", "count_points": 1, "latitude": 46.50122, "longitude": 34.20118, "city": "Novotroyits\u2019ke", "images": []}, {"id": 493868, "min_date": "2022-02-21T11:04:00Z", "max_date": "2022-02-21T11:04:00Z", "count_points": 1, "latitude": 46.2349, "longitude": 30.19893, "city": "Bilhorod-Dnistrovskyi", "images": []}, {"id": 493869, "min_date": "2022-02-21T11:04:00Z", "max_date": "2022-02-21T11:04:00Z", "count_points": 1, "latitude": 46.6015, "longitude": 30.78835, "city": "Krasnosilka", "images": []}, {"id": 493870, "min_date": "2022-02-21T11:04:00Z", "max_date": "2022-02-21T11:04:00Z", "count_points": 2, "latitude": 46.44345, "longitude": 29.22959, "city": "Borodino", "images": []}, {"id": 493871, "min_date": "2022-02-21T11:04:00Z", "max_date": "2022-02-21T11:04:00Z", "count_points": 1, "latitude": 46.65704, "longitude": 30.19301, "city": "Stepove", "images": []}, {"id": 493873, "min_date": "2022-02-21T11:04:00Z", "max_date": "2022-02-21T11:04:00Z", "count_points": 1, "latitude": 47.19657, "longitude": 34.92976, "city": "Mala Bilozerka", "images": []}, {"id": 493874, "min_date": "2022-02-21T11:04:00Z", "max_date": "2022-02-21T11:04:00Z", "count_points": 1, "latitude": 46.77063, "longitude": 29.9891, "city": "Stepanivka", "images": []}, {"id": 493875, "min_date": "2022-02-21T11:04:00Z", "max_date": "2022-02-21T11:04:00Z", "count_points": 3, "latitude": 47.22197, "longitude": 34.3623, "city": "Verkhniy Rohachyk", "images": []}, {"id": 493876, "min_date": "2022-02-21T11:04:00Z", "max_date": "2022-02-21T11:04:00Z", "count_points": 2, "latitude": 47.19051, "longitude": 32.71499, "city": "Snihurivka", "images": []}, {"id": 493877, "min_date": "2022-02-21T11:04:00Z", "max_date": "2022-02-21T10:15:00Z", "count_points": 2, "latitude": 46.98662, "longitude": 30.13492, "city": "Rozdil\u2019na", "images": []}, {"id": 493878, "min_date": "2022-02-21T11:04:00Z", "max_date": "2022-02-21T11:04:00Z", "count_points": 1, "latitude": 47.64771, "longitude": 34.57318, "city": "Chervonohryhorivka", "images": []}, {"id": 493879, "min_date": "2022-02-21T11:04:00Z", "max_date": "2022-02-21T10:15:00Z", "count_points": 2, "latitude": 47.58584, "longitude": 33.63789, "city": "Apostolove", "images": []}, {"id": 493880, "min_date": "2022-02-21T11:04:00Z", "max_date": "2022-02-21T11:04:00Z", "count_points": 1, "latitude": 47.59095, "longitude": 33.54946, "city": "Vysokopillya", "images": []}, {"id": 493881, "min_date": "2022-02-21T11:04:00Z", "max_date": "2022-02-21T11:04:00Z", "count_points": 2, "latitude": 47.72437, "longitude": 34.13153, "city": "Ordzhonikidze", "images": []}, {"id": 493882, "min_date": "2022-02-21T11:04:00Z", "max_date": "2022-02-21T11:04:00Z", "count_points": 1, "latitude": 47.42294, "longitude": 30.91714, "city": "Mykolayivka", "images": []}, {"id": 493883, "min_date": "2022-02-21T11:04:00Z", "max_date": "2022-02-21T11:04:00Z", "count_points": 1, "latitude": 47.39924, "longitude": 30.54072, "city": "Mykolayivka", "images": []}, {"id": 493884, "min_date": "2022-02-21T11:04:00Z", "max_date": "2022-02-21T11:04:00Z", "count_points": 1, "latitude": 47.78705, "longitude": 33.86741, "city": "Sholokhove", "images": []}, {"id": 493885, "min_date": "2022-02-21T11:04:00Z", "max_date": "2022-02-21T11:04:00Z", "count_points": 1, "latitude": 47.78566, "longitude": 33.74442, "city": "Apostolove", "images": []}, {"id": 493886, "min_date": "2022-02-21T11:04:00Z", "max_date": "2022-02-23T11:17:00Z", "count_points": 10, "latitude": 47.39916, "longitude": 29.80492, "city": "Zatyshshya", "images": [{"image_url": "493886.jpg", "timestamp": "2022-02-23T11:17:00Z"}]}, {"id": 493887, "min_date": "2022-02-21T11:04:00Z", "max_date": "2022-02-21T11:04:00Z", "count_points": 1, "latitude": 47.85566, "longitude": 34.29286, "city": "Chortomlyk", "images": []}, {"id": 493888, "min_date": "2022-02-21T11:04:00Z", "max_date": "2022-02-21T11:53:00Z", "count_points": 4, "latitude": 47.74496, "longitude": 32.99167, "city": "Kazanka", "images": []}, {"id": 493889, "min_date": "2022-02-21T11:04:00Z", "max_date": "2022-02-21T11:04:00Z", "count_points": 1, "latitude": 47.84301, "longitude": 33.56852, "city": "Kryvyi Rih", "images": []}, {"id": 493890, "min_date": "2022-02-21T11:04:00Z", "max_date": "2022-02-21T11:04:00Z", "count_points": 1, "latitude": 47.54059, "longitude": 30.27378, "city": "Shyryayeve", "images": []}, {"id": 493891, "min_date": "2022-02-21T11:04:00Z", "max_date": "2022-02-21T11:04:00Z", "count_points": 1, "latitude": 47.5229, "longitude": 29.71991, "city": "Zakharivka", "images": []}, {"id": 493892, "min_date": "2022-02-21T11:04:00Z", "max_date": "2022-02-21T11:04:00Z", "count_points": 1, "latitude": 47.5021, "longitude": 29.44588, "city": "Okny", "images": []}, {"id": 493893, "min_date": "2022-02-21T11:04:00Z", "max_date": "2022-02-21T10:15:00Z", "count_points": 2, "latitude": 47.99128, "longitude": 34.33908, "city": "Novopokrovka", "images": []}, {"id": 493894, "min_date": "2022-02-21T11:04:00Z", "max_date": "2022-02-21T11:04:00Z", "count_points": 1, "latitude": 47.68195, "longitude": 29.62942, "city": "Podil\u2019s\u2019k", "images": []}, {"id": 493895, "min_date": "2022-02-21T11:04:00Z", "max_date": "2022-02-21T11:04:00Z", "count_points": 1, "latitude": 47.79816, "longitude": 30.52694, "city": "Vradiyivka", "images": []}, {"id": 493896, "min_date": "2022-02-21T11:04:00Z", "max_date": "2022-02-21T11:04:00Z", "count_points": 2, "latitude": 48.20966, "longitude": 34.85547, "city": "Solone", "images": []}, {"id": 493897, "min_date": "2022-02-21T11:04:00Z", "max_date": "2022-02-21T11:04:00Z", "count_points": 1, "latitude": 48.17558, "longitude": 33.05737, "city": "Petrove", "images": []}, {"id": 493898, "min_date": "2022-02-21T11:04:00Z", "max_date": "2022-02-21T10:15:00Z", "count_points": 2, "latitude": 48.26009, "longitude": 33.6863, "city": "Piatykhatky", "images": []}, {"id": 493899, "min_date": "2022-02-21T11:04:00Z", "max_date": "2022-02-21T10:15:00Z", "count_points": 2, "latitude": 48.08053, "longitude": 31.05479, "city": "Lysa Hora", "images": []}, {"id": 493901, "min_date": "2022-02-21T11:04:00Z", "max_date": "2022-02-21T10:15:00Z", "count_points": 2, "latitude": 47.95069, "longitude": 29.51924, "city": "Balta", "images": []}, {"id": 493902, "min_date": "2022-02-21T11:04:00Z", "max_date": "2022-02-21T11:04:00Z", "count_points": 1, "latitude": 48.35955, "longitude": 33.2302, "city": "Petrove", "images": []}, {"id": 493903, "min_date": "2022-02-21T11:04:00Z", "max_date": "2022-02-21T11:04:00Z", "count_points": 1, "latitude": 48.04779, "longitude": 29.93825, "city": "Savran", "images": []}, {"id": 493904, "min_date": "2022-02-21T11:04:00Z", "max_date": "2022-02-21T11:04:00Z", "count_points": 2, "latitude": 47.98286, "longitude": 28.82681, "city": "Zagnitkiv", "images": []}, {"id": 493905, "min_date": "2022-02-21T11:04:00Z", "max_date": "2022-02-21T10:15:00Z", "count_points": 2, "latitude": 48.64864, "longitude": 34.34368, "city": "Verkhn\u2019odniprovs\u2019k", "images": []}, {"id": 493906, "min_date": "2022-02-21T11:04:00Z", "max_date": "2022-02-21T11:04:00Z", "count_points": 1, "latitude": 49.0279, "longitude": 34.27573, "city": "Kobelyaky", "images": []}, {"id": 493832, "min_date": "2022-02-26T11:04:00Z", "max_date": "2022-02-26T11:10:00Z", "count_points": 25, "latitude": 46.65425, "longitude": 32.76508, "city": "Tsyurupyns\u2019k", "images": []}, {"id": 493909, "min_date": "2022-02-21T11:04:00Z", "max_date": "2022-02-21T11:04:00Z", "count_points": 2, "latitude": 49.12739, "longitude": 32.38352, "city": "Oleksandrivka", "images": []}, {"id": 493910, "min_date": "2022-02-21T11:06:00Z", "max_date": "2022-02-21T11:06:00Z", "count_points": 2, "latitude": 50.09297, "longitude": 24.09132, "city": "Kulykiv", "images": []}, {"id": 493912, "min_date": "2022-02-22T10:47:00Z", "max_date": "2022-02-22T10:47:00Z", "count_points": 1, "latitude": 46.15699, "longitude": 32.39411, "city": "Novofedorivka", "images": []}, {"id": 493913, "min_date": "2022-02-22T10:47:00Z", "max_date": "2022-02-22T10:47:00Z", "count_points": 2, "latitude": 46.92112, "longitude": 33.20935, "city": "Dnipryany", "images": []}, {"id": 493914, "min_date": "2022-02-22T10:47:00Z", "max_date": "2022-02-22T09:56:00Z", "count_points": 2, "latitude": 47.04797, "longitude": 32.53833, "city": "Snihurivka", "images": []}, {"id": 493915, "min_date": "2022-02-22T10:47:00Z", "max_date": "2022-02-22T10:47:00Z", "count_points": 4, "latitude": 47.38611, "longitude": 29.45594, "city": "Okny", "images": []}, {"id": 493916, "min_date": "2022-02-22T10:47:00Z", "max_date": "2022-02-22T10:47:00Z", "count_points": 2, "latitude": 48.29391, "longitude": 28.3845, "city": "Klembivka", "images": []}, {"id": 493917, "min_date": "2022-02-22T10:47:00Z", "max_date": "2022-02-22T10:47:00Z", "count_points": 1, "latitude": 48.35863, "longitude": 28.38798, "city": "Klembivka", "images": []}, {"id": 493918, "min_date": "2022-02-22T10:47:00Z", "max_date": "2022-02-22T10:47:00Z", "count_points": 1, "latitude": 49.00278, "longitude": 30.56191, "city": "Talne", "images": []}, {"id": 493919, "min_date": "2022-02-22T10:47:00Z", "max_date": "2022-02-22T11:36:00Z", "count_points": 3, "latitude": 48.41534, "longitude": 26.82375, "city": "Kel\u2019mentsi", "images": [{"image_url": "493919.jpg", "timestamp": "2022-02-22T11:36:00Z"}]}, {"id": 493920, "min_date": "2022-02-22T10:47:00Z", "max_date": "2022-02-22T10:47:00Z", "count_points": 1, "latitude": 48.30381, "longitude": 26.18283, "city": "Boyany", "images": []}, {"id": 493921, "min_date": "2022-02-22T10:47:00Z", "max_date": "2022-02-22T10:47:00Z", "count_points": 1, "latitude": 48.44894, "longitude": 26.84921, "city": "Kel\u2019mentsi", "images": []}, {"id": 493922, "min_date": "2022-02-22T10:47:00Z", "max_date": "2022-02-22T10:47:00Z", "count_points": 1, "latitude": 48.30216, "longitude": 25.99848, "city": "Chernivtsi", "images": []}, {"id": 493923, "min_date": "2022-02-22T10:47:00Z", "max_date": "2022-02-22T10:47:00Z", "count_points": 1, "latitude": 48.54013, "longitude": 27.27865, "city": "Novodnistrovs\u2019k", "images": []}, {"id": 493924, "min_date": "2022-02-22T10:47:00Z", "max_date": "2022-02-22T10:47:00Z", "count_points": 1, "latitude": 48.49793, "longitude": 26.74955, "city": "Kel\u2019mentsi", "images": []}, {"id": 493925, "min_date": "2022-02-22T10:47:00Z", "max_date": "2022-02-22T10:47:00Z", "count_points": 1, "latitude": 48.37954, "longitude": 26.05618, "city": "Boyany", "images": []}, {"id": 493926, "min_date": "2022-02-22T10:47:00Z", "max_date": "2022-02-22T10:47:00Z", "count_points": 1, "latitude": 48.49944, "longitude": 26.59996, "city": "Khotyn", "images": []}, {"id": 493927, "min_date": "2022-02-22T10:47:00Z", "max_date": "2022-02-22T10:47:00Z", "count_points": 1, "latitude": 49.00678, "longitude": 29.51699, "city": "Dashiv", "images": []}, {"id": 493928, "min_date": "2022-02-22T10:47:00Z", "max_date": "2022-02-22T10:47:00Z", "count_points": 1, "latitude": 49.2408, "longitude": 30.13422, "city": "Zhashkiv", "images": []}, {"id": 493929, "min_date": "2022-02-22T10:47:00Z", "max_date": "2022-02-22T10:47:00Z", "count_points": 1, "latitude": 48.69878, "longitude": 25.94511, "city": "Borshchiv", "images": []}, {"id": 493930, "min_date": "2022-02-22T10:47:00Z", "max_date": "2022-02-22T11:36:00Z", "count_points": 5, "latitude": 49.41097, "longitude": 28.17479, "city": "Lityn", "images": []}, {"id": 493931, "min_date": "2022-02-22T10:47:00Z", "max_date": "2022-02-22T10:47:00Z", "count_points": 1, "latitude": 50.15193, "longitude": 30.69969, "city": "Ukrainka", "images": []}, {"id": 493932, "min_date": "2022-02-22T10:47:00Z", "max_date": "2022-02-22T09:56:00Z", "count_points": 2, "latitude": 49.93627, "longitude": 28.83741, "city": "Chervone", "images": []}, {"id": 493933, "min_date": "2022-02-22T10:47:00Z", "max_date": "2022-02-22T11:36:00Z", "count_points": 3, "latitude": 50.4654, "longitude": 31.19414, "city": "Kirove", "images": []}, {"id": 493934, "min_date": "2022-02-22T10:47:00Z", "max_date": "2022-02-22T10:47:00Z", "count_points": 2, "latitude": 50.12891, "longitude": 28.70826, "city": "Ozerne", "images": []}, {"id": 493935, "min_date": "2022-02-22T10:47:00Z", "max_date": "2022-02-22T11:36:00Z", "count_points": 2, "latitude": 50.40933, "longitude": 29.60488, "city": "Stavyshche", "images": []}, {"id": 493936, "min_date": "2022-02-22T10:47:00Z", "max_date": "2022-02-22T10:47:00Z", "count_points": 1, "latitude": 50.63718, "longitude": 31.01859, "city": "Semypolky", "images": []}, {"id": 493937, "min_date": "2022-02-22T10:47:00Z", "max_date": "2022-02-22T10:47:00Z", "count_points": 1, "latitude": 50.63173, "longitude": 30.36922, "city": "Liutizh", "images": []}, {"id": 493939, "min_date": "2022-02-22T10:47:00Z", "max_date": "2022-02-22T10:47:00Z", "count_points": 1, "latitude": 50.93189, "longitude": 29.72288, "city": "Krasyatychi", "images": []}, {"id": 493940, "min_date": "2022-02-22T12:27:00Z", "max_date": "2022-02-22T12:27:00Z", "count_points": 1, "latitude": 49.06385, "longitude": 24.51479, "city": "Kalush", "images": []}, {"id": 493941, "min_date": "2022-02-22T12:27:00Z", "max_date": "2022-02-22T12:27:00Z", "count_points": 1, "latitude": 49.14176, "longitude": 23.99003, "city": "Morshyn", "images": []}, {"id": 493942, "min_date": "2022-02-22T22:58:00Z", "max_date": "2022-02-22T23:50:00Z", "count_points": 5, "latitude": 47.17655, "longitude": 30.47569, "city": "Ivanivka", "images": []}, {"id": 493943, "min_date": "2022-02-22T23:01:00Z", "max_date": "2022-02-23T09:38:00Z", "count_points": 5, "latitude": 50.5559, "longitude": 30.97451, "city": "Velyka Dymerka", "images": []}, {"id": 493944, "min_date": "2022-02-22T23:01:00Z", "max_date": "2022-02-22T23:50:00Z", "count_points": 2, "latitude": 49.79775, "longitude": 29.75577, "city": "Skvyra", "images": []}, {"id": 493945, "min_date": "2022-02-22T23:01:00Z", "max_date": "2022-02-22T23:50:00Z", "count_points": 5, "latitude": 49.27811, "longitude": 30.36337, "city": "Kalynove", "images": []}, {"id": 493946, "min_date": "2022-02-23T00:41:00Z", "max_date": "2022-02-23T00:41:00Z", "count_points": 1, "latitude": 48.3949, "longitude": 26.68231, "city": "Kel\u2019mentsi", "images": []}, {"id": 493947, "min_date": "2022-02-23T10:25:00Z", "max_date": "2022-02-23T10:25:00Z", "count_points": 1, "latitude": 46.88298, "longitude": 32.56018, "city": "Chornobayivka", "images": []}, {"id": 493948, "min_date": "2022-02-23T10:25:00Z", "max_date": "2022-02-23T10:25:00Z", "count_points": 1, "latitude": 46.47517, "longitude": 29.99789, "city": "Starokozache", "images": []}, {"id": 493949, "min_date": "2022-02-23T10:25:00Z", "max_date": "2022-02-23T10:25:00Z", "count_points": 2, "latitude": 46.42173, "longitude": 29.34655, "city": "Borodino", "images": []}, {"id": 493950, "min_date": "2022-02-23T10:25:00Z", "max_date": "2022-02-23T10:25:00Z", "count_points": 1, "latitude": 47.03051, "longitude": 32.45028, "city": "Shevchenkove", "images": []}, {"id": 493951, "min_date": "2022-02-23T10:25:00Z", "max_date": "2022-02-27T11:42:00Z", "count_points": 4, "latitude": 47.6046, "longitude": 34.06386, "city": "Ordzhonikidze", "images": []}, {"id": 493952, "min_date": "2022-02-23T10:25:00Z", "max_date": "2022-02-23T10:25:00Z", "count_points": 1, "latitude": 46.93677, "longitude": 30.09785, "city": "Rozdil\u2019na", "images": []}, {"id": 493953, "min_date": "2022-02-23T10:25:00Z", "max_date": "2022-02-23T10:25:00Z", "count_points": 1, "latitude": 47.67153, "longitude": 34.02864, "city": "Sholokhove", "images": []}, {"id": 493954, "min_date": "2022-02-23T10:25:00Z", "max_date": "2022-02-23T11:17:00Z", "count_points": 2, "latitude": 47.0531, "longitude": 30.35041, "city": "Ivanivka", "images": []}, {"id": 493955, "min_date": "2022-02-23T10:25:00Z", "max_date": "2022-02-23T10:25:00Z", "count_points": 1, "latitude": 47.35015, "longitude": 30.81474, "city": "Berezivka", "images": []}, {"id": 493956, "min_date": "2022-02-23T10:25:00Z", "max_date": "2022-02-25T09:49:00Z", "count_points": 4, "latitude": 47.3468, "longitude": 30.40357, "city": "Shyryayeve", "images": []}, {"id": 493957, "min_date": "2022-02-23T10:25:00Z", "max_date": "2022-02-23T11:17:00Z", "count_points": 4, "latitude": 47.5217, "longitude": 29.98452, "city": "Ananyiv Pershyi", "images": []}, {"id": 493958, "min_date": "2022-02-23T10:28:00Z", "max_date": "2022-02-23T10:28:00Z", "count_points": 1, "latitude": 47.59288, "longitude": 30.21588, "city": "Shyryayeve", "images": []}, {"id": 493959, "min_date": "2022-02-23T10:28:00Z", "max_date": "2022-02-23T10:28:00Z", "count_points": 1, "latitude": 47.80595, "longitude": 30.93948, "city": "Domanivka", "images": []}, {"id": 493960, "min_date": "2022-02-23T10:28:00Z", "max_date": "2022-02-23T10:28:00Z", "count_points": 1, "latitude": 47.59483, "longitude": 29.64928, "city": "Podil\u2019s\u2019k", "images": []}, {"id": 493961, "min_date": "2022-02-23T10:28:00Z", "max_date": "2022-02-23T11:17:00Z", "count_points": 4, "latitude": 47.72697, "longitude": 30.26529, "city": "Lyubashivka", "images": []}, {"id": 493962, "min_date": "2022-02-23T10:28:00Z", "max_date": "2022-02-23T10:28:00Z", "count_points": 1, "latitude": 47.85652, "longitude": 30.64295, "city": "Vradiyivka", "images": []}, {"id": 493963, "min_date": "2022-02-23T10:28:00Z", "max_date": "2022-02-23T10:28:00Z", "count_points": 1, "latitude": 48.33454, "longitude": 32.88419, "city": "Novhorodka", "images": []}, {"id": 493964, "min_date": "2022-02-23T10:28:00Z", "max_date": "2022-02-23T10:28:00Z", "count_points": 1, "latitude": 47.76717, "longitude": 29.7653, "city": "Ananyiv Pershyi", "images": []}, {"id": 493966, "min_date": "2022-02-23T10:28:00Z", "max_date": "2022-02-23T10:28:00Z", "count_points": 1, "latitude": 48.08424, "longitude": 30.96638, "city": "Myhiya", "images": []}, {"id": 493967, "min_date": "2022-02-23T10:28:00Z", "max_date": "2022-02-23T10:28:00Z", "count_points": 1, "latitude": 48.23639, "longitude": 31.72233, "city": "Rivne", "images": []}, {"id": 493968, "min_date": "2022-02-23T10:28:00Z", "max_date": "2022-02-24T10:57:00Z", "count_points": 7, "latitude": 48.6777, "longitude": 34.19104, "city": "Verkhn\u2019odniprovs\u2019k", "images": []}, {"id": 493969, "min_date": "2022-02-23T10:28:00Z", "max_date": "2022-02-23T10:28:00Z", "count_points": 2, "latitude": 48.51697, "longitude": 32.95974, "city": "Nova Praha", "images": []}, {"id": 493970, "min_date": "2022-02-23T10:28:00Z", "max_date": "2022-02-21T10:15:00Z", "count_points": 2, "latitude": 48.07946, "longitude": 29.4528, "city": "Chechelnyk", "images": []}, {"id": 493971, "min_date": "2022-02-23T10:28:00Z", "max_date": "2022-02-23T10:28:00Z", "count_points": 1, "latitude": 49.21144, "longitude": 34.33834, "city": "Novi Sanzhary", "images": []}, {"id": 493972, "min_date": "2022-02-23T10:28:00Z", "max_date": "2022-02-23T10:28:00Z", "count_points": 1, "latitude": 48.45997, "longitude": 29.68203, "city": "Viytivka", "images": []}, {"id": 493973, "min_date": "2022-02-23T10:28:00Z", "max_date": "2022-02-23T11:17:00Z", "count_points": 3, "latitude": 48.4098, "longitude": 29.12702, "city": "Tsybulevka", "images": []}, {"id": 493974, "min_date": "2022-02-23T10:28:00Z", "max_date": "2022-02-25T11:29:00Z", "count_points": 3, "latitude": 48.36462, "longitude": 26.56095, "city": "Khotyn", "images": []}, {"id": 493975, "min_date": "2022-02-23T10:28:00Z", "max_date": "2022-02-23T10:28:00Z", "count_points": 1, "latitude": 48.32788, "longitude": 26.32855, "city": "Marshintsy", "images": []}, {"id": 493976, "min_date": "2022-02-23T10:28:00Z", "max_date": "2022-02-23T10:28:00Z", "count_points": 2, "latitude": 48.32623, "longitude": 26.28054, "city": "Klishkivtsi", "images": []}, {"id": 493977, "min_date": "2022-02-23T10:28:00Z", "max_date": "2022-02-23T10:28:00Z", "count_points": 2, "latitude": 49.4742, "longitude": 31.45615, "city": "Mleyev", "images": []}, {"id": 493978, "min_date": "2022-02-23T10:28:00Z", "max_date": "2022-02-23T10:28:00Z", "count_points": 1, "latitude": 49.51752, "longitude": 30.12955, "city": "Stavyshche", "images": []}, {"id": 493979, "min_date": "2022-02-23T10:28:00Z", "max_date": "2022-02-23T10:28:00Z", "count_points": 1, "latitude": 49.10319, "longitude": 26.61346, "city": "Horodok", "images": []}, {"id": 493980, "min_date": "2022-02-23T10:28:00Z", "max_date": "2022-02-23T10:28:00Z", "count_points": 1, "latitude": 50.31619, "longitude": 31.14683, "city": "Kirove", "images": []}, {"id": 493981, "min_date": "2022-02-23T10:28:00Z", "max_date": "2022-02-23T10:28:00Z", "count_points": 1, "latitude": 49.84562, "longitude": 27.93937, "city": "Liubar", "images": []}, {"id": 493982, "min_date": "2022-02-23T12:08:00Z", "max_date": "2022-02-23T12:08:00Z", "count_points": 4, "latitude": 47.20087, "longitude": 30.34064, "city": "Shyryayeve", "images": []}, {"id": 493983, "min_date": "2022-02-23T12:08:00Z", "max_date": "2022-02-23T12:08:00Z", "count_points": 4, "latitude": 47.42754, "longitude": 29.31659, "city": "Okny", "images": []}, {"id": 493908, "min_date": "2022-02-21T11:04:00Z", "max_date": "2022-02-21T11:04:00Z", "count_points": 1, "latitude": 48.98684, "longitude": 31.30891, "city": "Shpola", "images": []}, {"id": 493986, "min_date": "2022-02-24T00:22:00Z", "max_date": "2022-02-24T00:22:00Z", "count_points": 1, "latitude": 50.28306, "longitude": 33.8824, "city": "Hadyach", "images": []}, {"id": 493987, "min_date": "2022-02-24T10:08:00Z", "max_date": "2022-02-24T10:08:00Z", "count_points": 2, "latitude": 45.61575, "longitude": 28.95866, "city": "Kalcheva", "images": []}, {"id": 493988, "min_date": "2022-02-24T10:08:00Z", "max_date": "2022-02-25T00:52:00Z", "count_points": 11, "latitude": 46.57272, "longitude": 32.67607, "city": "Tsyurupyns\u2019k", "images": []}, {"id": 493989, "min_date": "2022-02-24T10:08:00Z", "max_date": "2022-02-24T10:08:00Z", "count_points": 1, "latitude": 46.72832, "longitude": 33.37426, "city": "Nova Kakhovka", "images": []}, {"id": 493990, "min_date": "2022-02-24T10:08:00Z", "max_date": "2022-02-24T10:08:00Z", "count_points": 14, "latitude": 46.65331, "longitude": 32.9592, "city": "Kozachi Laheri", "images": []}, {"id": 493991, "min_date": "2022-02-24T10:08:00Z", "max_date": "2022-02-24T10:57:00Z", "count_points": 3, "latitude": 45.58622, "longitude": 28.53986, "city": "Vynohradivka", "images": []}, {"id": 493992, "min_date": "2022-02-24T10:08:00Z", "max_date": "2022-02-26T10:19:00Z", "count_points": 2, "latitude": 46.67313, "longitude": 32.70548, "city": "Tsyurupyns\u2019k", "images": []}, {"id": 493993, "min_date": "2022-02-24T10:08:00Z", "max_date": "2022-02-24T10:08:00Z", "count_points": 4, "latitude": 47.25974, "longitude": 34.69532, "city": "Velyka Bilozerka", "images": []}, {"id": 493994, "min_date": "2022-02-24T10:08:00Z", "max_date": "2022-02-24T10:57:00Z", "count_points": 3, "latitude": 47.27608, "longitude": 34.29203, "city": "Verkhniy Rohachyk", "images": []}, {"id": 493995, "min_date": "2022-02-24T10:08:00Z", "max_date": "2022-02-24T10:08:00Z", "count_points": 1, "latitude": 47.04472, "longitude": 32.137, "city": "Mykolayiv", "images": []}, {"id": 493996, "min_date": "2022-02-24T10:08:00Z", "max_date": "2022-02-24T10:08:00Z", "count_points": 1, "latitude": 46.95556, "longitude": 31.39672, "city": "Berezanka", "images": []}, {"id": 493998, "min_date": "2022-02-24T10:08:00Z", "max_date": "2022-02-24T10:57:00Z", "count_points": 4, "latitude": 49.99828, "longitude": 34.27632, "city": "Zin\u2019kiv", "images": []}, {"id": 493999, "min_date": "2022-02-24T11:49:00Z", "max_date": "2022-02-24T11:49:00Z", "count_points": 1, "latitude": 45.58323, "longitude": 29.56955, "city": "Vylkove", "images": []}, {"id": 494000, "min_date": "2022-02-24T11:51:00Z", "max_date": "2022-02-24T11:51:00Z", "count_points": 4, "latitude": 48.02094, "longitude": 34.1674, "city": "Sofiyivka", "images": []}, {"id": 494001, "min_date": "2022-02-25T00:02:00Z", "max_date": "2022-02-25T00:02:00Z", "count_points": 1, "latitude": 51.54956, "longitude": 31.43717, "city": "Chernihiv", "images": []}, {"id": 494002, "min_date": "2022-02-25T00:02:00Z", "max_date": "2022-02-25T00:52:00Z", "count_points": 2, "latitude": 49.3695, "longitude": 32.06438, "city": "Cherkasy", "images": []}, {"id": 494003, "min_date": "2022-02-25T00:05:00Z", "max_date": "2022-02-24T23:11:00Z", "count_points": 2, "latitude": 47.31012, "longitude": 29.96057, "city": "Zatyshshya", "images": []}, {"id": 494004, "min_date": "2022-02-25T00:05:00Z", "max_date": "2022-02-25T00:05:00Z", "count_points": 1, "latitude": 46.62558, "longitude": 31.54639, "city": "Ochakiv", "images": []}, {"id": 494005, "min_date": "2022-02-25T09:49:00Z", "max_date": "2022-02-25T10:38:00Z", "count_points": 2, "latitude": 45.84603, "longitude": 29.0232, "city": "Dmytrivka", "images": []}, {"id": 494006, "min_date": "2022-02-25T09:49:00Z", "max_date": "2022-02-25T11:29:00Z", "count_points": 3, "latitude": 46.10946, "longitude": 29.65501, "city": "Plakhtiyivka", "images": []}, {"id": 494007, "min_date": "2022-02-25T09:49:00Z", "max_date": "2022-02-25T09:49:00Z", "count_points": 1, "latitude": 46.83484, "longitude": 29.94272, "city": "Stepanivka", "images": []}, {"id": 494008, "min_date": "2022-02-25T09:49:00Z", "max_date": "2022-02-25T10:40:00Z", "count_points": 6, "latitude": 47.24604, "longitude": 30.89106, "city": "Berezivka", "images": []}, {"id": 494009, "min_date": "2022-02-25T09:49:00Z", "max_date": "2022-02-25T09:49:00Z", "count_points": 2, "latitude": 47.45196, "longitude": 30.47151, "city": "Shyryayeve", "images": []}, {"id": 494010, "min_date": "2022-02-25T09:49:00Z", "max_date": "2022-02-25T10:40:00Z", "count_points": 5, "latitude": 47.43345, "longitude": 29.88386, "city": "Zatyshshya", "images": []}, {"id": 494011, "min_date": "2022-02-25T09:49:00Z", "max_date": "2022-02-25T10:40:00Z", "count_points": 3, "latitude": 48.23829, "longitude": 31.11993, "city": "Lysa Hora", "images": []}, {"id": 494012, "min_date": "2022-02-25T09:49:00Z", "max_date": "2022-02-25T09:49:00Z", "count_points": 1, "latitude": 48.70813, "longitude": 28.62368, "city": "Tomashpil\u2019", "images": []}, {"id": 494013, "min_date": "2022-02-25T09:49:00Z", "max_date": "2022-02-25T09:49:00Z", "count_points": 2, "latitude": 50.48336, "longitude": 31.15734, "city": "Kirove", "images": []}, {"id": 494014, "min_date": "2022-02-25T09:49:00Z", "max_date": "2022-02-25T09:49:00Z", "count_points": 1, "latitude": 51.30989, "longitude": 31.44273, "city": "Olyshivka", "images": []}, {"id": 494015, "min_date": "2022-02-25T09:49:00Z", "max_date": "2022-02-25T09:49:00Z", "count_points": 1, "latitude": 51.53074, "longitude": 31.40749, "city": "Chernihiv", "images": []}, {"id": 494016, "min_date": "2022-02-25T11:29:00Z", "max_date": "2022-02-25T11:29:00Z", "count_points": 3, "latitude": 45.68071, "longitude": 28.97463, "city": "Kalcheva", "images": []}, {"id": 494017, "min_date": "2022-02-25T11:29:00Z", "max_date": "2022-02-25T10:38:00Z", "count_points": 3, "latitude": 45.89753, "longitude": 29.53383, "city": "Tatarbunary", "images": []}, {"id": 494018, "min_date": "2022-02-25T11:29:00Z", "max_date": "2022-02-25T11:29:00Z", "count_points": 1, "latitude": 46.71929, "longitude": 31.24133, "city": "Kobleve", "images": []}, {"id": 494019, "min_date": "2022-02-25T11:29:00Z", "max_date": "2022-02-25T11:29:00Z", "count_points": 2, "latitude": 47.21183, "longitude": 29.72096, "city": "Kuchurhan", "images": []}, {"id": 494020, "min_date": "2022-02-25T11:29:00Z", "max_date": "2022-02-21T11:53:00Z", "count_points": 2, "latitude": 47.31141, "longitude": 30.14278, "city": "Shyryayeve", "images": []}, {"id": 494021, "min_date": "2022-02-25T11:29:00Z", "max_date": "2022-02-25T11:29:00Z", "count_points": 1, "latitude": 47.40556, "longitude": 31.78434, "city": "Nova Odesa", "images": []}, {"id": 494022, "min_date": "2022-02-25T11:29:00Z", "max_date": "2022-02-25T11:29:00Z", "count_points": 1, "latitude": 47.48436, "longitude": 29.95145, "city": "Zatyshshya", "images": []}, {"id": 494023, "min_date": "2022-02-25T11:29:00Z", "max_date": "2022-02-25T11:29:00Z", "count_points": 4, "latitude": 47.75825, "longitude": 29.92536, "city": "Ananyiv Pershyi", "images": []}, {"id": 494024, "min_date": "2022-02-25T11:29:00Z", "max_date": "2022-02-25T11:29:00Z", "count_points": 1, "latitude": 48.07092, "longitude": 29.14445, "city": "Kodyma", "images": []}, {"id": 494025, "min_date": "2022-02-25T11:29:00Z", "max_date": "2022-02-25T11:29:00Z", "count_points": 3, "latitude": 48.20206, "longitude": 30.79872, "city": "Vil\u2019shanka", "images": []}, {"id": 494027, "min_date": "2022-02-25T11:29:00Z", "max_date": "2022-02-25T11:29:00Z", "count_points": 4, "latitude": 48.30122, "longitude": 30.71561, "city": "Vil\u2019shanka", "images": []}, {"id": 494028, "min_date": "2022-02-25T11:29:00Z", "max_date": "2022-02-25T11:29:00Z", "count_points": 2, "latitude": 48.25892, "longitude": 29.07892, "city": "Torkanivka", "images": []}, {"id": 494029, "min_date": "2022-02-25T11:29:00Z", "max_date": "2022-02-25T11:29:00Z", "count_points": 1, "latitude": 48.4443, "longitude": 30.86783, "city": "Tyshkivka", "images": []}, {"id": 494030, "min_date": "2022-02-25T11:29:00Z", "max_date": "2022-02-25T11:29:00Z", "count_points": 2, "latitude": 48.06504, "longitude": 25.69788, "city": "Yizhivtsi", "images": []}, {"id": 494031, "min_date": "2022-02-25T11:29:00Z", "max_date": "2022-02-26T10:19:00Z", "count_points": 2, "latitude": 48.31685, "longitude": 28.5209, "city": "Klembivka", "images": []}, {"id": 494032, "min_date": "2022-02-25T11:29:00Z", "max_date": "2022-02-25T11:29:00Z", "count_points": 1, "latitude": 48.4683, "longitude": 29.12319, "city": "Tsybulevka", "images": []}, {"id": 494033, "min_date": "2022-02-25T11:29:00Z", "max_date": "2022-02-22T11:36:00Z", "count_points": 4, "latitude": 48.28666, "longitude": 26.23615, "city": "Novoselytsya", "images": []}, {"id": 494034, "min_date": "2022-02-25T11:29:00Z", "max_date": "2022-02-25T11:29:00Z", "count_points": 1, "latitude": 48.45756, "longitude": 27.91466, "city": "Mohyliv-Podilskyi", "images": []}, {"id": 494035, "min_date": "2022-02-25T11:29:00Z", "max_date": "2022-02-25T10:40:00Z", "count_points": 2, "latitude": 48.41977, "longitude": 25.81806, "city": "Kitsman\u2019", "images": []}, {"id": 494036, "min_date": "2022-02-25T11:29:00Z", "max_date": "2022-02-25T11:29:00Z", "count_points": 1, "latitude": 48.52608, "longitude": 25.72562, "city": "Verenchanka", "images": []}, {"id": 494037, "min_date": "2022-02-25T11:29:00Z", "max_date": "2022-02-25T11:29:00Z", "count_points": 1, "latitude": 48.57887, "longitude": 25.72997, "city": "Verenchanka", "images": []}, {"id": 494038, "min_date": "2022-02-25T11:29:00Z", "max_date": "2022-02-25T10:40:00Z", "count_points": 2, "latitude": 49.303, "longitude": 32.03968, "city": "Cherkasy", "images": []}, {"id": 494039, "min_date": "2022-02-25T11:29:00Z", "max_date": "2022-02-25T10:40:00Z", "count_points": 6, "latitude": 50.17983, "longitude": 28.5187, "city": "Denyshi", "images": []}, {"id": 494040, "min_date": "2022-02-25T11:29:00Z", "max_date": "2022-02-27T11:44:00Z", "count_points": 4, "latitude": 50.65801, "longitude": 30.18092, "city": "Hostomel", "images": []}, {"id": 494041, "min_date": "2022-02-25T11:32:00Z", "max_date": "2022-02-25T11:32:00Z", "count_points": 1, "latitude": 51.03686, "longitude": 30.1322, "city": "Katyuzhanka", "images": []}, {"id": 494042, "min_date": "2022-02-25T11:32:00Z", "max_date": "2022-02-25T10:40:00Z", "count_points": 6, "latitude": 51.1848, "longitude": 29.40418, "city": "Krasyatychi", "images": []}, {"id": 494043, "min_date": "2022-02-25T11:32:00Z", "max_date": "2022-02-25T11:32:00Z", "count_points": 2, "latitude": 51.40659, "longitude": 32.17752, "city": "Mena", "images": []}, {"id": 494044, "min_date": "2022-02-25T11:32:00Z", "max_date": "2022-02-25T11:32:00Z", "count_points": 1, "latitude": 51.47839, "longitude": 31.37194, "city": "Chernihiv", "images": []}, {"id": 494045, "min_date": "2022-02-25T23:43:00Z", "max_date": "2022-02-27T11:42:00Z", "count_points": 3, "latitude": 46.94481, "longitude": 32.08519, "city": "Mykolayiv", "images": []}, {"id": 494046, "min_date": "2022-02-25T23:43:00Z", "max_date": "2022-02-27T00:15:00Z", "count_points": 4, "latitude": 46.37071, "longitude": 31.11694, "city": "Yuzhne", "images": [{"image_url": "494046.jpg", "timestamp": "2022-02-27T00:15:00Z"}]}, {"id": 494047, "min_date": "2022-02-26T01:24:00Z", "max_date": "2022-02-26T00:34:00Z", "count_points": 3, "latitude": 50.16663, "longitude": 25.83435, "city": "Smyga", "images": []}, {"id": 494048, "min_date": "2022-02-26T09:32:00Z", "max_date": "2022-02-26T09:32:00Z", "count_points": 1, "latitude": 48.92188, "longitude": 33.34344, "city": "Pavlysh", "images": []}, {"id": 494049, "min_date": "2022-02-26T09:32:00Z", "max_date": "2022-02-26T10:19:00Z", "count_points": 4, "latitude": 49.73766, "longitude": 31.22148, "city": "Kaniv", "images": []}, {"id": 494050, "min_date": "2022-02-26T09:32:00Z", "max_date": "2022-02-26T09:32:00Z", "count_points": 1, "latitude": 49.66544, "longitude": 30.62354, "city": "Rokytne", "images": []}, {"id": 494051, "min_date": "2022-02-26T09:32:00Z", "max_date": "2022-02-26T10:21:00Z", "count_points": 4, "latitude": 51.01309, "longitude": 29.68863, "city": "Krasyatychi", "images": [{"image_url": "494051.jpg", "timestamp": "2022-02-26T10:21:00Z"}]}, {"id": 494052, "min_date": "2022-02-26T09:32:00Z", "max_date": "2022-02-26T09:32:00Z", "count_points": 1, "latitude": 51.77495, "longitude": 31.31392, "city": "Ripky", "images": []}, {"id": 494053, "min_date": "2022-02-26T11:12:00Z", "max_date": "2022-02-26T11:12:00Z", "count_points": 1, "latitude": 51.84095, "longitude": 24.65472, "city": "Ratne", "images": []}, {"id": 494054, "min_date": "2022-02-26T11:10:00Z", "max_date": "2022-02-26T11:10:00Z", "count_points": 1, "latitude": 46.44225, "longitude": 32.95459, "city": "Velyki Kopani", "images": []}, {"id": 494056, "min_date": "2022-02-26T11:10:00Z", "max_date": "2022-02-27T00:15:00Z", "count_points": 3, "latitude": 47.40338, "longitude": 30.07012, "city": "Shyryayeve", "images": []}, {"id": 494057, "min_date": "2022-02-26T11:12:00Z", "max_date": "2022-02-26T11:12:00Z", "count_points": 1, "latitude": 48.61533, "longitude": 29.37373, "city": "Ladyzhyn", "images": []}, {"id": 494058, "min_date": "2022-02-26T11:12:00Z", "max_date": "2022-02-26T11:12:00Z", "count_points": 1, "latitude": 48.52522, "longitude": 26.75945, "city": "Kel\u2019mentsi", "images": []}, {"id": 494059, "min_date": "2022-02-26T11:12:00Z", "max_date": "2022-02-26T11:12:00Z", "count_points": 1, "latitude": 49.52016, "longitude": 31.45587, "city": "Mleyev", "images": []}, {"id": 493985, "min_date": "2022-02-23T12:08:00Z", "max_date": "2022-02-23T11:17:00Z", "count_points": 2, "latitude": 47.9325, "longitude": 28.96487, "city": "Zagnitkiv", "images": []}, {"id": 494062, "min_date": "2022-02-26T11:12:00Z", "max_date": "2022-02-26T11:12:00Z", "count_points": 2, "latitude": 50.02614, "longitude": 29.25725, "city": "Popil'nya", "images": []}, {"id": 494063, "min_date": "2022-02-26T23:24:00Z", "max_date": "2022-02-26T22:33:00Z", "count_points": 2, "latitude": 50.96464, "longitude": 32.36149, "city": "Ichnya", "images": []}, {"id": 494064, "min_date": "2022-02-26T23:26:00Z", "max_date": "2022-02-26T23:26:00Z", "count_points": 2, "latitude": 46.44635, "longitude": 30.21231, "city": "Bilyayivka", "images": []}, {"id": 494066, "min_date": "2022-02-27T01:04:00Z", "max_date": "2022-02-27T01:04:00Z", "count_points": 1, "latitude": 50.76708, "longitude": 30.35554, "city": "Dymer", "images": []}, {"id": 494067, "min_date": "2022-02-27T10:51:00Z", "max_date": "2022-02-27T10:51:00Z", "count_points": 1, "latitude": 45.61719, "longitude": 29.48269, "city": "Shevchenkove", "images": []}, {"id": 494068, "min_date": "2022-02-27T10:51:00Z", "max_date": "2022-02-27T10:51:00Z", "count_points": 1, "latitude": 47.5751, "longitude": 34.24149, "city": "Chortomlyk", "images": []}, {"id": 494069, "min_date": "2022-02-27T10:51:00Z", "max_date": "2022-02-27T10:51:00Z", "count_points": 1, "latitude": 50.21197, "longitude": 29.84137, "city": "Fastiv", "images": []}, {"id": 494070, "min_date": "2022-02-27T10:51:00Z", "max_date": "2022-02-27T10:02:00Z", "count_points": 5, "latitude": 50.53963, "longitude": 30.22997, "city": "Irpin", "images": []}, {"id": 494071, "min_date": "2022-02-27T10:51:00Z", "max_date": "2022-02-27T10:51:00Z", "count_points": 2, "latitude": 50.60154, "longitude": 30.44514, "city": "Novi Petrivtsi", "images": []}, {"id": 494072, "min_date": "2022-02-27T10:51:00Z", "max_date": "2022-02-27T10:02:00Z", "count_points": 5, "latitude": 50.62533, "longitude": 29.91203, "city": "Borodianka", "images": []}, {"id": 494073, "min_date": "2022-02-21T00:28:00Z", "max_date": "2022-02-21T00:28:00Z", "count_points": 1, "latitude": 48.99186, "longitude": 32.20185, "city": "Oleksandrivka", "images": []}, {"id": 494074, "min_date": "2022-02-21T00:28:00Z", "max_date": "2022-02-21T00:28:00Z", "count_points": 1, "latitude": 49.59409, "longitude": 28.22523, "city": "Ulaniv", "images": []}, {"id": 494075, "min_date": "2022-02-21T00:28:00Z", "max_date": "2022-02-21T00:28:00Z", "count_points": 1, "latitude": 48.37796, "longitude": 29.1723, "city": "Torkanivka", "images": []}, {"id": 494076, "min_date": "2022-02-21T00:28:00Z", "max_date": "2022-02-21T00:28:00Z", "count_points": 1, "latitude": 49.01232, "longitude": 24.27442, "city": "Novytsya", "images": []}, {"id": 494077, "min_date": "2022-02-21T00:28:00Z", "max_date": "2022-02-21T00:28:00Z", "count_points": 1, "latitude": 47.87371, "longitude": 29.85607, "city": "Ananyiv Pershyi", "images": []}, {"id": 494078, "min_date": "2022-02-21T00:28:00Z", "max_date": "2022-02-21T00:28:00Z", "count_points": 1, "latitude": 48.55431, "longitude": 26.03888, "city": "Zastavna", "images": []}, {"id": 494079, "min_date": "2022-02-21T00:28:00Z", "max_date": "2022-02-21T00:28:00Z", "count_points": 1, "latitude": 48.48553, "longitude": 25.06648, "city": "Kolomyia", "images": []}, {"id": 494080, "min_date": "2022-02-21T00:28:00Z", "max_date": "2022-02-21T00:28:00Z", "count_points": 1, "latitude": 48.24865, "longitude": 26.14879, "city": "Boyany", "images": []}, {"id": 494081, "min_date": "2022-02-21T10:15:00Z", "max_date": "2022-02-21T10:15:00Z", "count_points": 1, "latitude": 46.00779, "longitude": 34.02976, "city": "Krasnoarmeyskoye", "images": []}, {"id": 494082, "min_date": "2022-02-21T10:15:00Z", "max_date": "2022-02-21T10:15:00Z", "count_points": 1, "latitude": 46.22146, "longitude": 34.37942, "city": "Novotroyits\u2019ke", "images": []}, {"id": 494083, "min_date": "2022-02-21T10:15:00Z", "max_date": "2022-02-21T10:15:00Z", "count_points": 2, "latitude": 45.48752, "longitude": 29.36786, "city": "Shevchenkove", "images": []}, {"id": 494084, "min_date": "2022-02-21T10:15:00Z", "max_date": "2022-02-21T10:15:00Z", "count_points": 1, "latitude": 46.56701, "longitude": 33.44575, "city": "Chornyanka", "images": []}, {"id": 494085, "min_date": "2022-02-21T10:15:00Z", "max_date": "2022-02-21T10:15:00Z", "count_points": 2, "latitude": 46.45616, "longitude": 32.06697, "city": "Stanislav", "images": []}, {"id": 494086, "min_date": "2022-02-21T10:15:00Z", "max_date": "2022-02-21T10:15:00Z", "count_points": 1, "latitude": 46.44103, "longitude": 30.05124, "city": "Starokozache", "images": []}, {"id": 494087, "min_date": "2022-02-21T10:15:00Z", "max_date": "2022-02-21T10:15:00Z", "count_points": 1, "latitude": 46.84805, "longitude": 31.64443, "city": "Ochakiv", "images": []}, {"id": 494088, "min_date": "2022-02-21T10:15:00Z", "max_date": "2022-02-21T10:15:00Z", "count_points": 1, "latitude": 47.44239, "longitude": 34.35595, "city": "Kamenka-Na-Dnepre", "images": []}, {"id": 494089, "min_date": "2022-02-21T10:15:00Z", "max_date": "2022-02-21T10:15:00Z", "count_points": 1, "latitude": 47.37542, "longitude": 33.19994, "city": "Velyka Oleksandrivka", "images": []}, {"id": 494090, "min_date": "2022-02-21T10:15:00Z", "max_date": "2022-02-21T10:15:00Z", "count_points": 1, "latitude": 46.92374, "longitude": 30.7617, "city": "Kremidivka", "images": []}, {"id": 494091, "min_date": "2022-02-21T10:15:00Z", "max_date": "2022-02-21T10:15:00Z", "count_points": 1, "latitude": 46.85764, "longitude": 30.03654, "city": "Rozdil\u2019na", "images": []}, {"id": 494092, "min_date": "2022-02-21T10:15:00Z", "max_date": "2022-02-21T10:15:00Z", "count_points": 1, "latitude": 47.58212, "longitude": 33.23119, "city": "Shyroke", "images": []}, {"id": 494094, "min_date": "2022-02-21T10:15:00Z", "max_date": "2022-02-21T10:15:00Z", "count_points": 1, "latitude": 47.80945, "longitude": 33.584, "city": "Apostolove", "images": []}, {"id": 494095, "min_date": "2022-02-21T10:15:00Z", "max_date": "2022-02-21T10:15:00Z", "count_points": 1, "latitude": 46.99319, "longitude": 29.57352, "city": "Velykoploske", "images": []}, {"id": 494096, "min_date": "2022-02-21T10:15:00Z", "max_date": "2022-02-21T10:15:00Z", "count_points": 2, "latitude": 47.42473, "longitude": 30.53285, "city": "Mykolayivka", "images": []}, {"id": 494097, "min_date": "2022-02-21T10:15:00Z", "max_date": "2022-02-21T10:15:00Z", "count_points": 1, "latitude": 47.36155, "longitude": 30.20667, "city": "Shyryayeve", "images": []}, {"id": 494098, "min_date": "2022-02-21T10:15:00Z", "max_date": "2022-02-21T10:15:00Z", "count_points": 1, "latitude": 47.37215, "longitude": 29.84015, "city": "Zatyshshya", "images": []}, {"id": 494099, "min_date": "2022-02-21T10:15:00Z", "max_date": "2022-02-21T11:53:00Z", "count_points": 2, "latitude": 47.51914, "longitude": 30.06973, "city": "Shyryayeve", "images": []}, {"id": 494100, "min_date": "2022-02-21T10:15:00Z", "max_date": "2022-02-21T10:15:00Z", "count_points": 1, "latitude": 47.72797, "longitude": 30.42612, "city": "Lyubashivka", "images": []}, {"id": 494101, "min_date": "2022-02-21T10:15:00Z", "max_date": "2022-02-21T10:15:00Z", "count_points": 3, "latitude": 47.76161, "longitude": 30.48677, "city": "Vradiyivka", "images": [{"image_url": "494101.jpg", "timestamp": "2022-02-21T10:15:00Z"}]}, {"id": 494102, "min_date": "2022-02-21T10:15:00Z", "max_date": "2022-02-21T10:15:00Z", "count_points": 2, "latitude": 47.6628, "longitude": 29.96986, "city": "Ananyiv Pershyi", "images": []}, {"id": 494103, "min_date": "2022-02-21T10:15:00Z", "max_date": "2022-02-21T10:15:00Z", "count_points": 1, "latitude": 48.01178, "longitude": 30.57263, "city": "Vradiyivka", "images": []}, {"id": 494104, "min_date": "2022-02-21T10:15:00Z", "max_date": "2022-02-21T10:15:00Z", "count_points": 1, "latitude": 48.16306, "longitude": 30.93656, "city": "Pidhorodna", "images": []}, {"id": 494105, "min_date": "2022-02-21T10:15:00Z", "max_date": "2022-02-21T10:15:00Z", "count_points": 1, "latitude": 47.98663, "longitude": 29.29228, "city": "Slobidka", "images": []}, {"id": 494106, "min_date": "2022-02-21T10:15:00Z", "max_date": "2022-02-21T10:15:00Z", "count_points": 1, "latitude": 48.6655, "longitude": 31.91202, "city": "Mala Vyska", "images": []}, {"id": 494107, "min_date": "2022-02-21T10:15:00Z", "max_date": "2022-02-21T10:15:00Z", "count_points": 1, "latitude": 48.13136, "longitude": 29.33026, "city": "Chechelnyk", "images": []}, {"id": 494108, "min_date": "2022-02-21T10:15:00Z", "max_date": "2022-02-21T10:15:00Z", "count_points": 1, "latitude": 48.78777, "longitude": 31.60052, "city": "Novomyrhorod", "images": []}, {"id": 494109, "min_date": "2022-02-21T10:15:00Z", "max_date": "2022-02-21T10:15:00Z", "count_points": 1, "latitude": 48.36828, "longitude": 29.68995, "city": "Viytivka", "images": []}, {"id": 494110, "min_date": "2022-02-21T10:15:00Z", "max_date": "2022-02-21T10:15:00Z", "count_points": 1, "latitude": 49.14976, "longitude": 31.64687, "city": "Tsvetkovo", "images": []}, {"id": 494111, "min_date": "2022-02-21T10:15:00Z", "max_date": "2022-02-21T10:15:00Z", "count_points": 1, "latitude": 49.62419, "longitude": 32.71011, "city": "Orzhytsya", "images": []}, {"id": 494112, "min_date": "2022-02-21T10:15:00Z", "max_date": "2022-02-21T10:15:00Z", "count_points": 1, "latitude": 49.58966, "longitude": 31.34751, "city": "Korsun-Shevchenkivskyi", "images": []}, {"id": 494113, "min_date": "2022-02-21T10:15:00Z", "max_date": "2022-02-21T10:15:00Z", "count_points": 1, "latitude": 49.64079, "longitude": 31.45982, "city": "Kaniv", "images": []}, {"id": 494114, "min_date": "2022-02-21T11:53:00Z", "max_date": "2022-02-21T11:53:00Z", "count_points": 1, "latitude": 46.37016, "longitude": 29.38567, "city": "Borodino", "images": []}, {"id": 494115, "min_date": "2022-02-21T11:53:00Z", "max_date": "2022-02-21T11:53:00Z", "count_points": 2, "latitude": 46.511, "longitude": 32.62672, "city": "Hola Prystan\u2019", "images": []}, {"id": 494116, "min_date": "2022-02-21T11:53:00Z", "max_date": "2022-02-21T11:53:00Z", "count_points": 1, "latitude": 47.16035, "longitude": 32.89157, "city": "Snihurivka", "images": []}, {"id": 494117, "min_date": "2022-02-21T11:53:00Z", "max_date": "2022-02-21T11:53:00Z", "count_points": 5, "latitude": 47.3452, "longitude": 30.10965, "city": "Shyryayeve", "images": [{"image_url": "494117.jpg", "timestamp": "2022-02-21T11:53:00Z"}]}, {"id": 494118, "min_date": "2022-02-21T11:53:00Z", "max_date": "2022-02-21T11:53:00Z", "count_points": 1, "latitude": 47.59661, "longitude": 30.09617, "city": "Ananyiv Pershyi", "images": []}, {"id": 494120, "min_date": "2022-02-21T11:53:00Z", "max_date": "2022-02-21T11:53:00Z", "count_points": 1, "latitude": 47.76683, "longitude": 31.30248, "city": "Yuzhnoukrains'k", "images": []}, {"id": 494121, "min_date": "2022-02-21T11:53:00Z", "max_date": "2022-02-21T11:53:00Z", "count_points": 1, "latitude": 47.81935, "longitude": 29.47385, "city": "Podil\u2019s\u2019k", "images": []}, {"id": 494122, "min_date": "2022-02-21T11:53:00Z", "max_date": "2022-02-21T11:53:00Z", "count_points": 2, "latitude": 47.85598, "longitude": 30.44715, "city": "Kryve Ozero", "images": []}, {"id": 494123, "min_date": "2022-02-21T11:53:00Z", "max_date": "2022-02-21T11:53:00Z", "count_points": 1, "latitude": 47.91548, "longitude": 29.29509, "city": "Slobidka", "images": []}, {"id": 494124, "min_date": "2022-02-21T11:53:00Z", "max_date": "2022-02-21T11:53:00Z", "count_points": 1, "latitude": 47.9534, "longitude": 29.95534, "city": "Savran", "images": []}, {"id": 494125, "min_date": "2022-02-22T09:56:00Z", "max_date": "2022-02-22T09:56:00Z", "count_points": 2, "latitude": 48.18684, "longitude": 26.08544, "city": "Molodiya", "images": []}, {"id": 494126, "min_date": "2022-02-22T09:56:00Z", "max_date": "2022-02-22T09:56:00Z", "count_points": 1, "latitude": 48.30408, "longitude": 26.30949, "city": "Marshintsy", "images": []}, {"id": 494127, "min_date": "2022-02-22T09:56:00Z", "max_date": "2022-02-22T09:56:00Z", "count_points": 2, "latitude": 48.44357, "longitude": 26.19254, "city": "Klishkivtsi", "images": []}, {"id": 494128, "min_date": "2022-02-22T09:56:00Z", "max_date": "2022-02-22T11:36:00Z", "count_points": 4, "latitude": 48.43237, "longitude": 25.93742, "city": "Chernivtsi", "images": [{"image_url": "494128.jpg", "timestamp": "2022-02-22T11:36:00Z"}]}, {"id": 494129, "min_date": "2022-02-22T09:56:00Z", "max_date": "2022-02-22T09:56:00Z", "count_points": 1, "latitude": 50.68445, "longitude": 29.2124, "city": "Malyn", "images": []}, {"id": 494130, "min_date": "2022-02-22T11:36:00Z", "max_date": "2022-02-22T11:36:00Z", "count_points": 1, "latitude": 46.69654, "longitude": 32.30346, "city": "Bilozerka", "images": []}, {"id": 494131, "min_date": "2022-02-22T11:36:00Z", "max_date": "2022-02-22T11:36:00Z", "count_points": 1, "latitude": 46.88742, "longitude": 32.67869, "city": "Oleksandrivka", "images": []}, {"id": 494132, "min_date": "2022-02-22T11:36:00Z", "max_date": "2022-02-22T11:36:00Z", "count_points": 1, "latitude": 48.25787, "longitude": 25.85138, "city": "Chernivtsi", "images": []}, {"id": 494133, "min_date": "2022-02-22T11:36:00Z", "max_date": "2022-02-22T11:36:00Z", "count_points": 4, "latitude": 48.46075, "longitude": 25.82264, "city": "Kitsman\u2019", "images": []}, {"id": 494134, "min_date": "2022-02-22T11:36:00Z", "max_date": "2022-02-22T11:36:00Z", "count_points": 1, "latitude": 48.73477, "longitude": 28.55103, "city": "Tomashpil\u2019", "images": []}, {"id": 494135, "min_date": "2022-02-22T11:36:00Z", "max_date": "2022-02-22T11:36:00Z", "count_points": 1, "latitude": 48.65736, "longitude": 26.53817, "city": "Smotrych", "images": []}, {"id": 494061, "min_date": "2022-02-26T11:12:00Z", "max_date": "2022-02-26T11:12:00Z", "count_points": 1, "latitude": 49.66171, "longitude": 29.1013, "city": "Ruzhyn", "images": []}, {"id": 494139, "min_date": "2022-02-22T11:36:00Z", "max_date": "2022-02-22T11:36:00Z", "count_points": 1, "latitude": 50.07533, "longitude": 28.60744, "city": "Hryshkivtsi", "images": []}, {"id": 494140, "min_date": "2022-02-22T11:36:00Z", "max_date": "2022-02-22T11:36:00Z", "count_points": 1, "latitude": 50.29625, "longitude": 29.03485, "city": "Korostyshiv", "images": []}, {"id": 494141, "min_date": "2022-02-22T23:50:00Z", "max_date": "2022-02-22T23:50:00Z", "count_points": 2, "latitude": 49.87854, "longitude": 29.69651, "city": "Kozhanka", "images": []}, {"id": 494142, "min_date": "2022-02-22T23:50:00Z", "max_date": "2022-02-22T23:50:00Z", "count_points": 2, "latitude": 49.91088, "longitude": 28.80002, "city": "Chervone", "images": []}, {"id": 494143, "min_date": "2022-02-22T23:50:00Z", "max_date": "2022-02-22T23:50:00Z", "count_points": 1, "latitude": 48.80874, "longitude": 29.32618, "city": "Haisyn", "images": []}, {"id": 494144, "min_date": "2022-02-22T23:50:00Z", "max_date": "2022-02-22T23:50:00Z", "count_points": 1, "latitude": 48.18865, "longitude": 29.41026, "city": "Chechelnyk", "images": []}, {"id": 494145, "min_date": "2022-02-22T23:50:00Z", "max_date": "2022-02-22T23:50:00Z", "count_points": 1, "latitude": 48.41657, "longitude": 25.5731, "city": "Sniatyn", "images": []}, {"id": 494146, "min_date": "2022-02-23T09:36:00Z", "max_date": "2022-02-23T09:36:00Z", "count_points": 1, "latitude": 46.50304, "longitude": 33.15028, "city": "Brylivka", "images": []}, {"id": 494147, "min_date": "2022-02-23T09:36:00Z", "max_date": "2022-02-23T09:36:00Z", "count_points": 1, "latitude": 46.32061, "longitude": 32.10118, "city": "Bekhtery", "images": []}, {"id": 494148, "min_date": "2022-02-23T09:36:00Z", "max_date": "2022-02-23T09:36:00Z", "count_points": 1, "latitude": 47.00495, "longitude": 34.31878, "city": "Nyzhni Sirohozy", "images": []}, {"id": 494149, "min_date": "2022-02-23T09:36:00Z", "max_date": "2022-02-23T09:36:00Z", "count_points": 2, "latitude": 47.51272, "longitude": 33.82361, "city": "Novovorontsovka", "images": []}, {"id": 494151, "min_date": "2022-02-23T09:36:00Z", "max_date": "2022-02-23T09:36:00Z", "count_points": 1, "latitude": 48.53981, "longitude": 33.19428, "city": "Novyy Starodub", "images": []}, {"id": 494152, "min_date": "2022-02-23T09:36:00Z", "max_date": "2022-02-23T09:36:00Z", "count_points": 1, "latitude": 49.02991, "longitude": 33.22062, "city": "Svitlovods\u2019k", "images": []}, {"id": 494153, "min_date": "2022-02-23T09:38:00Z", "max_date": "2022-02-23T09:38:00Z", "count_points": 1, "latitude": 49.99096, "longitude": 29.85622, "city": "Fastiv", "images": []}, {"id": 494154, "min_date": "2022-02-23T11:17:00Z", "max_date": "2022-02-23T11:17:00Z", "count_points": 1, "latitude": 45.46765, "longitude": 28.31412, "city": "Reni", "images": []}, {"id": 494155, "min_date": "2022-02-23T11:17:00Z", "max_date": "2022-02-23T11:17:00Z", "count_points": 2, "latitude": 45.48755, "longitude": 28.38591, "city": "Reni", "images": []}, {"id": 494156, "min_date": "2022-02-23T11:17:00Z", "max_date": "2022-02-23T11:17:00Z", "count_points": 1, "latitude": 45.86904, "longitude": 28.46922, "city": "Zaliznychne", "images": []}, {"id": 494157, "min_date": "2022-02-23T11:17:00Z", "max_date": "2022-02-23T11:17:00Z", "count_points": 1, "latitude": 46.09042, "longitude": 29.92371, "city": "Kulevcha", "images": []}, {"id": 494158, "min_date": "2022-02-23T11:17:00Z", "max_date": "2022-02-23T11:17:00Z", "count_points": 2, "latitude": 46.72984, "longitude": 31.34611, "city": "Rybakivka", "images": []}, {"id": 494159, "min_date": "2022-02-23T11:17:00Z", "max_date": "2022-02-23T11:17:00Z", "count_points": 1, "latitude": 46.84717, "longitude": 32.18392, "city": "Shevchenkove", "images": []}, {"id": 494160, "min_date": "2022-02-23T11:17:00Z", "max_date": "2022-02-23T11:17:00Z", "count_points": 1, "latitude": 46.79317, "longitude": 30.15167, "city": "Rozdil\u2019na", "images": []}, {"id": 494161, "min_date": "2022-02-23T11:17:00Z", "max_date": "2022-02-23T11:17:00Z", "count_points": 1, "latitude": 46.89293, "longitude": 29.93108, "city": "Stepanivka", "images": []}, {"id": 494162, "min_date": "2022-02-23T11:17:00Z", "max_date": "2022-02-23T11:17:00Z", "count_points": 1, "latitude": 46.98753, "longitude": 30.78133, "city": "Kurisove", "images": []}, {"id": 494163, "min_date": "2022-02-23T11:17:00Z", "max_date": "2022-02-23T11:17:00Z", "count_points": 1, "latitude": 46.92522, "longitude": 29.92494, "city": "Stepanivka", "images": []}, {"id": 494164, "min_date": "2022-02-23T11:17:00Z", "max_date": "2022-02-23T11:17:00Z", "count_points": 1, "latitude": 47.0228, "longitude": 30.74393, "city": "Kurisove", "images": []}, {"id": 494165, "min_date": "2022-02-23T11:17:00Z", "max_date": "2022-02-23T11:17:00Z", "count_points": 2, "latitude": 47.33956, "longitude": 33.95948, "city": "Velyka Lepetykha", "images": []}, {"id": 494166, "min_date": "2022-02-23T11:17:00Z", "max_date": "2022-02-23T11:17:00Z", "count_points": 1, "latitude": 47.12917, "longitude": 29.53518, "city": "Velykoploske", "images": []}, {"id": 494167, "min_date": "2022-02-23T11:17:00Z", "max_date": "2022-02-23T11:17:00Z", "count_points": 2, "latitude": 47.64462, "longitude": 34.02654, "city": "Ordzhonikidze", "images": []}, {"id": 494168, "min_date": "2022-02-23T11:17:00Z", "max_date": "2022-02-23T11:17:00Z", "count_points": 2, "latitude": 47.85036, "longitude": 32.01274, "city": "Yelanets\u2019", "images": []}, {"id": 494169, "min_date": "2022-02-23T11:17:00Z", "max_date": "2022-02-23T11:17:00Z", "count_points": 1, "latitude": 47.70283, "longitude": 30.03357, "city": "Ananyiv Pershyi", "images": []}, {"id": 494170, "min_date": "2022-02-23T11:17:00Z", "max_date": "2022-02-23T11:17:00Z", "count_points": 1, "latitude": 47.70294, "longitude": 29.60616, "city": "Podil\u2019s\u2019k", "images": []}, {"id": 494171, "min_date": "2022-02-23T11:17:00Z", "max_date": "2022-02-23T11:17:00Z", "count_points": 2, "latitude": 47.83534, "longitude": 31.01792, "city": "Kostyantynivka", "images": []}, {"id": 494172, "min_date": "2022-02-23T11:17:00Z", "max_date": "2022-02-23T11:17:00Z", "count_points": 1, "latitude": 47.86376, "longitude": 31.01945, "city": "Kostyantynivka", "images": []}, {"id": 494173, "min_date": "2022-02-23T11:17:00Z", "max_date": "2022-02-23T11:17:00Z", "count_points": 1, "latitude": 47.86014, "longitude": 30.4994, "city": "Vradiyivka", "images": []}, {"id": 494174, "min_date": "2022-02-23T11:17:00Z", "max_date": "2022-02-23T11:17:00Z", "count_points": 2, "latitude": 47.83393, "longitude": 29.69337, "city": "Balta", "images": []}, {"id": 494175, "min_date": "2022-02-23T11:17:00Z", "max_date": "2022-02-23T11:17:00Z", "count_points": 1, "latitude": 47.92772, "longitude": 29.59072, "city": "Balta", "images": []}, {"id": 494176, "min_date": "2022-02-23T11:17:00Z", "max_date": "2022-02-23T11:17:00Z", "count_points": 2, "latitude": 47.9402, "longitude": 29.63882, "city": "Balta", "images": []}, {"id": 494178, "min_date": "2022-02-23T11:17:00Z", "max_date": "2022-02-23T11:17:00Z", "count_points": 1, "latitude": 48.30207, "longitude": 30.59017, "city": "Pobugskoye", "images": []}, {"id": 494179, "min_date": "2022-02-23T11:17:00Z", "max_date": "2022-02-23T11:17:00Z", "count_points": 1, "latitude": 48.42027, "longitude": 30.20387, "city": "Blahovishchens\u2019ke", "images": []}, {"id": 494180, "min_date": "2022-02-23T11:17:00Z", "max_date": "2022-02-23T11:17:00Z", "count_points": 1, "latitude": 48.45845, "longitude": 29.83639, "city": "Hayvoron", "images": []}, {"id": 494181, "min_date": "2022-02-23T11:19:00Z", "max_date": "2022-02-23T11:19:00Z", "count_points": 2, "latitude": 48.66052, "longitude": 28.84624, "city": "Tulchyn", "images": []}, {"id": 494182, "min_date": "2022-02-23T11:19:00Z", "max_date": "2022-02-23T11:19:00Z", "count_points": 1, "latitude": 48.69954, "longitude": 28.754, "city": "Tulchyn", "images": []}, {"id": 494183, "min_date": "2022-02-23T11:19:00Z", "max_date": "2022-02-23T11:19:00Z", "count_points": 2, "latitude": 49.16072, "longitude": 31.23387, "city": "Yurkivka", "images": []}, {"id": 494184, "min_date": "2022-02-23T11:19:00Z", "max_date": "2022-02-23T11:19:00Z", "count_points": 1, "latitude": 48.97921, "longitude": 29.00754, "city": "Nemyriv", "images": []}, {"id": 494185, "min_date": "2022-02-23T11:19:00Z", "max_date": "2022-02-23T11:19:00Z", "count_points": 1, "latitude": 49.51125, "longitude": 30.51958, "city": "Tarashcha", "images": []}, {"id": 494186, "min_date": "2022-02-23T11:19:00Z", "max_date": "2022-02-23T11:19:00Z", "count_points": 1, "latitude": 49.8601, "longitude": 28.60801, "city": "Berdychiv", "images": []}, {"id": 494187, "min_date": "2022-02-23T11:19:00Z", "max_date": "2022-02-23T11:19:00Z", "count_points": 1, "latitude": 50.38897, "longitude": 30.94711, "city": "Boryspil\u2019", "images": []}, {"id": 494188, "min_date": "2022-02-23T23:30:00Z", "max_date": "2022-02-23T23:30:00Z", "count_points": 1, "latitude": 49.61263, "longitude": 34.74302, "city": "Poltava", "images": []}, {"id": 494189, "min_date": "2022-02-24T10:57:00Z", "max_date": "2022-02-24T10:57:00Z", "count_points": 1, "latitude": 45.48131, "longitude": 29.52594, "city": "Vylkove", "images": []}, {"id": 494190, "min_date": "2022-02-24T10:57:00Z", "max_date": "2022-02-24T10:57:00Z", "count_points": 1, "latitude": 46.87606, "longitude": 34.05456, "city": "Velyka Lepetykha", "images": []}, {"id": 494191, "min_date": "2022-02-24T10:57:00Z", "max_date": "2022-02-24T10:57:00Z", "count_points": 1, "latitude": 47.29388, "longitude": 34.55605, "city": "Dniprovka", "images": []}, {"id": 494192, "min_date": "2022-02-24T10:57:00Z", "max_date": "2022-02-24T10:57:00Z", "count_points": 1, "latitude": 47.40063, "longitude": 34.41707, "city": "Kamenka-Na-Dnepre", "images": []}, {"id": 494193, "min_date": "2022-02-24T10:57:00Z", "max_date": "2022-02-24T10:57:00Z", "count_points": 1, "latitude": 47.42615, "longitude": 34.42842, "city": "Kamenka-Na-Dnepre", "images": []}, {"id": 494194, "min_date": "2022-02-24T10:57:00Z", "max_date": "2022-02-24T10:57:00Z", "count_points": 1, "latitude": 47.20913, "longitude": 31.79076, "city": "Ol'shanskoye", "images": []}, {"id": 494195, "min_date": "2022-02-24T10:57:00Z", "max_date": "2022-02-24T10:57:00Z", "count_points": 1, "latitude": 47.59655, "longitude": 32.24201, "city": "Bashtanka", "images": []}, {"id": 494196, "min_date": "2022-02-24T10:57:00Z", "max_date": "2022-02-24T10:57:00Z", "count_points": 1, "latitude": 48.65578, "longitude": 34.71101, "city": "Petrykivka", "images": []}, {"id": 494197, "min_date": "2022-02-24T10:57:00Z", "max_date": "2022-02-24T10:57:00Z", "count_points": 1, "latitude": 48.79588, "longitude": 34.84219, "city": "Mahdalynivka", "images": []}, {"id": 494198, "min_date": "2022-02-25T00:52:00Z", "max_date": "2022-02-25T00:52:00Z", "count_points": 3, "latitude": 46.47751, "longitude": 33.03749, "city": "Velyki Kopani", "images": []}, {"id": 494199, "min_date": "2022-02-25T10:38:00Z", "max_date": "2022-02-25T10:38:00Z", "count_points": 1, "latitude": 45.34799, "longitude": 28.67732, "city": "Ozerne", "images": []}, {"id": 494200, "min_date": "2022-02-25T10:38:00Z", "max_date": "2022-02-25T10:38:00Z", "count_points": 1, "latitude": 45.76545, "longitude": 29.29075, "city": "Shevchenkove", "images": []}, {"id": 494201, "min_date": "2022-02-25T10:38:00Z", "max_date": "2022-02-25T10:38:00Z", "count_points": 1, "latitude": 45.69983, "longitude": 28.62283, "city": "Bolhrad", "images": []}, {"id": 494202, "min_date": "2022-02-25T10:38:00Z", "max_date": "2022-02-25T10:38:00Z", "count_points": 1, "latitude": 45.93299, "longitude": 28.9596, "city": "Dmytrivka", "images": []}, {"id": 494203, "min_date": "2022-02-25T10:38:00Z", "max_date": "2022-02-25T10:38:00Z", "count_points": 3, "latitude": 46.59952, "longitude": 32.28096, "city": "Stanislav", "images": []}, {"id": 494204, "min_date": "2022-02-25T10:38:00Z", "max_date": "2022-02-25T10:38:00Z", "count_points": 1, "latitude": 46.11234, "longitude": 29.37364, "city": "Artsyz", "images": []}, {"id": 494205, "min_date": "2022-02-25T10:38:00Z", "max_date": "2022-02-25T10:38:00Z", "count_points": 1, "latitude": 46.40843, "longitude": 30.01384, "city": "Starokozache", "images": []}, {"id": 494207, "min_date": "2022-02-25T10:38:00Z", "max_date": "2022-02-25T10:38:00Z", "count_points": 2, "latitude": 46.47762, "longitude": 29.30217, "city": "Borodino", "images": []}, {"id": 494208, "min_date": "2022-02-25T10:38:00Z", "max_date": "2022-02-25T10:38:00Z", "count_points": 1, "latitude": 46.72578, "longitude": 30.3922, "city": "Teplodar", "images": []}, {"id": 494209, "min_date": "2022-02-25T10:38:00Z", "max_date": "2022-02-25T10:38:00Z", "count_points": 2, "latitude": 46.90921, "longitude": 30.49262, "city": "Ivanivka", "images": []}, {"id": 494210, "min_date": "2022-02-25T10:40:00Z", "max_date": "2022-02-25T10:40:00Z", "count_points": 1, "latitude": 47.51501, "longitude": 30.89752, "city": "Mykolayivka", "images": []}, {"id": 494211, "min_date": "2022-02-25T10:40:00Z", "max_date": "2022-02-25T10:40:00Z", "count_points": 1, "latitude": 47.73788, "longitude": 30.1276, "city": "Lyubashivka", "images": []}, {"id": 494212, "min_date": "2022-02-25T10:40:00Z", "max_date": "2022-02-25T10:40:00Z", "count_points": 2, "latitude": 47.91453, "longitude": 30.06702, "city": "Lyubashivka", "images": []}, {"id": 494138, "min_date": "2022-02-22T11:36:00Z", "max_date": "2022-02-22T11:36:00Z", "count_points": 3, "latitude": 49.48489, "longitude": 28.2034, "city": "Lityn", "images": []}, {"id": 494215, "min_date": "2022-02-25T10:40:00Z", "max_date": "2022-02-25T10:40:00Z", "count_points": 1, "latitude": 49.97123, "longitude": 29.25663, "city": "Popil'nya", "images": []}, {"id": 494216, "min_date": "2022-02-25T10:40:00Z", "max_date": "2022-02-25T10:40:00Z", "count_points": 1, "latitude": 50.55194, "longitude": 30.17868, "city": "Vorzel\u2019", "images": []}, {"id": 494217, "min_date": "2022-02-25T10:40:00Z", "max_date": "2022-02-25T10:40:00Z", "count_points": 1, "latitude": 50.87318, "longitude": 28.52072, "city": "Korosten\u2019", "images": []}, {"id": 494218, "min_date": "2022-02-26T00:34:00Z", "max_date": "2022-02-26T00:34:00Z", "count_points": 1, "latitude": 49.39092, "longitude": 28.33513, "city": "Pavlovka", "images": []}, {"id": 494219, "min_date": "2022-02-26T10:19:00Z", "max_date": "2022-02-26T10:19:00Z", "count_points": 1, "latitude": 45.53933, "longitude": 29.45406, "city": "Shevchenkove", "images": []}, {"id": 494220, "min_date": "2022-02-26T10:19:00Z", "max_date": "2022-02-26T10:19:00Z", "count_points": 1, "latitude": 47.47783, "longitude": 32.30209, "city": "Bashtanka", "images": []}, {"id": 494221, "min_date": "2022-02-26T10:19:00Z", "max_date": "2022-02-26T10:19:00Z", "count_points": 1, "latitude": 48.47572, "longitude": 25.77572, "city": "Kitsman\u2019", "images": []}, {"id": 494222, "min_date": "2022-02-26T10:19:00Z", "max_date": "2022-02-26T10:19:00Z", "count_points": 1, "latitude": 48.71341, "longitude": 26.67661, "city": "Makiv", "images": []}, {"id": 494223, "min_date": "2022-02-26T10:21:00Z", "max_date": "2022-02-27T11:44:00Z", "count_points": 3, "latitude": 50.6078, "longitude": 30.29048, "city": "Hostomel", "images": []}, {"id": 494224, "min_date": "2022-02-26T10:21:00Z", "max_date": "2022-02-26T10:21:00Z", "count_points": 1, "latitude": 51.58118, "longitude": 31.35445, "city": "Chernihiv", "images": []}, {"id": 494225, "min_date": "2022-02-26T12:01:00Z", "max_date": "2022-02-26T12:01:00Z", "count_points": 1, "latitude": 48.22553, "longitude": 29.83242, "city": "Hayvoron", "images": []}, {"id": 494226, "min_date": "2022-02-26T12:01:00Z", "max_date": "2022-02-26T12:01:00Z", "count_points": 2, "latitude": 51.23235, "longitude": 24.10411, "city": "Liuboml", "images": []}, {"id": 494227, "min_date": "2022-02-27T00:15:00Z", "max_date": "2022-02-27T00:15:00Z", "count_points": 1, "latitude": 46.55534, "longitude": 30.01346, "city": "Lymanske", "images": []}, {"id": 494228, "min_date": "2022-02-27T10:02:00Z", "max_date": "2022-02-27T10:02:00Z", "count_points": 1, "latitude": 46.7016, "longitude": 32.73331, "city": "Tsyurupyns\u2019k", "images": []}, {"id": 494229, "min_date": "2022-02-27T10:02:00Z", "max_date": "2022-02-27T10:02:00Z", "count_points": 2, "latitude": 45.94716, "longitude": 29.62235, "city": "Sarata", "images": []}, {"id": 494231, "min_date": "2022-02-27T10:02:00Z", "max_date": "2022-02-27T10:02:00Z", "count_points": 1, "latitude": 50.503, "longitude": 30.25301, "city": "Irpin", "images": []}, {"id": 494232, "min_date": "2022-02-27T10:02:00Z", "max_date": "2022-02-27T10:02:00Z", "count_points": 1, "latitude": 50.5433, "longitude": 29.87247, "city": "Makariv", "images": []}, {"id": 494233, "min_date": "2022-02-27T10:02:00Z", "max_date": "2022-02-27T10:02:00Z", "count_points": 2, "latitude": 50.84378, "longitude": 29.5379, "city": "Piskivka", "images": []}, {"id": 494234, "min_date": "2022-02-27T10:02:00Z", "max_date": "2022-02-27T10:02:00Z", "count_points": 1, "latitude": 51.61155, "longitude": 31.15568, "city": "Chernihiv", "images": []}, {"id": 494235, "min_date": "2022-02-27T11:42:00Z", "max_date": "2022-02-27T11:42:00Z", "count_points": 1, "latitude": 45.75634, "longitude": 28.98328, "city": "Kalcheva", "images": []}, {"id": 494236, "min_date": "2022-02-27T11:42:00Z", "max_date": "2022-02-27T11:42:00Z", "count_points": 2, "latitude": 47.41252, "longitude": 30.63115, "city": "Mykolayivka", "images": []}, {"id": 494237, "min_date": "2022-02-27T11:44:00Z", "max_date": "2022-02-27T11:44:00Z", "count_points": 1, "latitude": 51.20555, "longitude": 29.5143, "city": "Krasyatychi", "images": []}, {"id": 494238, "min_date": "2022-02-26T11:04:00Z", "max_date": "2022-02-27T23:56:00Z", "count_points": 10, "latitude": 46.81295, "longitude": 33.32773, "city": "Nova Kakhovka", "images": []}, {"id": 494239, "min_date": "2022-02-26T11:04:00Z", "max_date": "2022-02-27T23:56:00Z", "count_points": 7, "latitude": 51.52767, "longitude": 31.32721, "city": "Chernihiv", "images": [{"image_url": "494239.jpg", "timestamp": "2022-02-27T23:56:00Z"}]}, {"id": 494240, "min_date": "2022-02-27T00:37:00Z", "max_date": "2022-02-27T23:05:00Z", "count_points": 10, "latitude": 50.22583, "longitude": 30.29169, "city": "Vasylkiv", "images": []}, {"id": 494241, "min_date": "2022-02-27T23:07:00Z", "max_date": "2022-02-27T23:56:00Z", "count_points": 2, "latitude": 51.00266, "longitude": 34.91275, "city": "Sumy", "images": []}, {"id": 494242, "min_date": "2022-02-27T23:56:00Z", "max_date": "2022-02-27T23:56:00Z", "count_points": 1, "latitude": 51.40815, "longitude": 31.15473, "city": "Chernihiv", "images": []}, {"id": 494243, "min_date": "2022-02-27T23:56:00Z", "max_date": "2022-02-27T23:56:00Z", "count_points": 1, "latitude": 50.82449, "longitude": 29.6531, "city": "Piskivka", "images": []}, {"id": 494244, "min_date": "2022-02-27T23:56:00Z", "max_date": "2022-02-27T23:56:00Z", "count_points": 1, "latitude": 51.06995, "longitude": 25.40172, "city": "Lukiv", "images": []}, {"id": 494245, "min_date": "2022-02-27T23:56:00Z", "max_date": "2022-02-27T23:56:00Z", "count_points": 1, "latitude": 50.34768, "longitude": 30.3971, "city": "Chabany", "images": []}, {"id": 494246, "min_date": "2022-02-27T23:56:00Z", "max_date": "2022-02-27T23:56:00Z", "count_points": 2, "latitude": 50.41446, "longitude": 29.80031, "city": "Makariv", "images": []}, {"id": 494214, "min_date": "2022-02-25T10:40:00Z", "max_date": "2022-02-25T10:40:00Z", "count_points": 1, "latitude": 48.98781, "longitude": 31.24704, "city": "Yurkivka", "images": []}, {"id": 493740, "min_date": "2022-02-21T08:54:00Z", "max_date": "2022-02-21T08:54:00Z", "count_points": 2, "latitude": 46.84341, "longitude": 33.6576, "city": "Lyubymivka", "images": []}, {"id": 493755, "min_date": "2022-02-21T10:45:00Z", "max_date": "2022-02-21T11:04:00Z", "count_points": 2, "latitude": 46.94097, "longitude": 34.38544, "city": "Nyzhni Sirohozy", "images": []}, {"id": 493772, "min_date": "2022-02-21T10:45:00Z", "max_date": "2022-02-21T11:04:00Z", "count_points": 4, "latitude": 47.52539, "longitude": 31.43684, "city": "Voznesensk", "images": []}, {"id": 493799, "min_date": "2022-02-23T08:41:00Z", "max_date": "2022-02-23T09:36:00Z", "count_points": 2, "latitude": 46.22351, "longitude": 32.19756, "city": "Bekhtery", "images": []}, {"id": 493826, "min_date": "2022-02-25T11:59:00Z", "max_date": "2022-02-25T11:59:00Z", "count_points": 1, "latitude": 46.37095, "longitude": 29.02497, "city": "Serpneve", "images": []}, {"id": 493831, "min_date": "2022-02-26T11:02:00Z", "max_date": "2022-02-27T11:42:00Z", "count_points": 15, "latitude": 46.59855, "longitude": 32.7716, "city": "Tsyurupyns\u2019k", "images": []}, {"id": 493840, "min_date": "2022-02-27T10:08:00Z", "max_date": "2022-02-27T11:44:00Z", "count_points": 14, "latitude": 50.68069, "longitude": 30.05163, "city": "Klavdiyevo-Tarasove", "images": []}, {"id": 493872, "min_date": "2022-02-21T11:04:00Z", "max_date": "2022-02-21T11:04:00Z", "count_points": 1, "latitude": 47.0386, "longitude": 33.19736, "city": "Velyka Oleksandrivka", "images": []}, {"id": 493900, "min_date": "2022-02-21T11:04:00Z", "max_date": "2022-02-21T11:04:00Z", "count_points": 1, "latitude": 47.89785, "longitude": 29.35622, "city": "Slobidka", "images": []}, {"id": 493907, "min_date": "2022-02-21T11:04:00Z", "max_date": "2022-02-21T10:15:00Z", "count_points": 2, "latitude": 48.98921, "longitude": 32.67724, "city": "Chyhyryn", "images": []}, {"id": 493911, "min_date": "2022-02-22T10:47:00Z", "max_date": "2022-02-22T10:47:00Z", "count_points": 1, "latitude": 45.7627, "longitude": 34.16208, "city": "Novokrymskoye", "images": []}, {"id": 493938, "min_date": "2022-02-22T10:47:00Z", "max_date": "2022-02-22T10:47:00Z", "count_points": 1, "latitude": 50.75135, "longitude": 30.19979, "city": "Katyuzhanka", "images": []}, {"id": 493965, "min_date": "2022-02-23T10:28:00Z", "max_date": "2022-02-23T11:17:00Z", "count_points": 2, "latitude": 48.61159, "longitude": 34.36077, "city": "Verkhn\u2019odniprovs\u2019k", "images": []}, {"id": 493984, "min_date": "2022-02-23T12:08:00Z", "max_date": "2022-02-23T12:08:00Z", "count_points": 1, "latitude": 47.446, "longitude": 29.62776, "city": "Zakharivka", "images": []}, {"id": 493997, "min_date": "2022-02-24T10:08:00Z", "max_date": "2022-02-24T10:08:00Z", "count_points": 1, "latitude": 47.78782, "longitude": 34.44198, "city": "Chervonohryhorivka", "images": []}, {"id": 494026, "min_date": "2022-02-25T11:29:00Z", "max_date": "2022-02-25T11:29:00Z", "count_points": 1, "latitude": 48.2233, "longitude": 30.26728, "city": "Blahovishchens\u2019ke", "images": []}, {"id": 494055, "min_date": "2022-02-26T11:10:00Z", "max_date": "2022-02-26T11:10:00Z", "count_points": 1, "latitude": 47.26991, "longitude": 31.74511, "city": "Nova Odesa", "images": []}, {"id": 494060, "min_date": "2022-02-26T11:12:00Z", "max_date": "2022-02-26T11:12:00Z", "count_points": 1, "latitude": 49.49453, "longitude": 28.2627, "city": "Pavlovka", "images": []}, {"id": 494065, "min_date": "2022-02-26T23:26:00Z", "max_date": "2022-02-26T23:26:00Z", "count_points": 1, "latitude": 45.55595, "longitude": 28.97231, "city": "Kalcheva", "images": []}, {"id": 494119, "min_date": "2022-02-21T11:53:00Z", "max_date": "2022-02-21T11:53:00Z", "count_points": 1, "latitude": 47.70485, "longitude": 29.69782, "city": "Podil\u2019s\u2019k", "images": []}, {"id": 494136, "min_date": "2022-02-22T11:36:00Z", "max_date": "2022-02-22T11:36:00Z", "count_points": 1, "latitude": 49.02716, "longitude": 28.54888, "city": "Tyvriv", "images": []}, {"id": 494137, "min_date": "2022-02-22T11:36:00Z", "max_date": "2022-02-22T11:36:00Z", "count_points": 2, "latitude": 49.29671, "longitude": 29.21458, "city": "Lypovets", "images": []}, {"id": 494150, "min_date": "2022-02-23T09:36:00Z", "max_date": "2022-02-23T09:36:00Z", "count_points": 1, "latitude": 46.60607, "longitude": 30.34158, "city": "Teplodar", "images": []}, {"id": 494177, "min_date": "2022-02-23T11:17:00Z", "max_date": "2022-02-23T11:17:00Z", "count_points": 1, "latitude": 48.22398, "longitude": 30.35911, "city": "Blahovishchens\u2019ke", "images": []}, {"id": 494206, "min_date": "2022-02-25T10:38:00Z", "max_date": "2022-02-25T10:38:00Z", "count_points": 2, "latitude": 46.63314, "longitude": 30.80443, "city": "Krasnosilka", "images": []}, {"id": 494213, "min_date": "2022-02-25T10:40:00Z", "max_date": "2022-02-25T10:40:00Z", "count_points": 1, "latitude": 48.57874, "longitude": 32.71428, "city": "Znomenka", "images": []}, {"id": 494230, "min_date": "2022-02-27T10:02:00Z", "max_date": "2022-02-27T10:02:00Z", "count_points": 2, "latitude": 47.61807, "longitude": 33.45432, "city": "Vysokopillya", "images": []}, {"id": 495063, "min_date": "2022-02-21T10:15:00Z", "max_date": "2022-02-21T11:04:00Z", "count_points": 5, "latitude": 46.80351, "longitude": 35.84331, "city": "Novovasylivka", "images": []}, {"id": 495064, "min_date": "2022-02-21T10:15:00Z", "max_date": "2022-02-21T10:15:00Z", "count_points": 1, "latitude": 47.14177, "longitude": 36.98602, "city": "Urzuf", "images": []}, {"id": 495065, "min_date": "2022-02-21T10:15:00Z", "max_date": "2022-02-21T11:04:00Z", "count_points": 3, "latitude": 47.23334, "longitude": 35.67511, "city": "Tokmak", "images": []}, {"id": 495066, "min_date": "2022-02-21T10:15:00Z", "max_date": "2022-02-21T10:15:00Z", "count_points": 1, "latitude": 47.82852, "longitude": 38.69447, "city": "Snizhne", "images": []}, {"id": 495067, "min_date": "2022-02-21T10:15:00Z", "max_date": "2022-02-21T10:15:00Z", "count_points": 1, "latitude": 47.29316, "longitude": 35.03831, "city": "Dniprorudne", "images": []}, {"id": 495068, "min_date": "2022-02-21T10:15:00Z", "max_date": "2022-02-21T10:15:00Z", "count_points": 1, "latitude": 47.57714, "longitude": 35.74242, "city": "Orikhiv", "images": []}, {"id": 495069, "min_date": "2022-02-21T10:15:00Z", "max_date": "2022-02-21T10:15:00Z", "count_points": 2, "latitude": 47.67511, "longitude": 36.21661, "city": "Hulyaypole", "images": []}, {"id": 495070, "min_date": "2022-02-21T10:15:00Z", "max_date": "2022-02-21T09:24:00Z", "count_points": 6, "latitude": 47.67017, "longitude": 36.16324, "city": "Zaliznychne", "images": []}, {"id": 495071, "min_date": "2022-02-21T10:15:00Z", "max_date": "2022-02-21T10:15:00Z", "count_points": 1, "latitude": 47.96864, "longitude": 37.42339, "city": "Mareyka", "images": []}, {"id": 495072, "min_date": "2022-02-21T10:15:00Z", "max_date": "2022-02-21T09:24:00Z", "count_points": 2, "latitude": 48.30219, "longitude": 39.50181, "city": "Simeykyne", "images": []}, {"id": 495073, "min_date": "2022-02-21T10:15:00Z", "max_date": "2022-02-22T10:47:00Z", "count_points": 9, "latitude": 48.37229, "longitude": 39.85089, "city": "Uralo-Kavkaz", "images": []}, {"id": 495074, "min_date": "2022-02-21T10:15:00Z", "max_date": "2022-02-21T10:15:00Z", "count_points": 1, "latitude": 48.00088, "longitude": 37.34542, "city": "Kurakhovo", "images": []}, {"id": 495075, "min_date": "2022-02-21T10:15:00Z", "max_date": "2022-02-21T10:15:00Z", "count_points": 1, "latitude": 47.95816, "longitude": 37.05966, "city": "Kurakhovo", "images": []}, {"id": 495076, "min_date": "2022-02-21T10:15:00Z", "max_date": "2022-02-21T11:04:00Z", "count_points": 21, "latitude": 47.74057, "longitude": 35.75311, "city": "Kirove", "images": []},