[{"id": 497666, "min_date": "2022-05-16T08:24:00Z", "max_date": "2022-05-19T10:34:00Z", "count_points": 6, "latitude": 51.2751, "longitude": 32.6114, "city": "Bakhmach", "images": []}, {"id": 497667, "min_date": "2022-05-16T08:26:00Z", "max_date": "2022-05-16T08:26:00Z", "count_points": 1, "latitude": 48.63083, "longitude": 34.65454, "city": "Petrykivka", "images": []}, {"id": 497668, "min_date": "2022-05-16T08:26:00Z", "max_date": "2022-05-16T11:28:00Z", "count_points": 6, "latitude": 45.70609, "longitude": 34.81304, "city": "Pshenichnoye", "images": [{"image_url": "497668.jpg", "timestamp": "2022-05-16T11:28:00Z"}]}, {"id": 497669, "min_date": "2022-05-16T10:04:00Z", "max_date": "2022-05-16T10:04:00Z", "count_points": 2, "latitude": 48.07404, "longitude": 28.86048, "city": "Zagnitkiv", "images": []}, {"id": 497670, "min_date": "2022-05-16T10:04:00Z", "max_date": "2022-05-16T10:04:00Z", "count_points": 2, "latitude": 48.05754, "longitude": 28.91517, "city": "Zagnitkiv", "images": []}, {"id": 497671, "min_date": "2022-05-16T11:51:00Z", "max_date": "2022-05-16T11:51:00Z", "count_points": 1, "latitude": 51.49901, "longitude": 24.54031, "city": "Stara Vyzhivka", "images": []}, {"id": 497673, "min_date": "2022-05-16T19:36:00Z", "max_date": "2022-05-16T19:36:00Z", "count_points": 1, "latitude": 50.73697, "longitude": 32.81942, "city": "Sribne", "images": []}, {"id": 497674, "min_date": "2022-05-16T19:36:00Z", "max_date": "2022-05-16T19:36:00Z", "count_points": 1, "latitude": 50.92204, "longitude": 32.82473, "city": "Bakhmach", "images": []}, {"id": 497675, "min_date": "2022-05-16T19:36:00Z", "max_date": "2022-05-19T09:43:00Z", "count_points": 453, "latitude": 51.14007, "longitude": 30.32474, "city": "Kryva Hora", "images": [{"image_url": "497675.jpg", "timestamp": "2022-05-19T09:43:00Z"}]}, {"id": 497676, "min_date": "2022-05-16T19:36:00Z", "max_date": "2022-05-21T00:58:00Z", "count_points": 106, "latitude": 51.14585, "longitude": 29.45418, "city": "Krasyatychi", "images": [{"image_url": "497676.jpg", "timestamp": "2022-05-21T00:58:00Z"}]}, {"id": 497677, "min_date": "2022-05-16T19:36:00Z", "max_date": "2022-05-17T10:21:00Z", "count_points": 7, "latitude": 50.83147, "longitude": 24.31916, "city": "Volodymyr-Volynskyi", "images": []}, {"id": 497678, "min_date": "2022-05-17T09:09:00Z", "max_date": "2022-05-18T00:16:00Z", "count_points": 56, "latitude": 51.24781, "longitude": 30.87327, "city": "Oster", "images": [{"image_url": "497678.jpg", "timestamp": "2022-05-18T00:16:00Z"}]}, {"id": 497679, "min_date": "2022-05-17T09:09:00Z", "max_date": "2022-05-17T09:09:00Z", "count_points": 1, "latitude": 51.42981, "longitude": 28.5944, "city": "Ovruch", "images": []}, {"id": 497680, "min_date": "2022-05-17T09:09:00Z", "max_date": "2022-05-18T00:16:00Z", "count_points": 56, "latitude": 51.10769, "longitude": 29.83358, "city": "Krasyatychi", "images": [{"image_url": "497680.jpg", "timestamp": "2022-05-18T00:16:00Z"}]}, {"id": 497681, "min_date": "2022-05-17T09:09:00Z", "max_date": "2022-05-17T09:09:00Z", "count_points": 1, "latitude": 50.81782, "longitude": 27.82971, "city": "Yemil\u2019chyne", "images": []}, {"id": 497682, "min_date": "2022-05-17T09:09:00Z", "max_date": "2022-05-17T09:09:00Z", "count_points": 1, "latitude": 50.93569, "longitude": 26.32966, "city": "Kostopil\u2019", "images": []}, {"id": 497683, "min_date": "2022-05-17T09:09:00Z", "max_date": "2022-05-17T10:21:00Z", "count_points": 6, "latitude": 50.78111, "longitude": 27.13516, "city": "Koloniya Zastav\u2019ye", "images": []}, {"id": 497684, "min_date": "2022-05-17T09:09:00Z", "max_date": "2022-05-18T00:16:00Z", "count_points": 11, "latitude": 50.60761, "longitude": 27.66626, "city": "Novohrad-Volynskyi", "images": []}, {"id": 497685, "min_date": "2022-05-17T09:09:00Z", "max_date": "2022-05-17T10:21:00Z", "count_points": 4, "latitude": 49.35345, "longitude": 29.04032, "city": "Lypovets", "images": [{"image_url": "497685.jpg", "timestamp": "2022-05-17T10:21:00Z"}]}, {"id": 497686, "min_date": "2022-05-17T09:09:00Z", "max_date": "2022-05-17T10:19:00Z", "count_points": 7, "latitude": 46.33901, "longitude": 29.11495, "city": "Serpneve", "images": []}, {"id": 497687, "min_date": "2022-05-17T10:58:00Z", "max_date": "2022-05-17T10:19:00Z", "count_points": 6, "latitude": 47.00305, "longitude": 32.63749, "city": "Snihurivka", "images": [{"image_url": "497687.jpg", "timestamp": "2022-05-17T10:19:00Z"}]}, {"id": 497688, "min_date": "2022-05-17T10:58:00Z", "max_date": "2022-05-17T11:10:00Z", "count_points": 2, "latitude": 47.17336, "longitude": 33.01228, "city": "Bereznehuvate", "images": []}, {"id": 497691, "min_date": "2022-05-17T10:58:00Z", "max_date": "2022-05-18T23:56:00Z", "count_points": 22, "latitude": 50.65575, "longitude": 30.12607, "city": "Vorzel\u2019", "images": []}, {"id": 497692, "min_date": "2022-05-17T10:58:00Z", "max_date": "2022-05-17T10:58:00Z", "count_points": 1, "latitude": 50.69706, "longitude": 30.20142, "city": "Katyuzhanka", "images": []}, {"id": 497693, "min_date": "2022-05-17T10:58:00Z", "max_date": "2022-05-18T00:16:00Z", "count_points": 12, "latitude": 50.88604, "longitude": 30.02692, "city": "Katyuzhanka", "images": []}, {"id": 497694, "min_date": "2022-05-17T10:58:00Z", "max_date": "2022-05-17T11:13:00Z", "count_points": 2, "latitude": 51.30054, "longitude": 31.71725, "city": "Kulykivka", "images": []}, {"id": 497695, "min_date": "2022-05-17T10:58:00Z", "max_date": "2022-05-18T00:16:00Z", "count_points": 8, "latitude": 51.10806, "longitude": 29.75304, "city": "Krasyatychi", "images": [{"image_url": "497695.jpg", "timestamp": "2022-05-18T00:16:00Z"}]}, {"id": 497696, "min_date": "2022-05-17T10:58:00Z", "max_date": "2022-05-17T11:13:00Z", "count_points": 2, "latitude": 51.1803, "longitude": 28.76002, "city": "Ovruch", "images": []}, {"id": 497697, "min_date": "2022-05-17T10:58:00Z", "max_date": "2022-05-17T11:13:00Z", "count_points": 3, "latitude": 51.22496, "longitude": 27.71152, "city": "Olevs\u2019k", "images": []}, {"id": 497698, "min_date": "2022-05-17T10:58:00Z", "max_date": "2022-05-17T10:58:00Z", "count_points": 1, "latitude": 51.3664, "longitude": 28.34932, "city": "Luhyny", "images": []}, {"id": 497700, "min_date": "2022-05-17T10:58:00Z", "max_date": "2022-05-17T10:58:00Z", "count_points": 1, "latitude": 51.75715, "longitude": 26.57408, "city": "Dubrovytsya", "images": []}, {"id": 497701, "min_date": "2022-05-18T11:40:00Z", "max_date": "2022-05-18T11:45:00Z", "count_points": 5, "latitude": 50.08022, "longitude": 23.4879, "city": "Verblyany", "images": []}, {"id": 497702, "min_date": "2022-05-18T11:40:00Z", "max_date": "2022-05-18T11:45:00Z", "count_points": 4, "latitude": 51.66432, "longitude": 24.64192, "city": "Ratne", "images": []}, {"id": 497703, "min_date": "2022-05-18T11:38:00Z", "max_date": "2022-05-19T11:23:00Z", "count_points": 9, "latitude": 49.07046, "longitude": 23.94789, "city": "Bolekhiv", "images": []}, {"id": 497704, "min_date": "2022-05-18T11:38:00Z", "max_date": "2022-05-19T11:23:00Z", "count_points": 6, "latitude": 49.16856, "longitude": 22.89456, "city": "Turka", "images": []}, {"id": 497705, "min_date": "2022-05-18T19:23:00Z", "max_date": "2022-05-18T19:23:00Z", "count_points": 1, "latitude": 50.7194, "longitude": 32.53904, "city": "Pryluky", "images": []}, {"id": 497706, "min_date": "2022-05-19T08:54:00Z", "max_date": "2022-05-19T08:54:00Z", "count_points": 1, "latitude": 52.23109, "longitude": 33.78411, "city": "Druzhba", "images": []}, {"id": 497707, "min_date": "2022-05-19T08:54:00Z", "max_date": "2022-05-19T08:54:00Z", "count_points": 2, "latitude": 52.12257, "longitude": 33.95056, "city": "Druzhba", "images": []}, {"id": 497708, "min_date": "2022-05-19T08:54:00Z", "max_date": "2022-05-19T08:54:00Z", "count_points": 1, "latitude": 51.36045, "longitude": 34.31009, "city": "Vorozhba", "images": []}, {"id": 497709, "min_date": "2022-05-19T08:56:00Z", "max_date": "2022-05-19T08:56:00Z", "count_points": 1, "latitude": 50.34062, "longitude": 26.26558, "city": "Mizoch", "images": []}, {"id": 497710, "min_date": "2022-05-19T08:56:00Z", "max_date": "2022-05-19T08:56:00Z", "count_points": 2, "latitude": 48.18508, "longitude": 29.31963, "city": "Chechelnyk", "images": []}, {"id": 497711, "min_date": "2022-05-19T10:45:00Z", "max_date": "2022-05-19T11:23:00Z", "count_points": 3, "latitude": 48.37248, "longitude": 26.87666, "city": "Kel\u2019mentsi", "images": []}, {"id": 497712, "min_date": "2022-05-19T10:45:00Z", "max_date": "2022-05-19T11:25:00Z", "count_points": 4, "latitude": 50.50051, "longitude": 24.3476, "city": "Sokal\u2019", "images": []}, {"id": 497713, "min_date": "2022-05-20T09:39:00Z", "max_date": "2022-05-20T09:39:00Z", "count_points": 1, "latitude": 50.09969, "longitude": 25.29148, "city": "Radyvyliv", "images": []}, {"id": 497714, "min_date": "2022-05-20T09:39:00Z", "max_date": "2022-05-20T10:13:00Z", "count_points": 7, "latitude": 49.19397, "longitude": 24.0578, "city": "Morshyn", "images": []}, {"id": 497715, "min_date": "2022-05-20T09:39:00Z", "max_date": "2022-05-20T11:04:00Z", "count_points": 2, "latitude": 46.49105, "longitude": 31.96162, "city": "Stanislav", "images": []}, {"id": 497716, "min_date": "2022-05-20T09:49:00Z", "max_date": "2022-05-20T10:13:00Z", "count_points": 3, "latitude": 50.20616, "longitude": 33.47442, "city": "Sencha", "images": []}, {"id": 497717, "min_date": "2022-05-20T11:28:00Z", "max_date": "2022-05-20T11:06:00Z", "count_points": 5, "latitude": 48.46505, "longitude": 25.69755, "city": "Kitsman\u2019", "images": []}, {"id": 497718, "min_date": "2022-05-20T11:28:00Z", "max_date": "2022-05-20T11:28:00Z", "count_points": 1, "latitude": 48.73423, "longitude": 25.34196, "city": "Chernelytsya", "images": []}, {"id": 497719, "min_date": "2022-05-20T11:28:00Z", "max_date": "2022-05-20T23:20:00Z", "count_points": 8, "latitude": 49.87351, "longitude": 27.40628, "city": "Novoselytsya", "images": []}, {"id": 497720, "min_date": "2022-05-16T00:01:00Z", "max_date": "2022-05-16T00:54:00Z", "count_points": 4, "latitude": 48.84696, "longitude": 27.21297, "city": "Nova Ushytsya", "images": []}, {"id": 497721, "min_date": "2022-05-16T00:01:00Z", "max_date": "2022-05-16T00:01:00Z", "count_points": 1, "latitude": 48.54778, "longitude": 26.41833, "city": "Zhvanets", "images": []}, {"id": 497722, "min_date": "2022-05-16T00:01:00Z", "max_date": "2022-05-16T00:01:00Z", "count_points": 1, "latitude": 48.48279, "longitude": 22.68266, "city": "Mukacheve", "images": []}, {"id": 497723, "min_date": "2022-05-16T09:49:00Z", "max_date": "2022-05-16T09:49:00Z", "count_points": 2, "latitude": 48.05754, "longitude": 28.95575, "city": "Zagnitkiv", "images": []}, {"id": 497724, "min_date": "2022-05-16T09:49:00Z", "max_date": "2022-05-16T09:00:00Z", "count_points": 5, "latitude": 50.7849, "longitude": 34.1034, "city": "Nedryhayliv", "images": []}, {"id": 497725, "min_date": "2022-05-16T09:49:00Z", "max_date": "2022-05-16T10:41:00Z", "count_points": 4, "latitude": 48.41746, "longitude": 25.79401, "city": "Kitsman\u2019", "images": []}, {"id": 497726, "min_date": "2022-05-16T09:49:00Z", "max_date": "2022-05-19T11:25:00Z", "count_points": 6, "latitude": 50.88447, "longitude": 32.83787, "city": "Sribne", "images": []}, {"id": 497727, "min_date": "2022-05-16T11:30:00Z", "max_date": "2022-05-16T10:41:00Z", "count_points": 2, "latitude": 46.87392, "longitude": 32.16904, "city": "Shevchenkove", "images": []}, {"id": 497729, "min_date": "2022-05-16T11:30:00Z", "max_date": "2022-05-19T11:23:00Z", "count_points": 4, "latitude": 48.37155, "longitude": 26.16503, "city": "Klishkivtsi", "images": []}, {"id": 497730, "min_date": "2022-05-16T11:30:00Z", "max_date": "2022-05-16T11:30:00Z", "count_points": 1, "latitude": 48.36442, "longitude": 26.0938, "city": "Boyany", "images": []}, {"id": 497731, "min_date": "2022-05-16T11:30:00Z", "max_date": "2022-05-16T11:30:00Z", "count_points": 1, "latitude": 49.14513, "longitude": 24.66442, "city": "Halych", "images": []}, {"id": 497732, "min_date": "2022-05-16T11:30:00Z", "max_date": "2022-05-16T11:30:00Z", "count_points": 1, "latitude": 49.76983, "longitude": 31.06188, "city": "Myronivka", "images": []}, {"id": 497733, "min_date": "2022-05-16T11:30:00Z", "max_date": "2022-05-16T10:41:00Z", "count_points": 2, "latitude": 49.64395, "longitude": 24.1304, "city": "Staroye Selo", "images": []}, {"id": 497734, "min_date": "2022-05-16T11:30:00Z", "max_date": "2022-05-16T11:30:00Z", "count_points": 2, "latitude": 50.08013, "longitude": 28.06061, "city": "Chudniv", "images": []}, {"id": 497735, "min_date": "2022-05-16T11:30:00Z", "max_date": "2022-05-16T11:30:00Z", "count_points": 1, "latitude": 50.49545, "longitude": 31.40374, "city": "Korniyivka", "images": []}, {"id": 497736, "min_date": "2022-05-16T11:30:00Z", "max_date": "2022-05-16T11:30:00Z", "count_points": 1, "latitude": 50.76846, "longitude": 32.7423, "city": "Dihtyari", "images": []}, {"id": 497737, "min_date": "2022-05-16T11:30:00Z", "max_date": "2022-05-16T11:30:00Z", "count_points": 1, "latitude": 51.24069, "longitude": 24.16623, "city": "Liuboml", "images": []}, {"id": 497738, "min_date": "2022-05-16T23:44:00Z", "max_date": "2022-05-16T23:44:00Z", "count_points": 1, "latitude": 50.05383, "longitude": 30.46892, "city": "Obukhiv", "images": []}, {"id": 497739, "min_date": "2022-05-16T23:44:00Z", "max_date": "2022-05-16T23:44:00Z", "count_points": 1, "latitude": 49.42763, "longitude": 29.29684, "city": "Pohrebyshche", "images": []}, {"id": 497740, "min_date": "2022-05-16T23:44:00Z", "max_date": "2022-05-16T23:44:00Z", "count_points": 1, "latitude": 48.72845, "longitude": 29.508, "city": "Haisyn", "images": []}, {"id": 497741, "min_date": "2022-05-17T01:24:00Z", "max_date": "2022-05-17T01:24:00Z", "count_points": 2, "latitude": 50.37047, "longitude": 24.6398, "city": "Radekhiv", "images": []}, {"id": 497742, "min_date": "2022-05-17T09:30:00Z", "max_date": "2022-05-17T11:10:00Z", "count_points": 4, "latitude": 48.77684, "longitude": 33.72356, "city": "Lykhivka", "images": []}, {"id": 497743, "min_date": "2022-05-17T09:30:00Z", "max_date": "2022-05-17T09:30:00Z", "count_points": 1, "latitude": 50.03631, "longitude": 33.41465, "city": "Romodan", "images": []}, {"id": 497744, "min_date": "2022-05-17T09:32:00Z", "max_date": "2022-05-17T09:32:00Z", "count_points": 2, "latitude": 50.1527, "longitude": 32.61893, "city": "Pyryatyn", "images": []}, {"id": 497745, "min_date": "2022-05-17T09:32:00Z", "max_date": "2022-05-17T10:21:00Z", "count_points": 4, "latitude": 51.04278, "longitude": 28.28288, "city": "Luhyny", "images": []}, {"id": 497746, "min_date": "2022-05-17T11:10:00Z", "max_date": "2022-05-17T11:10:00Z", "count_points": 1, "latitude": 48.78996, "longitude": 27.75357, "city": "Kopayhorod", "images": []}, {"id": 497747, "min_date": "2022-05-17T11:13:00Z", "max_date": "2022-05-17T10:21:00Z", "count_points": 2, "latitude": 49.41333, "longitude": 25.56352, "city": "Mikulintsy", "images": []}, {"id": 497748, "min_date": "2022-05-17T11:13:00Z", "max_date": "2022-05-17T11:13:00Z", "count_points": 1, "latitude": 49.73986, "longitude": 27.18621, "city": "Starokostiantyniv", "images": []}, {"id": 497749, "min_date": "2022-05-17T11:13:00Z", "max_date": "2022-05-17T11:13:00Z", "count_points": 1, "latitude": 49.88958, "longitude": 27.94072, "city": "Liubar", "images": []}, {"id": 497750, "min_date": "2022-05-17T11:13:00Z", "max_date": "2022-05-17T11:13:00Z", "count_points": 2, "latitude": 50.95609, "longitude": 32.77345, "city": "Bakhmach", "images": []}, {"id": 497751, "min_date": "2022-05-17T11:13:00Z", "max_date": "2022-05-17T11:13:00Z", "count_points": 1, "latitude": 51.15038, "longitude": 31.13913, "city": "Olyshivka", "images": []}, {"id": 497752, "min_date": "2022-05-17T11:13:00Z", "max_date": "2022-05-17T11:13:00Z", "count_points": 1, "latitude": 51.3146, "longitude": 32.75029, "city": "Bakhmach", "images": []}, {"id": 497754, "min_date": "2022-05-17T11:13:00Z", "max_date": "2022-05-17T12:04:00Z", "count_points": 2, "latitude": 51.42803, "longitude": 26.0378, "city": "Volodymyrets\u2019", "images": []}, {"id": 497755, "min_date": "2022-05-17T23:24:00Z", "max_date": "2022-05-18T00:16:00Z", "count_points": 6, "latitude": 51.17423, "longitude": 31.89382, "city": "Nizhyn", "images": []}, {"id": 497756, "min_date": "2022-05-17T23:24:00Z", "max_date": "2022-05-18T00:16:00Z", "count_points": 4, "latitude": 50.81627, "longitude": 29.56527, "city": "Piskivka", "images": []}, {"id": 497757, "min_date": "2022-05-17T23:24:00Z", "max_date": "2022-05-18T00:16:00Z", "count_points": 2, "latitude": 50.40595, "longitude": 32.66452, "city": "Zhuravka", "images": []}, {"id": 497758, "min_date": "2022-05-17T23:24:00Z", "max_date": "2022-05-18T00:16:00Z", "count_points": 5, "latitude": 49.57786, "longitude": 27.92143, "city": "Khmilnyk", "images": []}, {"id": 497759, "min_date": "2022-05-17T23:24:00Z", "max_date": "2022-05-18T00:16:00Z", "count_points": 3, "latitude": 49.21943, "longitude": 24.93767, "city": "Bilshivtsi", "images": []}, {"id": 497760, "min_date": "2022-05-18T01:05:00Z", "max_date": "2022-05-18T01:05:00Z", "count_points": 2, "latitude": 50.38815, "longitude": 30.22646, "city": "Boyarka", "images": []}, {"id": 497761, "min_date": "2022-05-18T01:05:00Z", "max_date": "2022-05-18T01:05:00Z", "count_points": 2, "latitude": 48.98526, "longitude": 28.4749, "city": "Tyvriv", "images": []}, {"id": 497762, "min_date": "2022-05-18T01:05:00Z", "max_date": "2022-05-18T01:05:00Z", "count_points": 1, "latitude": 49.04897, "longitude": 27.60436, "city": "Bar", "images": []}, {"id": 497763, "min_date": "2022-05-18T01:05:00Z", "max_date": "2022-05-18T01:05:00Z", "count_points": 2, "latitude": 49.25648, "longitude": 26.63595, "city": "Horodok", "images": []}, {"id": 497764, "min_date": "2022-05-18T10:51:00Z", "max_date": "2022-05-18T10:51:00Z", "count_points": 1, "latitude": 48.35057, "longitude": 34.46848, "city": "Krynychky", "images": []}, {"id": 497765, "min_date": "2022-05-18T10:51:00Z", "max_date": "2022-05-18T10:51:00Z", "count_points": 1, "latitude": 49.81565, "longitude": 26.78328, "city": "Antoniny", "images": []}, {"id": 497690, "min_date": "2022-05-17T10:58:00Z", "max_date": "2022-05-17T11:13:00Z", "count_points": 3, "latitude": 50.25946, "longitude": 30.56419, "city": "Khotiv", "images": []}, {"id": 497768, "min_date": "2022-05-18T10:51:00Z", "max_date": "2022-05-18T10:51:00Z", "count_points": 1, "latitude": 50.0214, "longitude": 23.52205, "city": "Starychi", "images": []}, {"id": 497769, "min_date": "2022-05-18T10:51:00Z", "max_date": "2022-05-18T11:45:00Z", "count_points": 5, "latitude": 50.55998, "longitude": 24.48901, "city": "Ivanychi", "images": []}, {"id": 497770, "min_date": "2022-05-18T10:51:00Z", "max_date": "2022-05-18T10:51:00Z", "count_points": 1, "latitude": 51.36533, "longitude": 24.63377, "city": "Kovel", "images": []}, {"id": 497771, "min_date": "2022-05-18T10:51:00Z", "max_date": "2022-05-18T10:51:00Z", "count_points": 2, "latitude": 51.67844, "longitude": 24.84637, "city": "Rakiv Lis", "images": []}, {"id": 497772, "min_date": "2022-05-18T23:05:00Z", "max_date": "2022-05-18T23:56:00Z", "count_points": 3, "latitude": 50.22988, "longitude": 33.40119, "city": "Sencha", "images": []}, {"id": 497773, "min_date": "2022-05-19T10:34:00Z", "max_date": "2022-05-19T10:34:00Z", "count_points": 1, "latitude": 48.53175, "longitude": 28.16655, "city": "Chernivtsi", "images": []}, {"id": 497774, "min_date": "2022-05-19T10:34:00Z", "max_date": "2022-05-19T11:23:00Z", "count_points": 2, "latitude": 48.48204, "longitude": 25.40738, "city": "Zabolotiv", "images": []}, {"id": 497775, "min_date": "2022-05-19T10:34:00Z", "max_date": "2022-05-19T10:34:00Z", "count_points": 1, "latitude": 49.69486, "longitude": 30.72408, "city": "Karapyshi", "images": []}, {"id": 497776, "min_date": "2022-05-19T10:34:00Z", "max_date": "2022-05-19T10:34:00Z", "count_points": 1, "latitude": 49.09207, "longitude": 26.9439, "city": "Dunayivtsi", "images": []}, {"id": 497777, "min_date": "2022-05-19T10:34:00Z", "max_date": "2022-05-19T09:43:00Z", "count_points": 2, "latitude": 49.68567, "longitude": 28.39576, "city": "Pavlovka", "images": []}, {"id": 497778, "min_date": "2022-05-19T10:34:00Z", "max_date": "2022-05-19T10:34:00Z", "count_points": 1, "latitude": 50.69844, "longitude": 33.74978, "city": "Lypova Dolyna", "images": []}, {"id": 497779, "min_date": "2022-05-19T10:34:00Z", "max_date": "2022-05-20T00:28:00Z", "count_points": 2, "latitude": 49.63578, "longitude": 27.47726, "city": "Stara Syniava", "images": []}, {"id": 497780, "min_date": "2022-05-19T10:34:00Z", "max_date": "2022-05-20T11:06:00Z", "count_points": 3, "latitude": 50.60429, "longitude": 31.94167, "city": "Zgurovka", "images": []}, {"id": 497781, "min_date": "2022-05-19T10:34:00Z", "max_date": "2022-05-19T10:34:00Z", "count_points": 1, "latitude": 49.89404, "longitude": 27.81993, "city": "Liubar", "images": []}, {"id": 497782, "min_date": "2022-05-19T10:34:00Z", "max_date": "2022-05-19T10:34:00Z", "count_points": 1, "latitude": 51.51614, "longitude": 31.9007, "city": "Berezna", "images": []}, {"id": 497784, "min_date": "2022-05-19T12:14:00Z", "max_date": "2022-05-19T11:23:00Z", "count_points": 2, "latitude": 48.29175, "longitude": 22.57939, "city": "Berehove", "images": []}, {"id": 497785, "min_date": "2022-05-19T12:14:00Z", "max_date": "2022-05-19T11:23:00Z", "count_points": 2, "latitude": 49.43071, "longitude": 28.12648, "city": "Lityn", "images": []}, {"id": 497786, "min_date": "2022-05-19T22:46:00Z", "max_date": "2022-05-19T23:37:00Z", "count_points": 3, "latitude": 50.54016, "longitude": 31.13271, "city": "Kirove", "images": []}, {"id": 497787, "min_date": "2022-05-20T00:26:00Z", "max_date": "2022-05-19T23:37:00Z", "count_points": 9, "latitude": 51.66793, "longitude": 26.0902, "city": "Zarichne", "images": []}, {"id": 497788, "min_date": "2022-05-20T00:26:00Z", "max_date": "2022-05-20T00:26:00Z", "count_points": 2, "latitude": 51.56605, "longitude": 26.50511, "city": "Dubrovytsya", "images": []}, {"id": 497789, "min_date": "2022-05-20T00:28:00Z", "max_date": "2022-05-19T23:37:00Z", "count_points": 3, "latitude": 49.97423, "longitude": 29.40458, "city": "Popil'nya", "images": []}, {"id": 497790, "min_date": "2022-05-20T00:28:00Z", "max_date": "2022-05-19T23:37:00Z", "count_points": 2, "latitude": 49.06918, "longitude": 31.72356, "city": "Kapitanivka", "images": []}, {"id": 497791, "min_date": "2022-05-20T00:28:00Z", "max_date": "2022-05-19T11:23:00Z", "count_points": 3, "latitude": 48.43726, "longitude": 25.53621, "city": "Sniatyn", "images": []}, {"id": 497792, "min_date": "2022-05-20T00:28:00Z", "max_date": "2022-05-20T00:28:00Z", "count_points": 1, "latitude": 48.37082, "longitude": 23.13493, "city": "Bilky", "images": []}, {"id": 497793, "min_date": "2022-05-20T10:13:00Z", "max_date": "2022-05-20T10:13:00Z", "count_points": 1, "latitude": 49.68934, "longitude": 29.11237, "city": "Ruzhyn", "images": []}, {"id": 497794, "min_date": "2022-05-20T10:13:00Z", "max_date": "2022-05-20T09:26:00Z", "count_points": 5, "latitude": 49.64398, "longitude": 28.68966, "city": "Kozyatyn", "images": []}, {"id": 497795, "min_date": "2022-05-20T10:13:00Z", "max_date": "2022-05-20T10:13:00Z", "count_points": 1, "latitude": 48.25579, "longitude": 22.7882, "city": "Velyki Berehy", "images": []}, {"id": 497796, "min_date": "2022-05-20T10:13:00Z", "max_date": "2022-05-20T10:13:00Z", "count_points": 1, "latitude": 49.91733, "longitude": 28.57697, "city": "Berdychiv", "images": []}, {"id": 497797, "min_date": "2022-05-20T10:13:00Z", "max_date": "2022-05-20T10:13:00Z", "count_points": 1, "latitude": 51.04144, "longitude": 33.53323, "city": "Sloboda", "images": []}, {"id": 497798, "min_date": "2022-05-20T10:13:00Z", "max_date": "2022-05-20T11:06:00Z", "count_points": 5, "latitude": 50.3216, "longitude": 28.44993, "city": "Denyshi", "images": []}, {"id": 497799, "min_date": "2022-05-20T10:13:00Z", "max_date": "2022-05-21T23:50:00Z", "count_points": 4, "latitude": 49.44852, "longitude": 24.11572, "city": "Rozdil", "images": []}, {"id": 497800, "min_date": "2022-05-20T10:13:00Z", "max_date": "2022-05-20T10:13:00Z", "count_points": 1, "latitude": 50.30612, "longitude": 26.99628, "city": "Slavuta", "images": []}, {"id": 497801, "min_date": "2022-05-20T10:15:00Z", "max_date": "2022-05-20T10:15:00Z", "count_points": 1, "latitude": 51.0897, "longitude": 28.10653, "city": "Novi Bilokorovychi", "images": []}, {"id": 497802, "min_date": "2022-05-20T11:55:00Z", "max_date": "2022-05-20T11:55:00Z", "count_points": 1, "latitude": 48.85813, "longitude": 28.36493, "city": "Sutysky", "images": []}, {"id": 497803, "min_date": "2022-05-21T00:07:00Z", "max_date": "2022-05-21T00:07:00Z", "count_points": 1, "latitude": 50.35234, "longitude": 24.8676, "city": "Kulykiv", "images": []}, {"id": 497804, "min_date": "2022-05-21T00:07:00Z", "max_date": "2022-05-21T01:00:00Z", "count_points": 3, "latitude": 49.88495, "longitude": 28.36276, "city": "Berdychiv", "images": []}, {"id": 497805, "min_date": "2022-05-21T00:07:00Z", "max_date": "2022-05-21T00:07:00Z", "count_points": 3, "latitude": 49.60773, "longitude": 29.4525, "city": "Topory", "images": []}, {"id": 497806, "min_date": "2022-05-21T00:07:00Z", "max_date": "2022-05-21T00:07:00Z", "count_points": 1, "latitude": 49.68748, "longitude": 27.55535, "city": "Stara Syniava", "images": []}, {"id": 497807, "min_date": "2022-05-21T00:07:00Z", "max_date": "2022-05-21T01:00:00Z", "count_points": 6, "latitude": 49.39996, "longitude": 27.70532, "city": "Letychiv", "images": []}, {"id": 497808, "min_date": "2022-05-21T00:07:00Z", "max_date": "2022-05-21T00:07:00Z", "count_points": 1, "latitude": 49.1873, "longitude": 27.91127, "city": "Lityn", "images": []}, {"id": 497809, "min_date": "2022-05-21T00:07:00Z", "max_date": "2022-05-21T00:07:00Z", "count_points": 1, "latitude": 48.73373, "longitude": 27.38135, "city": "Murovani Kurylivtsi", "images": []}, {"id": 497810, "min_date": "2022-05-21T00:07:00Z", "max_date": "2022-05-21T00:07:00Z", "count_points": 2, "latitude": 49.06202, "longitude": 24.07891, "city": "Dolyna", "images": []}, {"id": 497811, "min_date": "2022-05-21T00:09:00Z", "max_date": "2022-05-21T00:09:00Z", "count_points": 1, "latitude": 48.31524, "longitude": 24.41605, "city": "Lazeshchyna", "images": []}, {"id": 497812, "min_date": "2022-05-21T09:54:00Z", "max_date": "2022-05-21T10:45:00Z", "count_points": 7, "latitude": 45.43311, "longitude": 29.58441, "city": "Vylkove", "images": []}, {"id": 497813, "min_date": "2022-05-21T09:54:00Z", "max_date": "2022-05-21T09:54:00Z", "count_points": 2, "latitude": 45.47582, "longitude": 28.31011, "city": "Reni", "images": []}, {"id": 497815, "min_date": "2022-05-21T23:50:00Z", "max_date": "2022-05-21T23:50:00Z", "count_points": 1, "latitude": 49.44429, "longitude": 31.49651, "city": "Mleyev", "images": []}, {"id": 497816, "min_date": "2022-05-22T11:17:00Z", "max_date": "2022-05-22T10:28:00Z", "count_points": 15, "latitude": 46.66461, "longitude": 33.0505, "city": "Kozachi Laheri", "images": []}, {"id": 497817, "min_date": "2022-05-22T11:17:00Z", "max_date": "2022-05-22T11:17:00Z", "count_points": 5, "latitude": 47.48842, "longitude": 34.72527, "city": "Energodar", "images": []}, {"id": 497818, "min_date": "2022-05-22T11:19:00Z", "max_date": "2022-05-22T11:19:00Z", "count_points": 1, "latitude": 48.82186, "longitude": 27.37625, "city": "Nova Ushytsya", "images": []}, {"id": 497819, "min_date": "2022-05-16T00:54:00Z", "max_date": "2022-05-16T00:54:00Z", "count_points": 1, "latitude": 46.85971, "longitude": 32.2165, "city": "Shevchenkove", "images": []}, {"id": 497820, "min_date": "2022-05-16T10:41:00Z", "max_date": "2022-05-16T10:41:00Z", "count_points": 1, "latitude": 47.03429, "longitude": 32.67833, "city": "Snihurivka", "images": []}, {"id": 497821, "min_date": "2022-05-16T10:41:00Z", "max_date": "2022-05-16T10:41:00Z", "count_points": 1, "latitude": 47.36749, "longitude": 34.04095, "city": "Novovorontsovka", "images": []}, {"id": 497822, "min_date": "2022-05-16T10:41:00Z", "max_date": "2022-05-16T10:41:00Z", "count_points": 1, "latitude": 47.02184, "longitude": 30.47866, "city": "Ivanivka", "images": []}, {"id": 497823, "min_date": "2022-05-16T10:41:00Z", "max_date": "2022-05-16T10:41:00Z", "count_points": 1, "latitude": 50.1618, "longitude": 33.75514, "city": "Komyshnya", "images": []}, {"id": 497824, "min_date": "2022-05-16T10:41:00Z", "max_date": "2022-05-16T10:41:00Z", "count_points": 1, "latitude": 51.28456, "longitude": 32.56274, "city": "Borzna", "images": []}, {"id": 497825, "min_date": "2022-05-16T10:41:00Z", "max_date": "2022-05-16T10:41:00Z", "count_points": 1, "latitude": 50.13573, "longitude": 24.8935, "city": "Lopatyn", "images": []}, {"id": 497826, "min_date": "2022-05-17T00:35:00Z", "max_date": "2022-05-17T00:35:00Z", "count_points": 1, "latitude": 48.52219, "longitude": 27.72804, "city": "Serebriya", "images": []}, {"id": 497827, "min_date": "2022-05-17T00:35:00Z", "max_date": "2022-05-17T00:35:00Z", "count_points": 1, "latitude": 48.30109, "longitude": 25.55784, "city": "Vashkivtsi", "images": []}, {"id": 497828, "min_date": "2022-05-17T00:37:00Z", "max_date": "2022-05-17T00:37:00Z", "count_points": 1, "latitude": 48.14709, "longitude": 23.86427, "city": "Kalyny", "images": []}, {"id": 497829, "min_date": "2022-05-17T10:19:00Z", "max_date": "2022-05-17T10:19:00Z", "count_points": 1, "latitude": 47.48646, "longitude": 34.49091, "city": "Vodyane", "images": []}, {"id": 497830, "min_date": "2022-05-17T10:21:00Z", "max_date": "2022-05-17T10:21:00Z", "count_points": 1, "latitude": 48.30395, "longitude": 29.62347, "city": "Bershad", "images": []}, {"id": 497831, "min_date": "2022-05-17T10:21:00Z", "max_date": "2022-05-17T10:21:00Z", "count_points": 1, "latitude": 50.02309, "longitude": 31.1887, "city": "Rzhyshchiv", "images": []}, {"id": 497832, "min_date": "2022-05-17T10:21:00Z", "max_date": "2022-05-17T10:21:00Z", "count_points": 2, "latitude": 49.78234, "longitude": 28.27383, "city": "Ulaniv", "images": []}, {"id": 497833, "min_date": "2022-05-17T10:21:00Z", "max_date": "2022-05-17T10:21:00Z", "count_points": 1, "latitude": 50.643, "longitude": 31.00538, "city": "Semypolky", "images": []}, {"id": 497834, "min_date": "2022-05-17T10:21:00Z", "max_date": "2022-05-17T10:21:00Z", "count_points": 1, "latitude": 51.00035, "longitude": 31.87664, "city": "Nizhyn", "images": []}, {"id": 497835, "min_date": "2022-05-17T10:21:00Z", "max_date": "2022-05-17T10:21:00Z", "count_points": 1, "latitude": 51.11266, "longitude": 30.14534, "city": "Kryva Hora", "images": []}, {"id": 497836, "min_date": "2022-05-17T10:21:00Z", "max_date": "2022-05-17T10:21:00Z", "count_points": 1, "latitude": 50.80095, "longitude": 27.95376, "city": "Yemil\u2019chyne", "images": []}, {"id": 497837, "min_date": "2022-05-17T10:21:00Z", "max_date": "2022-05-17T10:21:00Z", "count_points": 3, "latitude": 51.48675, "longitude": 26.0089, "city": "Volodymyrets\u2019", "images": []}, {"id": 497838, "min_date": "2022-05-17T12:02:00Z", "max_date": "2022-05-17T12:02:00Z", "count_points": 1, "latitude": 48.11629, "longitude": 25.83624, "city": "Ropcha", "images": []}, {"id": 497839, "min_date": "2022-05-17T12:02:00Z", "max_date": "2022-05-17T12:02:00Z", "count_points": 1, "latitude": 49.58181, "longitude": 27.53867, "city": "Stara Syniava", "images": []}, {"id": 497841, "min_date": "2022-05-17T12:02:00Z", "max_date": "2022-05-17T12:02:00Z", "count_points": 1, "latitude": 50.50933, "longitude": 28.22246, "city": "Pulyny", "images": []}, {"id": 497842, "min_date": "2022-05-18T00:16:00Z", "max_date": "2022-05-18T00:16:00Z", "count_points": 1, "latitude": 50.98161, "longitude": 30.15799, "city": "Katyuzhanka", "images": []}, {"id": 497767, "min_date": "2022-05-18T10:51:00Z", "max_date": "2022-05-18T11:45:00Z", "count_points": 2, "latitude": 50.41412, "longitude": 25.74417, "city": "Dubno", "images": []}, {"id": 497845, "min_date": "2022-05-18T10:04:00Z", "max_date": "2022-05-18T10:04:00Z", "count_points": 1, "latitude": 49.40033, "longitude": 24.97526, "city": "\u0411\u0435\u0440\u0435\u0436\u0430\u043d\u0438", "images": []}, {"id": 497846, "min_date": "2022-05-18T11:45:00Z", "max_date": "2022-05-18T11:45:00Z", "count_points": 1, "latitude": 47.75067, "longitude": 32.35429, "city": "Novyy Buh", "images": []}, {"id": 497847, "min_date": "2022-05-18T23:56:00Z", "max_date": "2022-05-18T23:56:00Z", "count_points": 1, "latitude": 51.25937, "longitude": 27.93866, "city": "Novi Bilokorovychi", "images": []}, {"id": 497848, "min_date": "2022-05-19T09:43:00Z", "max_date": "2022-05-19T09:43:00Z", "count_points": 1, "latitude": 48.6956, "longitude": 32.18865, "city": "Kropyvnytskyi", "images": []}, {"id": 497849, "min_date": "2022-05-19T09:43:00Z", "max_date": "2022-05-19T09:43:00Z", "count_points": 3, "latitude": 50.45604, "longitude": 32.24202, "city": "Pryluky", "images": []}, {"id": 497850, "min_date": "2022-05-19T09:43:00Z", "max_date": "2022-05-19T09:43:00Z", "count_points": 1, "latitude": 51.20129, "longitude": 32.70071, "city": "Bakhmach", "images": []}, {"id": 497851, "min_date": "2022-05-19T09:43:00Z", "max_date": "2022-05-19T09:43:00Z", "count_points": 1, "latitude": 51.26221, "longitude": 30.81401, "city": "Slavutych", "images": []}, {"id": 497852, "min_date": "2022-05-19T11:23:00Z", "max_date": "2022-05-19T11:23:00Z", "count_points": 1, "latitude": 48.63112, "longitude": 26.94205, "city": "Kel\u2019mentsi", "images": []}, {"id": 497853, "min_date": "2022-05-19T11:23:00Z", "max_date": "2022-05-19T11:23:00Z", "count_points": 1, "latitude": 49.81805, "longitude": 33.57226, "city": "Velyka Bahachka", "images": []}, {"id": 497854, "min_date": "2022-05-19T11:23:00Z", "max_date": "2022-05-19T11:23:00Z", "count_points": 1, "latitude": 49.83274, "longitude": 33.5354, "city": "Myrhorod", "images": []}, {"id": 497855, "min_date": "2022-05-19T11:23:00Z", "max_date": "2022-05-19T11:23:00Z", "count_points": 1, "latitude": 49.17583, "longitude": 24.69634, "city": "Bilshivtsi", "images": []}, {"id": 497856, "min_date": "2022-05-19T11:23:00Z", "max_date": "2022-05-19T11:23:00Z", "count_points": 1, "latitude": 49.14389, "longitude": 23.92901, "city": "Morshyn", "images": []}, {"id": 497857, "min_date": "2022-05-19T11:25:00Z", "max_date": "2022-05-19T11:25:00Z", "count_points": 2, "latitude": 50.93637, "longitude": 32.53799, "city": "Ichnya", "images": []}, {"id": 497858, "min_date": "2022-05-19T11:25:00Z", "max_date": "2022-05-19T11:25:00Z", "count_points": 1, "latitude": 50.88025, "longitude": 24.80756, "city": "Lokachi", "images": []}, {"id": 497859, "min_date": "2022-05-19T11:25:00Z", "max_date": "2022-05-19T11:25:00Z", "count_points": 1, "latitude": 51.59824, "longitude": 24.53514, "city": "Ratne", "images": []}, {"id": 497860, "min_date": "2022-05-19T23:37:00Z", "max_date": "2022-05-19T23:37:00Z", "count_points": 1, "latitude": 50.04942, "longitude": 34.00965, "city": "Velyki Sorochyntsi", "images": []}, {"id": 497861, "min_date": "2022-05-19T23:37:00Z", "max_date": "2022-05-19T23:37:00Z", "count_points": 1, "latitude": 48.84354, "longitude": 29.42576, "city": "Haisyn", "images": []}, {"id": 497862, "min_date": "2022-05-20T09:26:00Z", "max_date": "2022-05-20T09:26:00Z", "count_points": 2, "latitude": 50.40024, "longitude": 30.11571, "city": "Vorzel\u2019", "images": []}, {"id": 497863, "min_date": "2022-05-20T11:04:00Z", "max_date": "2022-05-20T11:04:00Z", "count_points": 2, "latitude": 45.41752, "longitude": 28.93192, "city": "Izmayil", "images": []}, {"id": 497864, "min_date": "2022-05-20T11:04:00Z", "max_date": "2022-05-20T11:04:00Z", "count_points": 1, "latitude": 46.34085, "longitude": 29.77436, "city": "Kamyshevka Vtoraya", "images": []}, {"id": 497865, "min_date": "2022-05-20T11:06:00Z", "max_date": "2022-05-20T11:06:00Z", "count_points": 1, "latitude": 48.19234, "longitude": 26.2394, "city": "Novoselytsya", "images": []}, {"id": 497866, "min_date": "2022-05-20T11:06:00Z", "max_date": "2022-05-20T11:06:00Z", "count_points": 1, "latitude": 48.59285, "longitude": 28.17201, "city": "Chernivtsi", "images": []}, {"id": 497867, "min_date": "2022-05-20T11:06:00Z", "max_date": "2022-05-20T11:06:00Z", "count_points": 1, "latitude": 49.05084, "longitude": 26.86886, "city": "Dunayivtsi", "images": []}, {"id": 497868, "min_date": "2022-05-20T11:06:00Z", "max_date": "2022-05-20T11:06:00Z", "count_points": 2, "latitude": 48.73914, "longitude": 24.2042, "city": "Porohy", "images": []}, {"id": 497869, "min_date": "2022-05-20T11:06:00Z", "max_date": "2022-05-20T11:06:00Z", "count_points": 1, "latitude": 49.57263, "longitude": 29.14355, "city": "Pohrebyshche", "images": []}, {"id": 497870, "min_date": "2022-05-20T11:06:00Z", "max_date": "2022-05-20T11:06:00Z", "count_points": 1, "latitude": 49.53112, "longitude": 26.83138, "city": "Krasyliv", "images": []}, {"id": 497871, "min_date": "2022-05-20T11:06:00Z", "max_date": "2022-05-20T11:06:00Z", "count_points": 1, "latitude": 50.28199, "longitude": 33.52015, "city": "Sencha", "images": []}, {"id": 497872, "min_date": "2022-05-20T11:06:00Z", "max_date": "2022-05-20T11:06:00Z", "count_points": 2, "latitude": 50.24397, "longitude": 30.41006, "city": "Hlevakha", "images": []}, {"id": 497873, "min_date": "2022-05-20T11:06:00Z", "max_date": "2022-05-20T11:06:00Z", "count_points": 1, "latitude": 49.62331, "longitude": 23.14858, "city": "Voyutychi", "images": []}, {"id": 497874, "min_date": "2022-05-20T11:06:00Z", "max_date": "2022-05-20T11:06:00Z", "count_points": 1, "latitude": 50.85248, "longitude": 31.85378, "city": "Talalayivka", "images": []}, {"id": 497875, "min_date": "2022-05-20T11:06:00Z", "max_date": "2022-05-20T11:06:00Z", "count_points": 2, "latitude": 51.93048, "longitude": 34.07309, "city": "Chervone", "images": []}, {"id": 497876, "min_date": "2022-05-20T23:20:00Z", "max_date": "2022-05-20T23:20:00Z", "count_points": 1, "latitude": 45.86773, "longitude": 29.12474, "city": "Dmytrivka", "images": []}, {"id": 497877, "min_date": "2022-05-21T01:00:00Z", "max_date": "2022-05-21T01:00:00Z", "count_points": 1, "latitude": 49.53761, "longitude": 30.88294, "city": "Bohuslav", "images": []}, {"id": 497878, "min_date": "2022-05-21T01:00:00Z", "max_date": "2022-05-21T01:00:00Z", "count_points": 2, "latitude": 47.32016, "longitude": 33.06256, "city": "Bereznehuvate", "images": []}, {"id": 497879, "min_date": "2022-05-21T10:45:00Z", "max_date": "2022-05-21T10:45:00Z", "count_points": 1, "latitude": 46.57445, "longitude": 30.62545, "city": "Usatove", "images": []}, {"id": 497880, "min_date": "2022-05-21T10:45:00Z", "max_date": "2022-05-21T10:45:00Z", "count_points": 1, "latitude": 46.80787, "longitude": 32.20807, "city": "Shevchenkove", "images": []}, {"id": 497881, "min_date": "2022-05-21T12:27:00Z", "max_date": "2022-05-22T00:39:00Z", "count_points": 9, "latitude": 49.77772, "longitude": 24.35586, "city": "Verkhnyaya Belka", "images": []}, {"id": 497882, "min_date": "2022-05-22T00:41:00Z", "max_date": "2022-05-22T00:41:00Z", "count_points": 1, "latitude": 47.94479, "longitude": 29.59157, "city": "Balta", "images": []}, {"id": 497883, "min_date": "2022-05-22T00:41:00Z", "max_date": "2022-05-22T00:41:00Z", "count_points": 1, "latitude": 49.13854, "longitude": 22.94227, "city": "Turka", "images": []}, {"id": 497884, "min_date": "2022-05-22T00:41:00Z", "max_date": "2022-05-22T00:41:00Z", "count_points": 1, "latitude": 48.76124, "longitude": 24.88855, "city": "Otyniya", "images": []}, {"id": 497885, "min_date": "2022-05-22T00:41:00Z", "max_date": "2022-05-22T00:41:00Z", "count_points": 1, "latitude": 48.51639, "longitude": 23.50398, "city": "Mizhhiria", "images": []}, {"id": 497672, "min_date": "2022-05-16T19:36:00Z", "max_date": "2022-05-19T10:34:00Z", "count_points": 3, "latitude": 49.73226, "longitude": 31.17818, "city": "Myronivka", "images": []}, {"id": 497689, "min_date": "2022-05-17T10:58:00Z", "max_date": "2022-05-18T00:16:00Z", "count_points": 6, "latitude": 49.26988, "longitude": 27.44557, "city": "Derazhnya", "images": []}, {"id": 497699, "min_date": "2022-05-17T10:58:00Z", "max_date": "2022-05-17T10:21:00Z", "count_points": 7, "latitude": 50.89126, "longitude": 24.34794, "city": "Volodymyr-Volynskyi", "images": []}, {"id": 497728, "min_date": "2022-05-16T11:30:00Z", "max_date": "2022-05-16T11:30:00Z", "count_points": 2, "latitude": 47.62618, "longitude": 33.43095, "city": "Vysokopillya", "images": []}, {"id": 497753, "min_date": "2022-05-17T11:13:00Z", "max_date": "2022-05-17T10:21:00Z", "count_points": 2, "latitude": 50.94494, "longitude": 27.00236, "city": "Koloniya Zastav\u2019ye", "images": []}, {"id": 497766, "min_date": "2022-05-18T10:51:00Z", "max_date": "2022-05-18T10:51:00Z", "count_points": 2, "latitude": 49.37193, "longitude": 24.10285, "city": "Zhydachiv", "images": []}, {"id": 497783, "min_date": "2022-05-19T10:34:00Z", "max_date": "2022-05-19T10:34:00Z", "count_points": 1, "latitude": 50.19516, "longitude": 24.35058, "city": "Staryy Dobrotvir", "images": []}, {"id": 497814, "min_date": "2022-05-21T11:36:00Z", "max_date": "2022-05-21T11:36:00Z", "count_points": 1, "latitude": 49.72794, "longitude": 24.47645, "city": "Peremyshlyany", "images": []}, {"id": 497840, "min_date": "2022-05-17T12:02:00Z", "max_date": "2022-05-17T12:02:00Z", "count_points": 1, "latitude": 50.47831, "longitude": 27.70906, "city": "Novohrad-Volynskyi", "images": []}, {"id": 497843, "min_date": "2022-05-18T00:16:00Z", "max_date": "2022-05-18T00:16:00Z", "count_points": 1, "latitude": 50.81378, "longitude": 29.19435, "city": "Malyn", "images": []}, {"id": 497844, "min_date": "2022-05-18T00:16:00Z", "max_date": "2022-05-18T00:16:00Z", "count_points": 1, "latitude": 50.65618, "longitude": 26.6935, "city": "Hoshcha", "images": []}, {"id": 499623, "min_date": "2022-05-16T00:52:00Z", "max_date": "2022-05-19T22:46:00Z", "count_points": 20, "latitude": 50.12621, "longitude": 36.41926, "city": "Kulynychi", "images": []}, {"id": 499624, "min_date": "2022-05-16T00:54:00Z", "max_date": "2022-05-21T23:50:00Z", "count_points": 8, "latitude": 47.56213, "longitude": 35.78825, "city": "Orikhiv", "images": [{"image_url": "499624.jpg", "timestamp": "2022-05-21T23:50:00Z"}]}, {"id": 499625, "min_date": "2022-05-16T09:00:00Z", "max_date": "2022-05-16T10:13:00Z", "count_points": 5, "latitude": 49.99573, "longitude": 38.21165, "city": "Troyits\u2019ke", "images": []}, {"id": 499626, "min_date": "2022-05-16T09:00:00Z", "max_date": "2022-05-19T22:46:00Z", "count_points": 4, "latitude": 48.19187, "longitude": 37.71811, "city": "Avdiyivka", "images": []}, {"id": 499627, "min_date": "2022-05-16T09:00:00Z", "max_date": "2022-05-16T09:49:00Z", "count_points": 2, "latitude": 48.68349, "longitude": 38.47319, "city": "Hirs\u2019ke", "images": []}, {"id": 499628, "min_date": "2022-05-16T09:00:00Z", "max_date": "2022-05-16T09:00:00Z", "count_points": 1, "latitude": 49.13234, "longitude": 37.64778, "city": "Svyatogorsk", "images": []}, {"id": 499629, "min_date": "2022-05-16T09:00:00Z", "max_date": "2022-05-20T10:13:00Z", "count_points": 27, "latitude": 49.26672, "longitude": 37.02145, "city": "Izyum", "images": []}, {"id": 499630, "min_date": "2022-05-16T10:41:00Z", "max_date": "2022-05-17T10:21:00Z", "count_points": 4, "latitude": 49.26964, "longitude": 37.16818, "city": "Izyum", "images": []}, {"id": 499631, "min_date": "2022-05-16T10:41:00Z", "max_date": "2022-05-16T10:41:00Z", "count_points": 1, "latitude": 48.6386, "longitude": 38.31946, "city": "Popasna", "images": []}, {"id": 499632, "min_date": "2022-05-16T10:41:00Z", "max_date": "2022-05-21T23:50:00Z", "count_points": 5, "latitude": 48.70113, "longitude": 38.38336, "city": "Popasna", "images": []}, {"id": 499633, "min_date": "2022-05-16T10:41:00Z", "max_date": "2022-05-16T23:44:00Z", "count_points": 6, "latitude": 48.78859, "longitude": 38.5376, "city": "Toshkivka", "images": []}, {"id": 499634, "min_date": "2022-05-16T10:41:00Z", "max_date": "2022-05-22T09:34:00Z", "count_points": 20, "latitude": 49.07947, "longitude": 37.50653, "city": "Studenok", "images": [{"image_url": "499634.jpg", "timestamp": "2022-05-22T09:34:00Z"}]}, {"id": 499635, "min_date": "2022-05-16T10:41:00Z", "max_date": "2022-05-20T10:13:00Z", "count_points": 17, "latitude": 49.16173, "longitude": 37.52211, "city": "Studenok", "images": [{"image_url": "499635.jpg", "timestamp": "2022-05-20T10:13:00Z"}]}, {"id": 499636, "min_date": "2022-05-16T10:41:00Z", "max_date": "2022-05-20T10:13:00Z", "count_points": 27, "latitude": 49.20131, "longitude": 37.20604, "city": "Izyum", "images": [{"image_url": "499636.jpg", "timestamp": "2022-05-20T10:13:00Z"}]}, {"id": 499637, "min_date": "2022-05-16T10:41:00Z", "max_date": "2022-05-20T10:13:00Z", "count_points": 28, "latitude": 49.22345, "longitude": 36.99106, "city": "Petrivs\u2019ke", "images": []}, {"id": 499638, "min_date": "2022-05-16T10:41:00Z", "max_date": "2022-05-21T23:50:00Z", "count_points": 17, "latitude": 49.30849, "longitude": 37.08042, "city": "Savyntsi", "images": [{"image_url": "499638.jpg", "timestamp": "2022-05-21T23:50:00Z"}]}, {"id": 499639, "min_date": "2022-05-16T22:54:00Z", "max_date": "2022-05-16T22:54:00Z", "count_points": 2, "latitude": 48.89929, "longitude": 38.33308, "city": "Bilohorivka", "images": []}, {"id": 499640, "min_date": "2022-05-16T22:54:00Z", "max_date": "2022-05-19T10:34:00Z", "count_points": 11, "latitude": 50.41248, "longitude": 36.03888, "city": "Zolochiv", "images": []}, {"id": 499641, "min_date": "2022-05-16T22:54:00Z", "max_date": "2022-05-19T10:34:00Z", "count_points": 11, "latitude": 50.16021, "longitude": 36.80069, "city": "Staryy Saltiv", "images": []}, {"id": 499642, "min_date": "2022-05-16T22:54:00Z", "max_date": "2022-05-16T23:44:00Z", "count_points": 14, "latitude": 50.11984, "longitude": 36.841, "city": "Staryy Saltiv", "images": []}, {"id": 499643, "min_date": "2022-05-16T22:54:00Z", "max_date": "2022-05-16T23:44:00Z", "count_points": 2, "latitude": 50.12942, "longitude": 36.46551, "city": "Kulynychi", "images": []}, {"id": 499644, "min_date": "2022-05-16T22:54:00Z", "max_date": "2022-05-16T23:44:00Z", "count_points": 3, "latitude": 49.87649, "longitude": 36.95993, "city": "Pechenihy", "images": []}, {"id": 499645, "min_date": "2022-05-16T22:54:00Z", "max_date": "2022-05-16T22:54:00Z", "count_points": 1, "latitude": 48.95734, "longitude": 38.38876, "city": "Rubizhne", "images": []}, {"id": 499646, "min_date": "2022-05-16T22:54:00Z", "max_date": "2022-05-16T23:44:00Z", "count_points": 5, "latitude": 48.73595, "longitude": 38.48955, "city": "Hirs\u2019ke", "images": []}, {"id": 499647, "min_date": "2022-05-16T22:54:00Z", "max_date": "2022-05-16T22:54:00Z", "count_points": 1, "latitude": 48.62365, "longitude": 38.28647, "city": "Popasna", "images": []}, {"id": 499648, "min_date": "2022-05-17T00:35:00Z", "max_date": "2022-05-17T00:35:00Z", "count_points": 2, "latitude": 49.106, "longitude": 36.47622, "city": "Krasnopavlivka", "images": []}, {"id": 499649, "min_date": "2022-05-17T10:19:00Z", "max_date": "2022-05-17T11:10:00Z", "count_points": 3, "latitude": 47.65455, "longitude": 36.51901, "city": "Chapayevka", "images": []}, {"id": 499650, "min_date": "2022-05-17T10:19:00Z", "max_date": "2022-05-17T11:10:00Z", "count_points": 3, "latitude": 47.4919, "longitude": 35.30842, "city": "Vasylivka", "images": []}, {"id": 499651, "min_date": "2022-05-17T10:21:00Z", "max_date": "2022-05-17T11:10:00Z", "count_points": 6, "latitude": 49.59498, "longitude": 37.65553, "city": "Kivsharivka", "images": []}, {"id": 499652, "min_date": "2022-05-17T10:21:00Z", "max_date": "2022-05-17T10:21:00Z", "count_points": 1, "latitude": 50.19033, "longitude": 36.66516, "city": "Staryy Saltiv", "images": []}, {"id": 499654, "min_date": "2022-05-17T10:21:00Z", "max_date": "2022-05-17T10:21:00Z", "count_points": 4, "latitude": 50.11674, "longitude": 37.60604, "city": "Velykyy Burluk", "images": [{"image_url": "499654.jpg", "timestamp": "2022-05-17T10:21:00Z"}]}, {"id": 499655, "min_date": "2022-05-17T10:21:00Z", "max_date": "2022-05-20T10:13:00Z", "count_points": 22, "latitude": 49.84635, "longitude": 36.97268, "city": "Pechenihy", "images": []}, {"id": 499656, "min_date": "2022-05-17T10:21:00Z", "max_date": "2022-05-17T23:24:00Z", "count_points": 5, "latitude": 49.76014, "longitude": 37.52744, "city": "Kupjansk", "images": [{"image_url": "499656.jpg", "timestamp": "2022-05-17T23:24:00Z"}]}, {"id": 499657, "min_date": "2022-05-17T10:21:00Z", "max_date": "2022-05-20T10:13:00Z", "count_points": 7, "latitude": 49.1577, "longitude": 37.34903, "city": "Izyum", "images": []}, {"id": 499658, "min_date": "2022-05-17T10:21:00Z", "max_date": "2022-05-17T23:24:00Z", "count_points": 4, "latitude": 49.02561, "longitude": 37.51555, "city": "Svyatogorsk", "images": []}, {"id": 499659, "min_date": "2022-05-17T10:21:00Z", "max_date": "2022-05-17T10:21:00Z", "count_points": 1, "latitude": 49.18069, "longitude": 38.73212, "city": "Starobil\u2019s\u2019k", "images": []}, {"id": 499661, "min_date": "2022-05-17T22:33:00Z", "max_date": "2022-05-17T23:24:00Z", "count_points": 6, "latitude": 48.15057, "longitude": 37.73903, "city": "Avdiyivka", "images": []}, {"id": 499662, "min_date": "2022-05-18T23:56:00Z", "max_date": "2022-05-20T10:13:00Z", "count_points": 7, "latitude": 49.15964, "longitude": 36.94312, "city": "Petrivs\u2019ke", "images": []}, {"id": 499663, "min_date": "2022-05-19T09:43:00Z", "max_date": "2022-05-20T10:13:00Z", "count_points": 15, "latitude": 49.07343, "longitude": 38.23654, "city": "Kreminna", "images": []}, {"id": 499664, "min_date": "2022-05-19T09:43:00Z", "max_date": "2022-05-19T09:43:00Z", "count_points": 3, "latitude": 50.11317, "longitude": 36.3723, "city": "Kulynychi", "images": []}, {"id": 499665, "min_date": "2022-05-19T09:43:00Z", "max_date": "2022-05-20T11:06:00Z", "count_points": 5, "latitude": 50.15884, "longitude": 36.64457, "city": "Staryy Saltiv", "images": []}, {"id": 499666, "min_date": "2022-05-19T09:43:00Z", "max_date": "2022-05-19T08:54:00Z", "count_points": 8, "latitude": 50.08598, "longitude": 36.51192, "city": "Kulynychi", "images": []}, {"id": 499667, "min_date": "2022-05-19T09:43:00Z", "max_date": "2022-05-20T00:26:00Z", "count_points": 11, "latitude": 50.15517, "longitude": 36.85965, "city": "Staryy Saltiv", "images": []}, {"id": 499668, "min_date": "2022-05-19T09:43:00Z", "max_date": "2022-05-19T10:34:00Z", "count_points": 9, "latitude": 50.09556, "longitude": 36.66966, "city": "Staryy Saltiv", "images": []}, {"id": 499669, "min_date": "2022-05-19T09:43:00Z", "max_date": "2022-05-20T10:13:00Z", "count_points": 3, "latitude": 49.21613, "longitude": 37.16786, "city": "Izyum", "images": []}, {"id": 499670, "min_date": "2022-05-19T23:37:00Z", "max_date": "2022-05-20T00:26:00Z", "count_points": 5, "latitude": 50.047, "longitude": 36.82342, "city": "Staryy Saltiv", "images": []}, {"id": 499671, "min_date": "2022-05-19T23:37:00Z", "max_date": "2022-05-19T23:37:00Z", "count_points": 1, "latitude": 50.14221, "longitude": 36.30205, "city": "Mala Danylivka", "images": []}, {"id": 499672, "min_date": "2022-05-19T23:37:00Z", "max_date": "2022-05-21T23:50:00Z", "count_points": 3, "latitude": 50.07125, "longitude": 36.78997, "city": "Staryy Saltiv", "images": []}, {"id": 499673, "min_date": "2022-05-19T23:37:00Z", "max_date": "2022-05-19T23:37:00Z", "count_points": 1, "latitude": 50.20618, "longitude": 36.19503, "city": "Prudyanka", "images": []}, {"id": 499674, "min_date": "2022-05-19T23:37:00Z", "max_date": "2022-05-20T10:13:00Z", "count_points": 14, "latitude": 49.41513, "longitude": 37.01962, "city": "Savyntsi", "images": []}, {"id": 499675, "min_date": "2022-05-19T23:37:00Z", "max_date": "2022-05-20T10:13:00Z", "count_points": 2, "latitude": 49.19657, "longitude": 36.9892, "city": "Petrivs\u2019ke", "images": []}, {"id": 499676, "min_date": "2022-05-19T23:37:00Z", "max_date": "2022-05-20T10:13:00Z", "count_points": 11, "latitude": 48.97873, "longitude": 37.81805, "city": "Krasnyy Lyman", "images": []}, {"id": 499677, "min_date": "2022-05-19T23:37:00Z", "max_date": "2022-05-19T23:37:00Z", "count_points": 1, "latitude": 49.03831, "longitude": 37.12796, "city": "Barvinkove", "images": []}, {"id": 499678, "min_date": "2022-05-19T23:37:00Z", "max_date": "2022-05-21T23:50:00Z", "count_points": 4, "latitude": 48.86751, "longitude": 38.09315, "city": "Sivers\u2019k", "images": []}, {"id": 499679, "min_date": "2022-05-19T23:37:00Z", "max_date": "2022-05-19T22:46:00Z", "count_points": 2, "latitude": 49.47509, "longitude": 36.94841, "city": "Balakliya", "images": []}, {"id": 499680, "min_date": "2022-05-20T09:24:00Z", "max_date": "2022-05-20T10:13:00Z", "count_points": 8, "latitude": 49.0799, "longitude": 38.37566, "city": "Rubizhne", "images": []}, {"id": 499681, "min_date": "2022-05-20T09:24:00Z", "max_date": "2022-05-20T10:13:00Z", "count_points": 6, "latitude": 48.97926, "longitude": 38.07065, "city": "Serebryanka", "images": []}, {"id": 499682, "min_date": "2022-05-20T09:24:00Z", "max_date": "2022-05-20T10:13:00Z", "count_points": 2, "latitude": 48.95508, "longitude": 37.94702, "city": "Krasnyy Lyman", "images": []}, {"id": 499683, "min_date": "2022-05-20T09:24:00Z", "max_date": "2022-05-20T10:13:00Z", "count_points": 8, "latitude": 48.94956, "longitude": 38.54343, "city": "Syevyerodonets\u2019k", "images": []}, {"id": 499684, "min_date": "2022-05-20T09:26:00Z", "max_date": "2022-05-21T23:50:00Z", "count_points": 5, "latitude": 50.23969, "longitude": 36.17203, "city": "Prudyanka", "images": []}, {"id": 499685, "min_date": "2022-05-20T09:26:00Z", "max_date": "2022-05-20T09:26:00Z", "count_points": 1, "latitude": 50.21313, "longitude": 36.23144, "city": "Prudyanka", "images": []}, {"id": 499687, "min_date": "2022-05-20T09:26:00Z", "max_date": "2022-05-20T09:26:00Z", "count_points": 1, "latitude": 50.13722, "longitude": 36.92881, "city": "Staryy Saltiv", "images": []}, {"id": 499688, "min_date": "2022-05-20T09:26:00Z", "max_date": "2022-05-20T09:26:00Z", "count_points": 1, "latitude": 49.94851, "longitude": 36.35387, "city": "Kulynychi", "images": []}, {"id": 499689, "min_date": "2022-05-20T09:26:00Z", "max_date": "2022-05-20T09:26:00Z", "count_points": 1, "latitude": 49.85686, "longitude": 36.8143, "city": "Kochetok", "images": []}, {"id": 499690, "min_date": "2022-05-20T09:26:00Z", "max_date": "2022-05-20T10:13:00Z", "count_points": 2, "latitude": 49.62216, "longitude": 36.65186, "city": "Komsomol\u2019s\u2019ke", "images": []}, {"id": 499691, "min_date": "2022-05-20T09:26:00Z", "max_date": "2022-05-20T11:06:00Z", "count_points": 3, "latitude": 49.5183, "longitude": 36.82915, "city": "Balakliya", "images": []}, {"id": 499692, "min_date": "2022-05-20T11:06:00Z", "max_date": "2022-05-20T11:06:00Z", "count_points": 2, "latitude": 49.15716, "longitude": 37.65095, "city": "Svyatogorsk", "images": []}, {"id": 499693, "min_date": "2022-05-20T11:06:00Z", "max_date": "2022-05-20T11:06:00Z", "count_points": 1, "latitude": 49.39566, "longitude": 35.4886, "city": "Krasnohrad", "images": []}, {"id": 499694, "min_date": "2022-05-20T11:06:00Z", "max_date": "2022-05-20T11:06:00Z", "count_points": 1, "latitude": 50.078, "longitude": 36.60877, "city": "Staryy Saltiv", "images": []}, {"id": 499695, "min_date": "2022-05-20T11:06:00Z", "max_date": "2022-05-20T10:13:00Z", "count_points": 3, "latitude": 49.06219, "longitude": 38.29552, "city": "Pryvillya", "images": []}, {"id": 499696, "min_date": "2022-05-20T11:06:00Z", "max_date": "2022-05-20T10:13:00Z", "count_points": 3, "latitude": 48.99754, "longitude": 38.18295, "city": "Kreminna", "images": []}, {"id": 499697, "min_date": "2022-05-20T11:06:00Z", "max_date": "2022-05-20T11:06:00Z", "count_points": 1, "latitude": 48.9374, "longitude": 37.86942, "city": "Krasnyy Lyman", "images": []}, {"id": 499698, "min_date": "2022-05-20T11:06:00Z", "max_date": "2022-05-20T10:13:00Z", "count_points": 2, "latitude": 48.6157, "longitude": 38.34708, "city": "Popasna", "images": []}, {"id": 499699, "min_date": "2022-05-21T10:45:00Z", "max_date": "2022-05-21T10:30:00Z", "count_points": 2, "latitude": 45.34734, "longitude": 35.95036, "city": "Ostanino", "images": []}, {"id": 499700, "min_date": "2022-05-22T00:39:00Z", "max_date": "2022-05-21T23:50:00Z", "count_points": 4, "latitude": 47.96567, "longitude": 35.13859, "city": "Zaporizhia", "images": []}, {"id": 499701, "min_date": "2022-05-22T00:39:00Z", "max_date": "2022-05-21T23:50:00Z", "count_points": 3, "latitude": 48.66897, "longitude": 38.08096, "city": "Soledar", "images": []}, {"id": 499702, "min_date": "2022-05-16T10:13:00Z", "max_date": "2022-05-20T10:13:00Z", "count_points": 2, "latitude": 49.14406, "longitude": 37.39072, "city": "Chervonyy Oskil", "images": []}, {"id": 499703, "min_date": "2022-05-17T10:58:00Z", "max_date": "2022-05-17T11:10:00Z", "count_points": 3, "latitude": 47.53866, "longitude": 36.53807, "city": "Chapayevka", "images": []}, {"id": 499704, "min_date": "2022-05-19T08:56:00Z", "max_date": "2022-05-19T08:52:00Z", "count_points": 2, "latitude": 49.35498, "longitude": 37.05625, "city": "Savyntsi", "images": []}, {"id": 499705, "min_date": "2022-05-20T08:01:00Z", "max_date": "2022-05-19T22:46:00Z", "count_points": 4, "latitude": 50.13727, "longitude": 36.60444, "city": "Staryy Saltiv", "images": []}, {"id": 499706, "min_date": "2022-05-21T08:43:00Z", "max_date": "2022-05-21T08:43:00Z", "count_points": 1, "latitude": 47.67637, "longitude": 35.93439, "city": "Mala Tokmachka", "images": []}, {"id": 499707, "min_date": "2022-05-21T10:32:00Z", "max_date": "2022-05-21T09:56:00Z", "count_points": 3, "latitude": 48.28322, "longitude": 37.48473, "city": "Myrnohrad", "images": []}, {"id": 499708, "min_date": "2022-05-16T00:01:00Z", "max_date": "2022-05-16T00:01:00Z", "count_points": 1, "latitude": 49.76607, "longitude": 37.03403, "city": "Pechenihy", "images": []}, {"id": 499709, "min_date": "2022-05-16T00:01:00Z", "max_date": "2022-05-16T00:01:00Z", "count_points": 2, "latitude": 48.74698, "longitude": 38.3731, "city": "Popasna", "images": []}, {"id": 499710, "min_date": "2022-05-16T09:47:00Z", "max_date": "2022-05-16T09:47:00Z", "count_points": 1, "latitude": 48.34119, "longitude": 38.95815, "city": "Pereval\u2019s\u2019k", "images": []}, {"id": 499711, "min_date": "2022-05-16T09:47:00Z", "max_date": "2022-05-16T09:47:00Z", "count_points": 1, "latitude": 47.07957, "longitude": 35.90043, "city": "Rozivka", "images": []}, {"id": 499712, "min_date": "2022-05-16T09:49:00Z", "max_date": "2022-05-16T23:44:00Z", "count_points": 2, "latitude": 48.78395, "longitude": 38.57579, "city": "Toshkivka", "images": []}, {"id": 499714, "min_date": "2022-05-16T11:30:00Z", "max_date": "2022-05-16T11:30:00Z", "count_points": 1, "latitude": 48.30245, "longitude": 38.61545, "city": "Bayrachky", "images": []}, {"id": 499715, "min_date": "2022-05-16T23:44:00Z", "max_date": "2022-05-16T23:44:00Z", "count_points": 1, "latitude": 49.59316, "longitude": 36.76128, "city": "Balakliya", "images": []}, {"id": 499716, "min_date": "2022-05-16T23:44:00Z", "max_date": "2022-05-16T23:44:00Z", "count_points": 1, "latitude": 48.98304, "longitude": 38.4947, "city": "Syevyerodonets\u2019k", "images": []}, {"id": 499717, "min_date": "2022-05-17T09:30:00Z", "max_date": "2022-05-17T09:30:00Z", "count_points": 2, "latitude": 49.72043, "longitude": 38.10789, "city": "Nyzhnya Duvanka", "images": []}, {"id": 499718, "min_date": "2022-05-17T11:10:00Z", "max_date": "2022-05-17T11:10:00Z", "count_points": 2, "latitude": 49.88089, "longitude": 37.57052, "city": "Dvorichna", "images": []}, {"id": 499719, "min_date": "2022-05-17T11:10:00Z", "max_date": "2022-05-17T11:10:00Z", "count_points": 1, "latitude": 49.64191, "longitude": 36.74808, "city": "Malynivka", "images": []}, {"id": 499720, "min_date": "2022-05-18T09:11:00Z", "max_date": "2022-05-18T09:11:00Z", "count_points": 1, "latitude": 49.06929, "longitude": 35.10526, "city": "Zachepylivka", "images": []}, {"id": 499721, "min_date": "2022-05-18T23:05:00Z", "max_date": "2022-05-19T00:45:00Z", "count_points": 2, "latitude": 49.37708, "longitude": 37.74661, "city": "Borova", "images": []}, {"id": 499722, "min_date": "2022-05-19T00:45:00Z", "max_date": "2022-05-19T00:45:00Z", "count_points": 1, "latitude": 50.2686, "longitude": 36.1751, "city": "Prudyanka", "images": []}, {"id": 499723, "min_date": "2022-05-19T10:32:00Z", "max_date": "2022-05-19T10:32:00Z", "count_points": 1, "latitude": 49.13127, "longitude": 37.32933, "city": "Chervonyy Oskil", "images": []}, {"id": 499724, "min_date": "2022-05-19T10:34:00Z", "max_date": "2022-05-19T10:34:00Z", "count_points": 1, "latitude": 50.0121, "longitude": 37.72311, "city": "Dvorichna", "images": []}, {"id": 499725, "min_date": "2022-05-20T10:13:00Z", "max_date": "2022-05-21T23:50:00Z", "count_points": 2, "latitude": 49.15091, "longitude": 37.06162, "city": "Petrivs\u2019ke", "images": []}, {"id": 499726, "min_date": "2022-05-20T10:13:00Z", "max_date": "2022-05-20T10:13:00Z", "count_points": 1, "latitude": 50.18941, "longitude": 35.3677, "city": "Huty", "images": []}, {"id": 499727, "min_date": "2022-05-20T10:13:00Z", "max_date": "2022-05-20T10:13:00Z", "count_points": 1, "latitude": 50.16801, "longitude": 35.32443, "city": "Huty", "images": []}, {"id": 499728, "min_date": "2022-05-20T10:13:00Z", "max_date": "2022-05-20T10:13:00Z", "count_points": 1, "latitude": 49.42008, "longitude": 36.80548, "city": "Balakliya", "images": []}, {"id": 499729, "min_date": "2022-05-20T10:13:00Z", "max_date": "2022-05-20T10:13:00Z", "count_points": 5, "latitude": 49.13146, "longitude": 37.56919, "city": "Studenok", "images": []}, {"id": 499730, "min_date": "2022-05-20T10:13:00Z", "max_date": "2022-05-20T10:13:00Z", "count_points": 1, "latitude": 49.12703, "longitude": 37.68378, "city": "Svyatogorsk", "images": []}, {"id": 499731, "min_date": "2022-05-20T10:13:00Z", "max_date": "2022-05-20T10:13:00Z", "count_points": 2, "latitude": 49.09987, "longitude": 37.74276, "city": "Krasnyy Lyman", "images": []}, {"id": 499732, "min_date": "2022-05-20T10:13:00Z", "max_date": "2022-05-20T10:13:00Z", "count_points": 2, "latitude": 48.98056, "longitude": 37.90153, "city": "Krasnyy Lyman", "images": []}, {"id": 499733, "min_date": "2022-05-20T10:13:00Z", "max_date": "2022-05-20T10:13:00Z", "count_points": 1, "latitude": 48.95044, "longitude": 37.77806, "city": "Krasnyy Lyman", "images": []}, {"id": 499734, "min_date": "2022-05-20T10:13:00Z", "max_date": "2022-05-20T10:13:00Z", "count_points": 1, "latitude": 49.06507, "longitude": 38.61527, "city": "Syevyerodonets\u2019k", "images": []}, {"id": 499736, "min_date": "2022-05-20T10:13:00Z", "max_date": "2022-05-20T10:13:00Z", "count_points": 1, "latitude": 47.68521, "longitude": 36.32759, "city": "Hulyaypole", "images": []}, {"id": 499737, "min_date": "2022-05-21T00:07:00Z", "max_date": "2022-05-21T00:07:00Z", "count_points": 1, "latitude": 47.67422, "longitude": 36.48382, "city": "Hulyaypole", "images": []}, {"id": 499738, "min_date": "2022-05-21T23:50:00Z", "max_date": "2022-05-21T23:50:00Z", "count_points": 3, "latitude": 50.32466, "longitude": 36.05676, "city": "Zolochiv", "images": []}, {"id": 499653, "min_date": "2022-05-17T10:21:00Z", "max_date": "2022-05-16T11:30:00Z", "count_points": 3, "latitude": 50.22898, "longitude": 37.61277, "city": "Prykolotne", "images": []}, {"id": 499660, "min_date": "2022-05-17T10:21:00Z", "max_date": "2022-05-17T10:21:00Z", "count_points": 1, "latitude": 49.03558, "longitude": 37.72107, "city": "Krasnyy Lyman", "images": []}, {"id": 499686, "min_date": "2022-05-20T09:26:00Z", "max_date": "2022-05-20T10:13:00Z", "count_points": 4, "latitude": 50.21038, "longitude": 36.3208, "city": "Prudyanka", "images": []}, {"id": 499713, "min_date": "2022-05-16T11:30:00Z", "max_date": "2022-05-16T11:30:00Z", "count_points": 1, "latitude": 46.99592, "longitude": 36.21766, "city": "Chernihivka", "images": []}, {"id": 499735, "min_date": "2022-05-20T10:13:00Z", "max_date": "2022-05-20T10:13:00Z", "count_points": 1, "latitude": 47.7981, "longitude": 36.81197, "city": "Velyka Novosilka", "images": []}]