[{"id": 497651, "min_date": "2022-05-15T00:20:00Z", "max_date": "2022-05-15T23:12:00Z", "count_points": 11, "latitude": 51.13453, "longitude": 29.45491, "city": "Krasyatychi", "images": []}, {"id": 497652, "min_date": "2022-05-15T10:09:00Z", "max_date": "2022-05-15T10:09:00Z", "count_points": 1, "latitude": 49.45705, "longitude": 29.93828, "city": "Volodarka", "images": []}, {"id": 497653, "min_date": "2022-05-15T10:09:00Z", "max_date": "2022-05-15T10:09:00Z", "count_points": 1, "latitude": 50.92984, "longitude": 32.61463, "city": "Ichnya", "images": []}, {"id": 497654, "min_date": "2022-05-15T10:09:00Z", "max_date": "2022-05-15T10:09:00Z", "count_points": 1, "latitude": 50.00137, "longitude": 27.52679, "city": "Novoselytsya", "images": []}, {"id": 497655, "min_date": "2022-05-15T10:09:00Z", "max_date": "2022-05-15T10:09:00Z", "count_points": 1, "latitude": 51.31688, "longitude": 32.74596, "city": "Bakhmach", "images": []}, {"id": 497656, "min_date": "2022-05-15T10:09:00Z", "max_date": "2022-05-15T11:00:00Z", "count_points": 2, "latitude": 49.9537, "longitude": 24.87786, "city": "Olesko", "images": []}, {"id": 497657, "min_date": "2022-05-15T11:47:00Z", "max_date": "2022-05-15T11:47:00Z", "count_points": 1, "latitude": 48.73829, "longitude": 24.95669, "city": "Otyniya", "images": []}, {"id": 497658, "min_date": "2022-05-15T11:49:00Z", "max_date": "2022-05-15T11:49:00Z", "count_points": 1, "latitude": 49.11634, "longitude": 28.89265, "city": "Nemyriv", "images": []}, {"id": 497659, "min_date": "2022-05-15T11:00:00Z", "max_date": "2022-05-15T11:00:00Z", "count_points": 1, "latitude": 50.12031, "longitude": 34.94909, "city": "Okhtyrka", "images": []}, {"id": 497660, "min_date": "2022-05-15T11:00:00Z", "max_date": "2022-05-15T11:00:00Z", "count_points": 1, "latitude": 49.47613, "longitude": 27.84326, "city": "Khmilnyk", "images": []}, {"id": 497661, "min_date": "2022-05-15T11:00:00Z", "max_date": "2022-05-15T11:00:00Z", "count_points": 1, "latitude": 48.84407, "longitude": 23.35101, "city": "Slavske", "images": []}, {"id": 497662, "min_date": "2022-05-15T11:00:00Z", "max_date": "2022-05-15T11:00:00Z", "count_points": 1, "latitude": 50.10545, "longitude": 29.30498, "city": "Popil'nya", "images": []}, {"id": 497663, "min_date": "2022-05-15T11:00:00Z", "max_date": "2022-05-15T11:00:00Z", "count_points": 1, "latitude": 50.0735, "longitude": 24.98029, "city": "Pidhirtsi", "images": []}, {"id": 497664, "min_date": "2022-05-15T11:00:00Z", "max_date": "2022-05-15T11:00:00Z", "count_points": 1, "latitude": 50.83892, "longitude": 27.78403, "city": "Yemil\u2019chyne", "images": []}, {"id": 497665, "min_date": "2022-05-15T23:14:00Z", "max_date": "2022-05-15T23:14:00Z", "count_points": 2, "latitude": 48.84876, "longitude": 27.21328, "city": "Nova Ushytsya", "images": []}, {"id": 497650, "min_date": "2022-05-15T11:08:00Z", "max_date": "2022-05-15T11:00:00Z", "count_points": 4, "latitude": 50.2932, "longitude": 25.63028, "city": "Tarakaniv", "images": []}, {"id": 499037, "min_date": "2022-05-15T00:20:00Z", "max_date": "2022-05-14T10:28:00Z", "count_points": 152, "latitude": 51.14455, "longitude": 29.40656, "city": "Krasyatychi", "images": []}, {"id": 499038, "min_date": "2022-05-15T10:09:00Z", "max_date": "2022-05-10T10:02:00Z", "count_points": 3, "latitude": 49.46986, "longitude": 29.94593, "city": "Volodarka", "images": []}, {"id": 499039, "min_date": "2022-05-09T09:30:00Z", "max_date": "2022-05-09T10:19:00Z", "count_points": 3, "latitude": 47.85723, "longitude": 39.18229, "city": "Kripens\u2019kyy", "images": []}, {"id": 499040, "min_date": "2022-05-09T09:30:00Z", "max_date": "2022-05-09T11:13:00Z", "count_points": 3, "latitude": 47.78774, "longitude": 37.78503, "city": "Dokuchayevs\u2019k", "images": []}, {"id": 499041, "min_date": "2022-05-09T09:30:00Z", "max_date": "2022-05-12T09:24:00Z", "count_points": 8, "latitude": 47.80772, "longitude": 37.6692, "city": "Dokuchayevs\u2019k", "images": []}, {"id": 499042, "min_date": "2022-05-09T09:30:00Z", "max_date": "2022-05-09T09:30:00Z", "count_points": 1, "latitude": 47.82918, "longitude": 37.6872, "city": "Dokuchayevs\u2019k", "images": []}, {"id": 499043, "min_date": "2022-05-09T09:30:00Z", "max_date": "2022-05-09T09:30:00Z", "count_points": 1, "latitude": 48.11795, "longitude": 38.54025, "city": "Rozsypne", "images": []}, {"id": 499044, "min_date": "2022-05-09T09:30:00Z", "max_date": "2022-05-10T11:42:00Z", "count_points": 175, "latitude": 46.40777, "longitude": 32.51636, "city": "Hola Prystan\u2019", "images": [{"image_url": "499044.jpg", "timestamp": "2022-05-10T11:42:00Z"}]}, {"id": 499045, "min_date": "2022-05-09T09:32:00Z", "max_date": "2022-05-09T10:19:00Z", "count_points": 6, "latitude": 46.82095, "longitude": 33.08916, "city": "Kozachi Laheri", "images": [{"image_url": "499045.jpg", "timestamp": "2022-05-09T10:19:00Z"}]}, {"id": 499046, "min_date": "2022-05-09T09:32:00Z", "max_date": "2022-05-09T11:10:00Z", "count_points": 2, "latitude": 50.98646, "longitude": 25.2504, "city": "Rozhyshche", "images": []}, {"id": 499047, "min_date": "2022-05-09T09:32:00Z", "max_date": "2022-05-09T10:21:00Z", "count_points": 2, "latitude": 51.60394, "longitude": 31.10079, "city": "Ripky", "images": []}, {"id": 499048, "min_date": "2022-05-09T09:32:00Z", "max_date": "2022-05-09T10:21:00Z", "count_points": 9, "latitude": 52.04202, "longitude": 32.77093, "city": "Semenivka", "images": []}, {"id": 499049, "min_date": "2022-05-09T09:32:00Z", "max_date": "2022-05-09T10:21:00Z", "count_points": 3, "latitude": 51.24929, "longitude": 32.2791, "city": "Borzna", "images": []}, {"id": 499051, "min_date": "2022-05-09T09:32:00Z", "max_date": "2022-05-09T09:32:00Z", "count_points": 1, "latitude": 50.48232, "longitude": 30.50187, "city": "Kyiv", "images": []}, {"id": 499052, "min_date": "2022-05-09T09:32:00Z", "max_date": "2022-05-12T11:04:00Z", "count_points": 107, "latitude": 50.52638, "longitude": 31.94886, "city": "Zgurovka", "images": [{"image_url": "499052.jpg", "timestamp": "2022-05-12T11:04:00Z"}]}, {"id": 499053, "min_date": "2022-05-09T09:32:00Z", "max_date": "2022-05-09T09:32:00Z", "count_points": 1, "latitude": 50.80263, "longitude": 33.44794, "city": "Romny", "images": []}, {"id": 499054, "min_date": "2022-05-09T09:32:00Z", "max_date": "2022-05-11T10:34:00Z", "count_points": 2, "latitude": 50.22162, "longitude": 32.43154, "city": "Pyryatyn", "images": []}, {"id": 499055, "min_date": "2022-05-09T09:32:00Z", "max_date": "2022-05-09T09:32:00Z", "count_points": 1, "latitude": 49.97734, "longitude": 32.48933, "city": "Hrebinka", "images": []}, {"id": 499056, "min_date": "2022-05-09T09:32:00Z", "max_date": "2022-05-13T10:45:00Z", "count_points": 248, "latitude": 49.07915, "longitude": 37.5625, "city": "Krasnyy Lyman", "images": []}, {"id": 499057, "min_date": "2022-05-09T09:32:00Z", "max_date": "2022-05-13T10:45:00Z", "count_points": 381, "latitude": 48.98814, "longitude": 38.12459, "city": "Serebryanka", "images": []}, {"id": 499058, "min_date": "2022-05-09T09:32:00Z", "max_date": "2022-05-13T10:45:00Z", "count_points": 41, "latitude": 48.94343, "longitude": 37.85471, "city": "Krasnyy Lyman", "images": []}, {"id": 499059, "min_date": "2022-05-09T09:32:00Z", "max_date": "2022-05-09T09:32:00Z", "count_points": 1, "latitude": 48.8447, "longitude": 37.80333, "city": "Krasnyy Lyman", "images": []}, {"id": 499060, "min_date": "2022-05-09T09:32:00Z", "max_date": "2022-05-13T10:45:00Z", "count_points": 139, "latitude": 48.97838, "longitude": 38.5118, "city": "Rubizhne", "images": []}, {"id": 499062, "min_date": "2022-05-09T09:32:00Z", "max_date": "2022-05-12T23:18:00Z", "count_points": 21, "latitude": 48.85138, "longitude": 38.30487, "city": "Bilohorivka", "images": []}, {"id": 499063, "min_date": "2022-05-09T09:32:00Z", "max_date": "2022-05-09T09:32:00Z", "count_points": 1, "latitude": 48.86002, "longitude": 38.37004, "city": "Lysychans\u2019k", "images": []}, {"id": 499064, "min_date": "2022-05-09T09:32:00Z", "max_date": "2022-05-09T10:19:00Z", "count_points": 8, "latitude": 48.79998, "longitude": 38.32189, "city": "Bilohorivka", "images": []}, {"id": 499065, "min_date": "2022-05-09T09:32:00Z", "max_date": "2022-05-09T08:20:00Z", "count_points": 2, "latitude": 47.31303, "longitude": 33.26188, "city": "Velyka Oleksandrivka", "images": []}, {"id": 499066, "min_date": "2022-05-09T09:32:00Z", "max_date": "2022-05-09T10:19:00Z", "count_points": 8, "latitude": 46.96142, "longitude": 32.29023, "city": "Shevchenkove", "images": []}, {"id": 499067, "min_date": "2022-05-09T09:32:00Z", "max_date": "2022-05-10T11:42:00Z", "count_points": 66, "latitude": 46.49845, "longitude": 31.85369, "city": "Parutyne", "images": []}, {"id": 499068, "min_date": "2022-05-09T09:32:00Z", "max_date": "2022-05-09T10:19:00Z", "count_points": 4, "latitude": 48.27641, "longitude": 37.94743, "city": "Horlivka", "images": []}, {"id": 499069, "min_date": "2022-05-09T09:32:00Z", "max_date": "2022-05-12T11:04:00Z", "count_points": 137, "latitude": 46.46113, "longitude": 32.05309, "city": "Stanislav", "images": [{"image_url": "499069.jpg", "timestamp": "2022-05-12T11:04:00Z"}]}, {"id": 499070, "min_date": "2022-05-09T09:32:00Z", "max_date": "2022-05-09T10:19:00Z", "count_points": 3, "latitude": 48.14759, "longitude": 37.93184, "city": "Yasynuvata", "images": []}, {"id": 499071, "min_date": "2022-05-09T09:32:00Z", "max_date": "2022-05-10T10:02:00Z", "count_points": 20, "latitude": 49.01696, "longitude": 37.88676, "city": "Krasnyy Lyman", "images": []}, {"id": 499072, "min_date": "2022-05-09T11:10:00Z", "max_date": "2022-05-09T11:10:00Z", "count_points": 2, "latitude": 51.7356, "longitude": 26.03046, "city": "Zarichne", "images": []}, {"id": 499073, "min_date": "2022-05-09T11:10:00Z", "max_date": "2022-05-09T11:10:00Z", "count_points": 1, "latitude": 46.40938, "longitude": 32.58931, "city": "Hola Prystan\u2019", "images": []}, {"id": 499074, "min_date": "2022-05-09T11:10:00Z", "max_date": "2022-05-09T10:19:00Z", "count_points": 2, "latitude": 46.34135, "longitude": 32.83415, "city": "Vynohradove", "images": []}, {"id": 499075, "min_date": "2022-05-09T11:10:00Z", "max_date": "2022-05-09T11:10:00Z", "count_points": 1, "latitude": 46.26026, "longitude": 32.48994, "city": "Chulakivka", "images": []}, {"id": 499076, "min_date": "2022-05-09T11:10:00Z", "max_date": "2022-05-09T10:19:00Z", "count_points": 3, "latitude": 46.29752, "longitude": 33.30199, "city": "Kalanchak", "images": []}, {"id": 499077, "min_date": "2022-05-09T11:10:00Z", "max_date": "2022-05-09T12:02:00Z", "count_points": 7, "latitude": 50.99824, "longitude": 28.50649, "city": "Luhyny", "images": []}, {"id": 499078, "min_date": "2022-05-09T11:10:00Z", "max_date": "2022-05-09T11:10:00Z", "count_points": 1, "latitude": 50.90569, "longitude": 30.96417, "city": "Oster", "images": []}, {"id": 499079, "min_date": "2022-05-09T11:10:00Z", "max_date": "2022-05-09T10:21:00Z", "count_points": 3, "latitude": 50.62606, "longitude": 28.42898, "city": "Khoroshiv", "images": []}, {"id": 499080, "min_date": "2022-05-09T11:10:00Z", "max_date": "2022-05-09T11:10:00Z", "count_points": 3, "latitude": 50.9088, "longitude": 32.85699, "city": "Sribne", "images": []}, {"id": 499081, "min_date": "2022-05-09T11:10:00Z", "max_date": "2022-05-09T11:10:00Z", "count_points": 1, "latitude": 50.80772, "longitude": 33.15274, "city": "Talalayivka", "images": []}, {"id": 499082, "min_date": "2022-05-09T11:10:00Z", "max_date": "2022-05-09T11:10:00Z", "count_points": 2, "latitude": 50.60639, "longitude": 30.96028, "city": "Velyka Dymerka", "images": []}, {"id": 499083, "min_date": "2022-05-09T11:10:00Z", "max_date": "2022-05-09T11:10:00Z", "count_points": 1, "latitude": 50.73598, "longitude": 33.70985, "city": "Lypova Dolyna", "images": []}, {"id": 499084, "min_date": "2022-05-09T11:10:00Z", "max_date": "2022-05-09T10:21:00Z", "count_points": 2, "latitude": 49.98229, "longitude": 28.12085, "city": "Chudniv", "images": []}, {"id": 499085, "min_date": "2022-05-09T11:10:00Z", "max_date": "2022-05-09T11:10:00Z", "count_points": 1, "latitude": 50.34746, "longitude": 33.15828, "city": "Lokhvytsya", "images": []}, {"id": 499086, "min_date": "2022-05-09T11:10:00Z", "max_date": "2022-05-09T11:10:00Z", "count_points": 2, "latitude": 49.65021, "longitude": 27.52374, "city": "Stara Syniava", "images": []}, {"id": 499087, "min_date": "2022-05-09T11:10:00Z", "max_date": "2022-05-09T11:10:00Z", "count_points": 1, "latitude": 49.76972, "longitude": 30.43085, "city": "Uzyn", "images": []}, {"id": 499089, "min_date": "2022-05-09T11:10:00Z", "max_date": "2022-05-09T10:19:00Z", "count_points": 3, "latitude": 49.29603, "longitude": 32.33784, "city": "Chervona Sloboda", "images": []}, {"id": 499090, "min_date": "2022-05-09T11:10:00Z", "max_date": "2022-05-09T12:02:00Z", "count_points": 8, "latitude": 46.47415, "longitude": 31.90962, "city": "Parutyne", "images": [{"image_url": "499090.jpg", "timestamp": "2022-05-09T12:02:00Z"}]}, {"id": 499091, "min_date": "2022-05-09T11:10:00Z", "max_date": "2022-05-09T10:21:00Z", "count_points": 5, "latitude": 51.70054, "longitude": 33.68546, "city": "Hlukhiv", "images": []}, {"id": 499092, "min_date": "2022-05-09T11:10:00Z", "max_date": "2022-05-10T11:42:00Z", "count_points": 53, "latitude": 46.59486, "longitude": 32.84888, "city": "Radens\u2019k", "images": []}, {"id": 499093, "min_date": "2022-05-09T11:13:00Z", "max_date": "2022-05-09T11:13:00Z", "count_points": 1, "latitude": 49.20155, "longitude": 37.31235, "city": "Izyum", "images": []}, {"id": 499094, "min_date": "2022-05-09T11:13:00Z", "max_date": "2022-05-12T11:04:00Z", "count_points": 18, "latitude": 48.79786, "longitude": 38.69005, "city": "Toshkivka", "images": [{"image_url": "499094.jpg", "timestamp": "2022-05-12T11:04:00Z"}]}, {"id": 499095, "min_date": "2022-05-09T11:13:00Z", "max_date": "2022-05-12T09:24:00Z", "count_points": 8, "latitude": 48.78119, "longitude": 38.56731, "city": "Toshkivka", "images": []}, {"id": 499096, "min_date": "2022-05-09T11:13:00Z", "max_date": "2022-05-09T10:19:00Z", "count_points": 6, "latitude": 48.44786, "longitude": 35.81959, "city": "Pavlohrad", "images": []}, {"id": 499097, "min_date": "2022-05-09T11:13:00Z", "max_date": "2022-05-09T10:19:00Z", "count_points": 5, "latitude": 48.17393, "longitude": 37.78771, "city": "Avdiyivka", "images": []}, {"id": 499098, "min_date": "2022-05-09T11:13:00Z", "max_date": "2022-05-12T09:24:00Z", "count_points": 4, "latitude": 48.07188, "longitude": 37.7426, "city": "Avdiyivka", "images": []}, {"id": 499099, "min_date": "2022-05-09T11:13:00Z", "max_date": "2022-05-15T00:22:00Z", "count_points": 40, "latitude": 47.56176, "longitude": 35.78814, "city": "Orikhiv", "images": [{"image_url": "499099.jpg", "timestamp": "2022-05-15T00:22:00Z"}]}, {"id": 499100, "min_date": "2022-05-09T11:13:00Z", "max_date": "2022-05-09T11:13:00Z", "count_points": 1, "latitude": 47.40309, "longitude": 34.65822, "city": "Dniprovka", "images": []}, {"id": 499101, "min_date": "2022-05-09T23:26:00Z", "max_date": "2022-05-10T00:13:00Z", "count_points": 3, "latitude": 49.32915, "longitude": 39.93456, "city": "Milove", "images": []}, {"id": 499102, "min_date": "2022-05-09T23:26:00Z", "max_date": "2022-05-09T23:26:00Z", "count_points": 1, "latitude": 49.42313, "longitude": 38.10765, "city": "Svatove", "images": []}, {"id": 499103, "min_date": "2022-05-09T23:26:00Z", "max_date": "2022-05-10T00:13:00Z", "count_points": 8, "latitude": 49.54683, "longitude": 36.94606, "city": "Balakliya", "images": [{"image_url": "499103.jpg", "timestamp": "2022-05-10T00:13:00Z"}]}, {"id": 499104, "min_date": "2022-05-09T23:26:00Z", "max_date": "2022-05-10T00:13:00Z", "count_points": 7, "latitude": 50.00479, "longitude": 32.46693, "city": "Hrebinka", "images": []}, {"id": 499105, "min_date": "2022-05-09T23:26:00Z", "max_date": "2022-05-13T10:45:00Z", "count_points": 85, "latitude": 49.32282, "longitude": 37.09437, "city": "Savyntsi", "images": [{"image_url": "499105.jpg", "timestamp": "2022-05-13T10:45:00Z"}]}, {"id": 499106, "min_date": "2022-05-09T23:26:00Z", "max_date": "2022-05-15T22:22:00Z", "count_points": 7, "latitude": 50.12734, "longitude": 36.41201, "city": "Kulynychi", "images": []}, {"id": 499107, "min_date": "2022-05-09T23:26:00Z", "max_date": "2022-05-13T10:45:00Z", "count_points": 11, "latitude": 49.08098, "longitude": 38.61735, "city": "Syevyerodonets\u2019k", "images": []}, {"id": 499108, "min_date": "2022-05-09T23:26:00Z", "max_date": "2022-05-12T23:18:00Z", "count_points": 4, "latitude": 49.10804, "longitude": 37.71784, "city": "Krasnyy Lyman", "images": []}, {"id": 499109, "min_date": "2022-05-09T23:26:00Z", "max_date": "2022-05-10T22:16:00Z", "count_points": 4, "latitude": 49.00572, "longitude": 38.37532, "city": "Rubizhne", "images": []}, {"id": 499110, "min_date": "2022-05-09T23:26:00Z", "max_date": "2022-05-09T22:33:00Z", "count_points": 2, "latitude": 48.96724, "longitude": 38.27071, "city": "Bilohorivka", "images": []}, {"id": 499111, "min_date": "2022-05-09T23:26:00Z", "max_date": "2022-05-12T23:18:00Z", "count_points": 6, "latitude": 49.03622, "longitude": 37.12869, "city": "Barvinkove", "images": [{"image_url": "499111.jpg", "timestamp": "2022-05-12T23:18:00Z"}]}, {"id": 499112, "min_date": "2022-05-09T23:26:00Z", "max_date": "2022-05-15T22:22:00Z", "count_points": 22, "latitude": 48.86602, "longitude": 38.09411, "city": "Sivers\u2019k", "images": [{"image_url": "499112.jpg", "timestamp": "2022-05-15T22:22:00Z"}]}, {"id": 499113, "min_date": "2022-05-09T23:26:00Z", "max_date": "2022-05-10T23:56:00Z", "count_points": 6, "latitude": 48.88094, "longitude": 37.36369, "city": "Studenok", "images": []}, {"id": 499114, "min_date": "2022-05-09T23:26:00Z", "max_date": "2022-05-13T00:58:00Z", "count_points": 8, "latitude": 48.70199, "longitude": 38.38536, "city": "Popasna", "images": [{"image_url": "499114.jpg", "timestamp": "2022-05-13T00:58:00Z"}]}, {"id": 499116, "min_date": "2022-05-09T23:26:00Z", "max_date": "2022-05-10T00:16:00Z", "count_points": 2, "latitude": 49.64667, "longitude": 27.34027, "city": "Starokostiantyniv", "images": []}, {"id": 499117, "min_date": "2022-05-09T23:26:00Z", "max_date": "2022-05-09T22:33:00Z", "count_points": 5, "latitude": 48.69558, "longitude": 36.72018, "city": "Oleksandrivka", "images": []}, {"id": 499118, "min_date": "2022-05-09T23:26:00Z", "max_date": "2022-05-12T10:13:00Z", "count_points": 3, "latitude": 48.13211, "longitude": 37.79563, "city": "Avdiyivka", "images": []}, {"id": 499119, "min_date": "2022-05-09T23:26:00Z", "max_date": "2022-05-12T23:18:00Z", "count_points": 11, "latitude": 47.93885, "longitude": 37.51433, "city": "Mareyka", "images": []}, {"id": 499120, "min_date": "2022-05-09T23:26:00Z", "max_date": "2022-05-10T01:05:00Z", "count_points": 2, "latitude": 48.77663, "longitude": 28.32053, "city": "Sharhorod", "images": []}, {"id": 499121, "min_date": "2022-05-09T23:26:00Z", "max_date": "2022-05-10T10:02:00Z", "count_points": 5, "latitude": 48.48952, "longitude": 31.98854, "city": "Kropyvnytskyi", "images": []}, {"id": 499122, "min_date": "2022-05-09T23:26:00Z", "max_date": "2022-05-10T00:16:00Z", "count_points": 2, "latitude": 48.6287, "longitude": 26.9825, "city": "Kel\u2019mentsi", "images": []}, {"id": 499123, "min_date": "2022-05-09T23:26:00Z", "max_date": "2022-05-10T00:16:00Z", "count_points": 3, "latitude": 47.70921, "longitude": 36.48684, "city": "Hulyaypole", "images": []}, {"id": 499124, "min_date": "2022-05-09T23:26:00Z", "max_date": "2022-05-09T23:26:00Z", "count_points": 1, "latitude": 47.58765, "longitude": 36.42231, "city": "Chapayevka", "images": []}, {"id": 499125, "min_date": "2022-05-09T23:26:00Z", "max_date": "2022-05-09T23:26:00Z", "count_points": 1, "latitude": 46.14775, "longitude": 32.27977, "city": "Zheleznyy Port", "images": []}, {"id": 499126, "min_date": "2022-05-09T23:26:00Z", "max_date": "2022-05-10T00:13:00Z", "count_points": 3, "latitude": 48.65583, "longitude": 35.18084, "city": "Novomoskovs\u2019k", "images": []}, {"id": 499127, "min_date": "2022-05-09T23:26:00Z", "max_date": "2022-05-12T23:18:00Z", "count_points": 6, "latitude": 48.1693, "longitude": 37.71382, "city": "Avdiyivka", "images": [{"image_url": "499127.jpg", "timestamp": "2022-05-12T23:18:00Z"}]}, {"id": 499129, "min_date": "2022-05-10T01:07:00Z", "max_date": "2022-05-10T10:02:00Z", "count_points": 5, "latitude": 50.46616, "longitude": 32.14083, "city": "Pryluky", "images": [{"image_url": "499129.jpg", "timestamp": "2022-05-10T10:02:00Z"}]}, {"id": 499130, "min_date": "2022-05-10T01:07:00Z", "max_date": "2022-05-10T11:45:00Z", "count_points": 28, "latitude": 50.36948, "longitude": 28.82889, "city": "Holovyne", "images": [{"image_url": "499130.jpg", "timestamp": "2022-05-10T11:45:00Z"}]}, {"id": 499131, "min_date": "2022-05-10T09:11:00Z", "max_date": "2022-05-10T09:11:00Z", "count_points": 2, "latitude": 47.89118, "longitude": 39.81316, "city": "Biryukove", "images": []}, {"id": 499132, "min_date": "2022-05-10T09:11:00Z", "max_date": "2022-05-10T09:11:00Z", "count_points": 1, "latitude": 48.75028, "longitude": 33.72558, "city": "Lykhivka", "images": []}, {"id": 499133, "min_date": "2022-05-10T09:13:00Z", "max_date": "2022-05-10T09:13:00Z", "count_points": 2, "latitude": 50.78287, "longitude": 34.05577, "city": "Nedryhayliv", "images": []}, {"id": 499203, "min_date": "2022-05-11T10:34:00Z", "max_date": "2022-05-12T11:06:00Z", "count_points": 5, "latitude": 51.05853, "longitude": 28.09489, "city": "Novi Bilokorovychi", "images": []}, {"id": 499204, "min_date": "2022-05-11T10:34:00Z", "max_date": "2022-05-11T11:23:00Z", "count_points": 2, "latitude": 51.05966, "longitude": 28.20489, "city": "Novi Bilokorovychi", "images": []}, {"id": 499205, "min_date": "2022-05-11T10:34:00Z", "max_date": "2022-05-12T11:06:00Z", "count_points": 7, "latitude": 51.22638, "longitude": 30.83965, "city": "Oster", "images": [{"image_url": "499205.jpg", "timestamp": "2022-05-12T11:06:00Z"}]}, {"id": 499206, "min_date": "2022-05-11T10:34:00Z", "max_date": "2022-05-11T09:43:00Z", "count_points": 5, "latitude": 50.04317, "longitude": 25.00142, "city": "Pidhirtsi", "images": [{"image_url": "499206.jpg", "timestamp": "2022-05-11T09:43:00Z"}]}, {"id": 499207, "min_date": "2022-05-11T10:34:00Z", "max_date": "2022-05-11T09:43:00Z", "count_points": 22, "latitude": 51.06208, "longitude": 30.72126, "city": "Desna", "images": []}, {"id": 499208, "min_date": "2022-05-11T10:34:00Z", "max_date": "2022-05-11T10:34:00Z", "count_points": 1, "latitude": 49.84412, "longitude": 24.86452, "city": "Zolochiv", "images": []}, {"id": 499209, "min_date": "2022-05-11T10:34:00Z", "max_date": "2022-05-11T10:34:00Z", "count_points": 1, "latitude": 50.96905, "longitude": 30.73633, "city": "Desna", "images": []}, {"id": 499210, "min_date": "2022-05-11T10:34:00Z", "max_date": "2022-05-11T10:34:00Z", "count_points": 1, "latitude": 50.445, "longitude": 28.12864, "city": "Pulyny", "images": []}, {"id": 499211, "min_date": "2022-05-11T10:34:00Z", "max_date": "2022-05-11T10:34:00Z", "count_points": 1, "latitude": 51.09017, "longitude": 32.83218, "city": "Bakhmach", "images": []}, {"id": 499212, "min_date": "2022-05-11T10:34:00Z", "max_date": "2022-05-12T00:28:00Z", "count_points": 2, "latitude": 49.33409, "longitude": 25.38092, "city": "Mikulintsy", "images": []}, {"id": 499213, "min_date": "2022-05-11T10:34:00Z", "max_date": "2022-05-09T10:21:00Z", "count_points": 4, "latitude": 50.57522, "longitude": 32.30395, "city": "Pryluky", "images": []}, {"id": 499214, "min_date": "2022-05-11T10:34:00Z", "max_date": "2022-05-11T11:23:00Z", "count_points": 4, "latitude": 48.98522, "longitude": 24.18498, "city": "Broshniv-Osada", "images": []}, {"id": 499215, "min_date": "2022-05-11T10:34:00Z", "max_date": "2022-05-11T10:34:00Z", "count_points": 1, "latitude": 50.63004, "longitude": 32.91316, "city": "Sribne", "images": []}, {"id": 499216, "min_date": "2022-05-11T10:34:00Z", "max_date": "2022-05-11T10:34:00Z", "count_points": 1, "latitude": 49.99202, "longitude": 29.40455, "city": "Popil'nya", "images": []}, {"id": 499217, "min_date": "2022-05-11T10:34:00Z", "max_date": "2022-05-11T11:23:00Z", "count_points": 2, "latitude": 48.98213, "longitude": 25.57852, "city": "Druzhba", "images": []}, {"id": 499218, "min_date": "2022-05-11T10:34:00Z", "max_date": "2022-05-11T11:23:00Z", "count_points": 2, "latitude": 48.70114, "longitude": 24.40511, "city": "Solotvyn", "images": []}, {"id": 499219, "min_date": "2022-05-11T10:34:00Z", "max_date": "2022-05-11T10:34:00Z", "count_points": 3, "latitude": 48.83975, "longitude": 25.55846, "city": "Nyrkiv", "images": []}, {"id": 499220, "min_date": "2022-05-11T10:34:00Z", "max_date": "2022-05-11T10:34:00Z", "count_points": 1, "latitude": 48.67559, "longitude": 24.97535, "city": "Otyniya", "images": []}, {"id": 499221, "min_date": "2022-05-11T10:34:00Z", "max_date": "2022-05-11T11:23:00Z", "count_points": 2, "latitude": 49.95177, "longitude": 32.57243, "city": "Orzhytsya", "images": []}, {"id": 499222, "min_date": "2022-05-11T10:34:00Z", "max_date": "2022-05-11T10:34:00Z", "count_points": 1, "latitude": 48.76384, "longitude": 27.00777, "city": "Dunaivtsi", "images": []}, {"id": 499223, "min_date": "2022-05-11T10:34:00Z", "max_date": "2022-05-11T10:34:00Z", "count_points": 1, "latitude": 49.66808, "longitude": 32.04233, "city": "Zolotonosha", "images": []}, {"id": 499224, "min_date": "2022-05-11T10:34:00Z", "max_date": "2022-05-11T10:34:00Z", "count_points": 1, "latitude": 48.77219, "longitude": 29.80457, "city": "Teplyk", "images": []}, {"id": 499225, "min_date": "2022-05-11T10:34:00Z", "max_date": "2022-05-11T11:23:00Z", "count_points": 4, "latitude": 48.69946, "longitude": 32.12228, "city": "Kropyvnytskyi", "images": [{"image_url": "499225.jpg", "timestamp": "2022-05-11T11:23:00Z"}]}, {"id": 499226, "min_date": "2022-05-11T10:34:00Z", "max_date": "2022-05-11T22:48:00Z", "count_points": 2, "latitude": 49.05752, "longitude": 35.06596, "city": "Mahdalynivka", "images": []}, {"id": 499228, "min_date": "2022-05-11T10:34:00Z", "max_date": "2022-05-11T09:43:00Z", "count_points": 4, "latitude": 48.28468, "longitude": 31.39307, "city": "Pomichna", "images": []}, {"id": 499229, "min_date": "2022-05-11T22:46:00Z", "max_date": "2022-05-12T10:15:00Z", "count_points": 2, "latitude": 50.6784, "longitude": 33.83539, "city": "Lypova Dolyna", "images": []}, {"id": 499230, "min_date": "2022-05-11T22:48:00Z", "max_date": "2022-05-11T23:35:00Z", "count_points": 4, "latitude": 50.24702, "longitude": 36.17257, "city": "Prudyanka", "images": []}, {"id": 499231, "min_date": "2022-05-11T22:48:00Z", "max_date": "2022-05-11T23:35:00Z", "count_points": 6, "latitude": 50.21324, "longitude": 36.3591, "city": "Prudyanka", "images": []}, {"id": 499232, "min_date": "2022-05-11T22:48:00Z", "max_date": "2022-05-11T22:48:00Z", "count_points": 1, "latitude": 48.10062, "longitude": 38.15246, "city": "Nyzhnya Krynka", "images": []}, {"id": 499233, "min_date": "2022-05-11T22:48:00Z", "max_date": "2022-05-11T22:48:00Z", "count_points": 1, "latitude": 48.0198, "longitude": 38.46154, "city": "Shakhtars\u2019k", "images": []}, {"id": 499234, "min_date": "2022-05-12T00:28:00Z", "max_date": "2022-05-12T00:28:00Z", "count_points": 2, "latitude": 49.20042, "longitude": 37.2546, "city": "Izyum", "images": []}, {"id": 499235, "min_date": "2022-05-12T00:28:00Z", "max_date": "2022-05-12T00:28:00Z", "count_points": 1, "latitude": 49.29626, "longitude": 24.06767, "city": "Zhydachiv", "images": []}, {"id": 499236, "min_date": "2022-05-12T00:28:00Z", "max_date": "2022-05-12T00:28:00Z", "count_points": 1, "latitude": 49.26526, "longitude": 23.89004, "city": "Stryi", "images": []}, {"id": 499237, "min_date": "2022-05-12T00:28:00Z", "max_date": "2022-05-12T11:04:00Z", "count_points": 8, "latitude": 49.0878, "longitude": 23.87429, "city": "Bolekhiv", "images": []}, {"id": 499238, "min_date": "2022-05-12T00:28:00Z", "max_date": "2022-05-12T01:17:00Z", "count_points": 6, "latitude": 48.9946, "longitude": 23.97843, "city": "Dolyna", "images": [{"image_url": "499238.jpg", "timestamp": "2022-05-12T01:17:00Z"}]}, {"id": 499239, "min_date": "2022-05-12T00:28:00Z", "max_date": "2022-05-11T23:37:00Z", "count_points": 2, "latitude": 49.66244, "longitude": 37.50361, "city": "Kupjansk", "images": []}, {"id": 499240, "min_date": "2022-05-12T00:28:00Z", "max_date": "2022-05-11T23:37:00Z", "count_points": 4, "latitude": 49.56159, "longitude": 37.69416, "city": "Kivsharivka", "images": [{"image_url": "499240.jpg", "timestamp": "2022-05-11T23:37:00Z"}]}, {"id": 499241, "min_date": "2022-05-12T00:28:00Z", "max_date": "2022-05-12T23:18:00Z", "count_points": 9, "latitude": 49.42834, "longitude": 37.60631, "city": "Borova", "images": []}, {"id": 499242, "min_date": "2022-05-12T00:28:00Z", "max_date": "2022-05-11T23:37:00Z", "count_points": 5, "latitude": 49.01775, "longitude": 37.31908, "city": "Studenok", "images": []}, {"id": 499243, "min_date": "2022-05-12T00:28:00Z", "max_date": "2022-05-12T00:28:00Z", "count_points": 1, "latitude": 50.03433, "longitude": 26.19435, "city": "Shumsk", "images": []}, {"id": 499244, "min_date": "2022-05-12T00:28:00Z", "max_date": "2022-05-12T00:28:00Z", "count_points": 1, "latitude": 50.07202, "longitude": 25.74806, "city": "Kremenets", "images": []}, {"id": 499245, "min_date": "2022-05-12T00:28:00Z", "max_date": "2022-05-12T11:04:00Z", "count_points": 7, "latitude": 47.88596, "longitude": 34.00537, "city": "Sholokhove", "images": [{"image_url": "499245.jpg", "timestamp": "2022-05-12T11:04:00Z"}]}, {"id": 499246, "min_date": "2022-05-12T00:28:00Z", "max_date": "2022-05-12T00:28:00Z", "count_points": 1, "latitude": 49.75618, "longitude": 24.46415, "city": "Peremyshlyany", "images": []}, {"id": 499247, "min_date": "2022-05-12T10:13:00Z", "max_date": "2022-05-12T23:18:00Z", "count_points": 10, "latitude": 49.13863, "longitude": 37.37074, "city": "Chervonyy Oskil", "images": [{"image_url": "499247.jpg", "timestamp": "2022-05-12T23:18:00Z"}]}, {"id": 499248, "min_date": "2022-05-12T10:13:00Z", "max_date": "2022-05-12T10:13:00Z", "count_points": 1, "latitude": 49.11032, "longitude": 36.99636, "city": "Petrivs\u2019ke", "images": []}, {"id": 499249, "min_date": "2022-05-12T10:13:00Z", "max_date": "2022-05-15T10:09:00Z", "count_points": 177, "latitude": 49.23324, "longitude": 37.07349, "city": "Izyum", "images": [{"image_url": "499249.jpg", "timestamp": "2022-05-15T10:09:00Z"}]}, {"id": 499250, "min_date": "2022-05-12T10:13:00Z", "max_date": "2022-05-12T23:18:00Z", "count_points": 4, "latitude": 49.15489, "longitude": 36.95937, "city": "Petrivs\u2019ke", "images": []}, {"id": 499251, "min_date": "2022-05-12T10:13:00Z", "max_date": "2022-05-12T10:13:00Z", "count_points": 1, "latitude": 45.53868, "longitude": 33.86585, "city": "Voykovo", "images": []}, {"id": 499252, "min_date": "2022-05-12T10:13:00Z", "max_date": "2022-05-12T11:04:00Z", "count_points": 14, "latitude": 46.3214, "longitude": 32.04944, "city": "Bekhtery", "images": [{"image_url": "499252.jpg", "timestamp": "2022-05-12T11:04:00Z"}]}, {"id": 499253, "min_date": "2022-05-12T10:13:00Z", "max_date": "2022-05-12T10:13:00Z", "count_points": 1, "latitude": 47.67714, "longitude": 38.32479, "city": "Kuteynykove", "images": []}, {"id": 499254, "min_date": "2022-05-12T10:13:00Z", "max_date": "2022-05-12T10:13:00Z", "count_points": 1, "latitude": 46.60083, "longitude": 32.29965, "city": "Bilozerka", "images": []}, {"id": 499255, "min_date": "2022-05-12T10:13:00Z", "max_date": "2022-05-12T10:13:00Z", "count_points": 1, "latitude": 47.71761, "longitude": 38.02805, "city": "Starobesheve", "images": []}, {"id": 499256, "min_date": "2022-05-12T10:13:00Z", "max_date": "2022-05-12T10:13:00Z", "count_points": 1, "latitude": 47.61485, "longitude": 37.15894, "city": "Rozivka", "images": []}, {"id": 499258, "min_date": "2022-05-12T10:13:00Z", "max_date": "2022-05-12T10:13:00Z", "count_points": 1, "latitude": 47.777, "longitude": 37.27024, "city": "Blahodatne", "images": []}, {"id": 499259, "min_date": "2022-05-12T10:13:00Z", "max_date": "2022-05-09T10:19:00Z", "count_points": 2, "latitude": 47.83968, "longitude": 37.5119, "city": "Mareyka", "images": []}, {"id": 499260, "min_date": "2022-05-12T10:13:00Z", "max_date": "2022-05-12T10:13:00Z", "count_points": 1, "latitude": 47.06627, "longitude": 32.73306, "city": "Snihurivka", "images": []}, {"id": 499261, "min_date": "2022-05-12T10:13:00Z", "max_date": "2022-05-12T10:13:00Z", "count_points": 1, "latitude": 47.74724, "longitude": 36.07632, "city": "Ternuvate", "images": []}, {"id": 499262, "min_date": "2022-05-12T10:13:00Z", "max_date": "2022-05-12T11:04:00Z", "count_points": 2, "latitude": 47.78383, "longitude": 36.27319, "city": "Hulyaypole", "images": []}, {"id": 499263, "min_date": "2022-05-12T10:13:00Z", "max_date": "2022-05-12T11:04:00Z", "count_points": 2, "latitude": 46.63193, "longitude": 30.00641, "city": "Lymanske", "images": []}, {"id": 499264, "min_date": "2022-05-12T10:13:00Z", "max_date": "2022-05-12T09:24:00Z", "count_points": 9, "latitude": 48.19978, "longitude": 38.05889, "city": "Krinichnaya", "images": []}, {"id": 499265, "min_date": "2022-05-12T10:13:00Z", "max_date": "2022-05-12T10:13:00Z", "count_points": 1, "latitude": 48.25611, "longitude": 37.6328, "city": "Avdiyivka", "images": []}, {"id": 499266, "min_date": "2022-05-12T10:13:00Z", "max_date": "2022-05-12T10:13:00Z", "count_points": 1, "latitude": 48.35418, "longitude": 37.95886, "city": "Horlivka", "images": []}, {"id": 499267, "min_date": "2022-05-12T10:13:00Z", "max_date": "2022-05-09T00:35:00Z", "count_points": 2, "latitude": 48.38253, "longitude": 37.96492, "city": "Horlivka", "images": []}, {"id": 499268, "min_date": "2022-05-12T10:13:00Z", "max_date": "2022-05-12T08:50:00Z", "count_points": 2, "latitude": 47.86771, "longitude": 34.83294, "city": "Tomakivka", "images": []}, {"id": 499269, "min_date": "2022-05-12T10:13:00Z", "max_date": "2022-05-12T10:13:00Z", "count_points": 1, "latitude": 47.97628, "longitude": 34.5956, "city": "Novopokrovka", "images": []}, {"id": 499270, "min_date": "2022-05-12T10:13:00Z", "max_date": "2022-05-12T11:04:00Z", "count_points": 6, "latitude": 48.36163, "longitude": 36.38775, "city": "Petropavlivka", "images": []}, {"id": 499271, "min_date": "2022-05-12T10:13:00Z", "max_date": "2022-05-12T10:13:00Z", "count_points": 1, "latitude": 48.35434, "longitude": 35.83623, "city": "Pavlohrad", "images": []}, {"id": 499272, "min_date": "2022-05-12T10:13:00Z", "max_date": "2022-05-12T10:13:00Z", "count_points": 1, "latitude": 48.28888, "longitude": 35.07914, "city": "Aviatorske", "images": []}, {"id": 499273, "min_date": "2022-05-12T10:13:00Z", "max_date": "2022-05-12T09:24:00Z", "count_points": 3, "latitude": 48.78629, "longitude": 38.08089, "city": "Sivers\u2019k", "images": []}, {"id": 499274, "min_date": "2022-05-12T10:13:00Z", "max_date": "2022-05-12T11:04:00Z", "count_points": 3, "latitude": 49.04783, "longitude": 39.48069, "city": "Bilovods'k", "images": []}, {"id": 499275, "min_date": "2022-05-12T10:13:00Z", "max_date": "2022-05-12T23:18:00Z", "count_points": 6, "latitude": 48.89184, "longitude": 38.15365, "city": "Serebryanka", "images": []}, {"id": 499276, "min_date": "2022-05-12T10:13:00Z", "max_date": "2022-05-12T11:04:00Z", "count_points": 3, "latitude": 47.88387, "longitude": 32.08934, "city": "Bobrynets", "images": []}, {"id": 499277, "min_date": "2022-05-12T10:13:00Z", "max_date": "2022-05-12T10:13:00Z", "count_points": 1, "latitude": 49.11145, "longitude": 37.20054, "city": "Izyum", "images": []}, {"id": 499279, "min_date": "2022-05-12T10:15:00Z", "max_date": "2022-05-12T10:15:00Z", "count_points": 1, "latitude": 50.10781, "longitude": 36.56818, "city": "Staryy Saltiv", "images": []}, {"id": 499280, "min_date": "2022-05-12T10:15:00Z", "max_date": "2022-05-12T10:15:00Z", "count_points": 1, "latitude": 51.35479, "longitude": 24.10961, "city": "Liuboml", "images": []}, {"id": 499281, "min_date": "2022-05-12T10:15:00Z", "max_date": "2022-05-12T10:15:00Z", "count_points": 1, "latitude": 51.06248, "longitude": 24.20286, "city": "Liuboml", "images": []}, {"id": 499283, "min_date": "2022-05-12T10:15:00Z", "max_date": "2022-05-12T11:06:00Z", "count_points": 5, "latitude": 50.89615, "longitude": 24.36912, "city": "Volodymyr-Volynskyi", "images": []}, {"id": 499284, "min_date": "2022-05-12T10:15:00Z", "max_date": "2022-05-12T10:15:00Z", "count_points": 1, "latitude": 51.11295, "longitude": 26.71867, "city": "Berezne", "images": []}, {"id": 499285, "min_date": "2022-05-12T10:15:00Z", "max_date": "2022-05-12T08:50:00Z", "count_points": 4, "latitude": 52.05215, "longitude": 32.60371, "city": "Semenivka", "images": []}, {"id": 499286, "min_date": "2022-05-12T10:15:00Z", "max_date": "2022-05-12T10:15:00Z", "count_points": 1, "latitude": 49.70407, "longitude": 23.19527, "city": "Pnikut", "images": []}, {"id": 499287, "min_date": "2022-05-12T10:15:00Z", "max_date": "2022-05-12T10:15:00Z", "count_points": 1, "latitude": 50.25578, "longitude": 26.03571, "city": "Shumsk", "images": []}, {"id": 499288, "min_date": "2022-05-12T10:15:00Z", "max_date": "2022-05-12T11:06:00Z", "count_points": 11, "latitude": 51.10865, "longitude": 29.79043, "city": "Krasyatychi", "images": [{"image_url": "499288.jpg", "timestamp": "2022-05-12T11:06:00Z"}]}, {"id": 499289, "min_date": "2022-05-12T10:15:00Z", "max_date": "2022-05-13T10:45:00Z", "count_points": 70, "latitude": 51.15089, "longitude": 30.18979, "city": "Kryva Hora", "images": [{"image_url": "499289.jpg", "timestamp": "2022-05-13T10:45:00Z"}]}, {"id": 499290, "min_date": "2022-05-12T10:15:00Z", "max_date": "2022-05-12T11:04:00Z", "count_points": 12, "latitude": 49.29347, "longitude": 23.52745, "city": "Truskavets\u2019", "images": []}, {"id": 499291, "min_date": "2022-05-12T10:15:00Z", "max_date": "2022-05-12T09:26:00Z", "count_points": 2, "latitude": 50.46293, "longitude": 28.6114, "city": "Cherniakhiv", "images": []}, {"id": 499292, "min_date": "2022-05-12T10:15:00Z", "max_date": "2022-05-12T11:04:00Z", "count_points": 2, "latitude": 49.1473, "longitude": 23.72244, "city": "Ulychne", "images": []}, {"id": 499293, "min_date": "2022-05-12T10:15:00Z", "max_date": "2022-05-12T11:06:00Z", "count_points": 18, "latitude": 50.57421, "longitude": 29.71206, "city": "Makariv", "images": [{"image_url": "499293.jpg", "timestamp": "2022-05-12T11:06:00Z"}]}, {"id": 499294, "min_date": "2022-05-12T10:15:00Z", "max_date": "2022-05-12T10:15:00Z", "count_points": 2, "latitude": 50.17755, "longitude": 28.63555, "city": "Zhytomyr", "images": []}, {"id": 499295, "min_date": "2022-05-12T10:15:00Z", "max_date": "2022-05-12T11:06:00Z", "count_points": 15, "latitude": 50.89348, "longitude": 31.98203, "city": "Talalayivka", "images": [{"image_url": "499295.jpg", "timestamp": "2022-05-12T11:06:00Z"}]}, {"id": 499296, "min_date": "2022-05-12T10:15:00Z", "max_date": "2022-05-12T11:04:00Z", "count_points": 3, "latitude": 49.15448, "longitude": 24.67438, "city": "Halych", "images": []}, {"id": 499297, "min_date": "2022-05-12T10:15:00Z", "max_date": "2022-05-12T09:26:00Z", "count_points": 2, "latitude": 51.16878, "longitude": 33.45984, "city": "Sloboda", "images": []}, {"id": 499298, "min_date": "2022-05-12T10:15:00Z", "max_date": "2022-05-12T10:15:00Z", "count_points": 1, "latitude": 50.29626, "longitude": 29.21585, "city": "Korostyshiv", "images": []}, {"id": 499299, "min_date": "2022-05-12T10:15:00Z", "max_date": "2022-05-13T10:45:00Z", "count_points": 4, "latitude": 50.9428, "longitude": 32.55638, "city": "Ichnya", "images": []}, {"id": 499300, "min_date": "2022-05-12T10:15:00Z", "max_date": "2022-05-12T11:04:00Z", "count_points": 7, "latitude": 50.46403, "longitude": 30.1787, "city": "Vorzel\u2019", "images": [{"image_url": "499300.jpg", "timestamp": "2022-05-12T11:04:00Z"}]}, {"id": 499301, "min_date": "2022-05-12T10:15:00Z", "max_date": "2022-05-12T11:06:00Z", "count_points": 21, "latitude": 50.78548, "longitude": 32.11257, "city": "Lisovi Sorochyntsi", "images": [{"image_url": "499301.jpg", "timestamp": "2022-05-12T11:06:00Z"}]}, {"id": 499302, "min_date": "2022-05-12T10:15:00Z", "max_date": "2022-05-12T09:26:00Z", "count_points": 2, "latitude": 51.05303, "longitude": 33.53749, "city": "Sloboda", "images": []}, {"id": 499303, "min_date": "2022-05-12T10:15:00Z", "max_date": "2022-05-12T11:04:00Z", "count_points": 2, "latitude": 49.72823, "longitude": 27.64231, "city": "Stara Syniava", "images": []}, {"id": 499304, "min_date": "2022-05-12T10:15:00Z", "max_date": "2022-05-12T11:04:00Z", "count_points": 3, "latitude": 50.61356, "longitude": 31.63861, "city": "Zgurovka", "images": []}, {"id": 499305, "min_date": "2022-05-12T10:15:00Z", "max_date": "2022-05-12T10:15:00Z", "count_points": 1, "latitude": 50.94926, "longitude": 33.57191, "city": "Romny", "images": []}, {"id": 499306, "min_date": "2022-05-12T10:15:00Z", "max_date": "2022-05-12T10:15:00Z", "count_points": 1, "latitude": 49.80196, "longitude": 28.42449, "city": "Berdychiv", "images": []}, {"id": 499307, "min_date": "2022-05-12T10:15:00Z", "max_date": "2022-05-12T11:04:00Z", "count_points": 5, "latitude": 50.89009, "longitude": 33.68548, "city": "Nedryhayliv", "images": []}, {"id": 499308, "min_date": "2022-05-12T10:15:00Z", "max_date": "2022-05-12T10:15:00Z", "count_points": 1, "latitude": 50.86627, "longitude": 33.7277, "city": "Nedryhayliv", "images": []}, {"id": 499309, "min_date": "2022-05-12T10:15:00Z", "max_date": "2022-05-12T10:15:00Z", "count_points": 1, "latitude": 50.75335, "longitude": 34.09768, "city": "Nedryhayliv", "images": []}, {"id": 499310, "min_date": "2022-05-12T10:15:00Z", "max_date": "2022-05-12T10:15:00Z", "count_points": 1, "latitude": 49.33743, "longitude": 27.56289, "city": "Letychiv", "images": []}, {"id": 499311, "min_date": "2022-05-12T10:15:00Z", "max_date": "2022-05-12T10:15:00Z", "count_points": 1, "latitude": 49.59887, "longitude": 29.45181, "city": "Topory", "images": []}, {"id": 499312, "min_date": "2022-05-12T10:15:00Z", "max_date": "2022-05-12T11:04:00Z", "count_points": 16, "latitude": 49.03673, "longitude": 27.47619, "city": "Bar", "images": []}, {"id": 499314, "min_date": "2022-05-12T10:15:00Z", "max_date": "2022-05-12T11:04:00Z", "count_points": 8, "latitude": 49.40607, "longitude": 29.68194, "city": "Tetiiv", "images": [{"image_url": "499314.jpg", "timestamp": "2022-05-12T11:04:00Z"}]}, {"id": 499315, "min_date": "2022-05-12T10:15:00Z", "max_date": "2022-05-12T10:15:00Z", "count_points": 1, "latitude": 50.15916, "longitude": 33.76316, "city": "Komyshnya", "images": []}, {"id": 499316, "min_date": "2022-05-12T10:15:00Z", "max_date": "2022-05-12T10:38:00Z", "count_points": 4, "latitude": 49.91233, "longitude": 32.87888, "city": "Lubny", "images": []}, {"id": 499317, "min_date": "2022-05-12T10:15:00Z", "max_date": "2022-05-12T10:15:00Z", "count_points": 2, "latitude": 50.22575, "longitude": 34.68941, "city": "Kotel\u2019va", "images": []}, {"id": 499318, "min_date": "2022-05-12T10:15:00Z", "max_date": "2022-05-12T09:24:00Z", "count_points": 3, "latitude": 50.11963, "longitude": 34.20047, "city": "Zin\u2019kiv", "images": []}, {"id": 499319, "min_date": "2022-05-12T10:15:00Z", "max_date": "2022-05-12T10:15:00Z", "count_points": 1, "latitude": 50.36818, "longitude": 36.23643, "city": "Prudyanka", "images": []}, {"id": 499320, "min_date": "2022-05-12T10:15:00Z", "max_date": "2022-05-12T11:04:00Z", "count_points": 5, "latitude": 48.51673, "longitude": 27.30739, "city": "Novodnistrovs\u2019k", "images": []}, {"id": 499321, "min_date": "2022-05-12T10:15:00Z", "max_date": "2022-05-12T09:24:00Z", "count_points": 2, "latitude": 50.30698, "longitude": 35.98826, "city": "Zolochiv", "images": []}, {"id": 499322, "min_date": "2022-05-12T10:15:00Z", "max_date": "2022-05-12T10:15:00Z", "count_points": 1, "latitude": 48.22853, "longitude": 26.29288, "city": "Marshintsy", "images": []}, {"id": 499323, "min_date": "2022-05-12T10:15:00Z", "max_date": "2022-05-12T10:15:00Z", "count_points": 1, "latitude": 48.06059, "longitude": 26.01681, "city": "Hlyboka", "images": []}, {"id": 499324, "min_date": "2022-05-12T10:15:00Z", "max_date": "2022-05-12T11:04:00Z", "count_points": 6, "latitude": 50.19355, "longitude": 36.22878, "city": "Prudyanka", "images": []}, {"id": 499325, "min_date": "2022-05-12T10:15:00Z", "max_date": "2022-05-12T10:15:00Z", "count_points": 2, "latitude": 50.22121, "longitude": 36.41655, "city": "Prudyanka", "images": []}, {"id": 499326, "min_date": "2022-05-12T10:15:00Z", "max_date": "2022-05-14T10:28:00Z", "count_points": 14, "latitude": 50.19423, "longitude": 36.29668, "city": "Prudyanka", "images": []}, {"id": 499327, "min_date": "2022-05-12T10:15:00Z", "max_date": "2022-05-15T10:09:00Z", "count_points": 6, "latitude": 50.2252, "longitude": 36.62091, "city": "Staryy Saltiv", "images": []}, {"id": 499328, "min_date": "2022-05-12T10:15:00Z", "max_date": "2022-05-12T11:04:00Z", "count_points": 5, "latitude": 48.65109, "longitude": 28.64125, "city": "Vapnyarka", "images": [{"image_url": "499328.jpg", "timestamp": "2022-05-12T11:04:00Z"}]}, {"id": 499329, "min_date": "2022-05-12T10:15:00Z", "max_date": "2022-05-12T11:04:00Z", "count_points": 8, "latitude": 50.12716, "longitude": 36.63446, "city": "Staryy Saltiv", "images": []}, {"id": 499330, "min_date": "2022-05-12T10:15:00Z", "max_date": "2022-05-12T10:15:00Z", "count_points": 2, "latitude": 50.07047, "longitude": 36.48444, "city": "Kulynychi", "images": []}, {"id": 499331, "min_date": "2022-05-12T10:15:00Z", "max_date": "2022-05-12T10:15:00Z", "count_points": 1, "latitude": 49.78537, "longitude": 34.79557, "city": "Oposhnya", "images": []}, {"id": 499332, "min_date": "2022-05-12T10:15:00Z", "max_date": "2022-05-12T10:38:00Z", "count_points": 2, "latitude": 50.02965, "longitude": 36.43158, "city": "Kulynychi", "images": []}, {"id": 499333, "min_date": "2022-05-12T10:15:00Z", "max_date": "2022-05-12T11:04:00Z", "count_points": 3, "latitude": 49.08163, "longitude": 31.88113, "city": "Smila", "images": []}, {"id": 499334, "min_date": "2022-05-12T10:15:00Z", "max_date": "2022-05-12T10:38:00Z", "count_points": 3, "latitude": 49.73788, "longitude": 35.38608, "city": "Kolomak", "images": []}, {"id": 499335, "min_date": "2022-05-12T10:15:00Z", "max_date": "2022-05-12T09:24:00Z", "count_points": 5, "latitude": 49.71697, "longitude": 36.83253, "city": "Malynivka", "images": []}, {"id": 499337, "min_date": "2022-05-12T10:15:00Z", "max_date": "2022-05-12T10:15:00Z", "count_points": 2, "latitude": 49.67076, "longitude": 37.66413, "city": "Kivsharivka", "images": []}, {"id": 499338, "min_date": "2022-05-12T10:15:00Z", "max_date": "2022-05-12T10:15:00Z", "count_points": 2, "latitude": 48.34902, "longitude": 30.80596, "city": "Vil\u2019shanka", "images": []}, {"id": 499339, "min_date": "2022-05-12T10:15:00Z", "max_date": "2022-05-12T10:15:00Z", "count_points": 1, "latitude": 49.45465, "longitude": 36.80624, "city": "Balakliya", "images": []}, {"id": 499340, "min_date": "2022-05-12T10:15:00Z", "max_date": "2022-05-11T23:37:00Z", "count_points": 3, "latitude": 49.43013, "longitude": 36.82449, "city": "Balakliya", "images": []}, {"id": 499341, "min_date": "2022-05-12T10:15:00Z", "max_date": "2022-05-12T10:15:00Z", "count_points": 1, "latitude": 49.41169, "longitude": 37.18922, "city": "Savyntsi", "images": []}, {"id": 499342, "min_date": "2022-05-12T10:15:00Z", "max_date": "2022-05-12T11:04:00Z", "count_points": 3, "latitude": 49.48721, "longitude": 37.68662, "city": "Borova", "images": []}, {"id": 499343, "min_date": "2022-05-12T11:55:00Z", "max_date": "2022-05-12T11:55:00Z", "count_points": 4, "latitude": 50.97382, "longitude": 32.72404, "city": "Bakhmach", "images": []}, {"id": 499344, "min_date": "2022-05-12T11:55:00Z", "max_date": "2022-05-12T11:55:00Z", "count_points": 1, "latitude": 50.82948, "longitude": 29.80152, "city": "Ivankiv", "images": []}, {"id": 499345, "min_date": "2022-05-12T11:55:00Z", "max_date": "2022-05-12T11:06:00Z", "count_points": 6, "latitude": 50.89133, "longitude": 29.70334, "city": "Krasyatychi", "images": []}, {"id": 499346, "min_date": "2022-05-12T11:55:00Z", "max_date": "2022-05-12T11:04:00Z", "count_points": 2, "latitude": 48.53759, "longitude": 22.62675, "city": "Rakoshyno", "images": []}, {"id": 499347, "min_date": "2022-05-12T11:55:00Z", "max_date": "2022-05-12T11:55:00Z", "count_points": 2, "latitude": 48.95985, "longitude": 32.89151, "city": "Dmytrivka", "images": []}, {"id": 499348, "min_date": "2022-05-12T11:55:00Z", "max_date": "2022-05-12T11:55:00Z", "count_points": 1, "latitude": 49.10103, "longitude": 29.97716, "city": "Tsibulev", "images": []}, {"id": 499349, "min_date": "2022-05-12T11:55:00Z", "max_date": "2022-05-12T11:55:00Z", "count_points": 2, "latitude": 49.38401, "longitude": 30.42384, "city": "Kalynove", "images": []}, {"id": 499350, "min_date": "2022-05-12T11:55:00Z", "max_date": "2022-05-12T11:04:00Z", "count_points": 2, "latitude": 49.55575, "longitude": 23.90857, "city": "Demnya", "images": []}, {"id": 499351, "min_date": "2022-05-12T11:55:00Z", "max_date": "2022-05-12T11:55:00Z", "count_points": 2, "latitude": 50.25827, "longitude": 29.0279, "city": "Korostyshiv", "images": []}, {"id": 499352, "min_date": "2022-05-12T11:55:00Z", "max_date": "2022-05-12T11:55:00Z", "count_points": 1, "latitude": 50.36365, "longitude": 32.02502, "city": "Chernyakhivka", "images": []}, {"id": 499353, "min_date": "2022-05-12T11:55:00Z", "max_date": "2022-05-12T11:55:00Z", "count_points": 2, "latitude": 50.50088, "longitude": 24.89321, "city": "Horokhiv", "images": []}, {"id": 499354, "min_date": "2022-05-12T11:55:00Z", "max_date": "2022-05-12T11:55:00Z", "count_points": 9, "latitude": 51.18277, "longitude": 25.24241, "city": "Lukiv", "images": []}, {"id": 499356, "min_date": "2022-05-12T11:55:00Z", "max_date": "2022-05-12T11:06:00Z", "count_points": 31, "latitude": 51.48759, "longitude": 26.00393, "city": "Volodymyrets\u2019", "images": [{"image_url": "499356.jpg", "timestamp": "2022-05-12T11:06:00Z"}]}, {"id": 499357, "min_date": "2022-05-12T11:55:00Z", "max_date": "2022-05-12T11:06:00Z", "count_points": 4, "latitude": 51.85726, "longitude": 25.90916, "city": "Kuznetsovs\u2019k", "images": [{"image_url": "499357.jpg", "timestamp": "2022-05-12T11:06:00Z"}]}, {"id": 499358, "min_date": "2022-05-12T11:55:00Z", "max_date": "2022-05-12T11:55:00Z", "count_points": 1, "latitude": 50.78368, "longitude": 29.21191, "city": "Malyn", "images": []}, {"id": 499359, "min_date": "2022-05-12T11:55:00Z", "max_date": "2022-05-12T11:55:00Z", "count_points": 1, "latitude": 50.66505, "longitude": 32.11916, "city": "Lisovi Sorochyntsi", "images": []}, {"id": 499360, "min_date": "2022-05-12T11:55:00Z", "max_date": "2022-05-10T09:02:00Z", "count_points": 3, "latitude": 50.63752, "longitude": 32.09818, "city": "Lisovi Sorochyntsi", "images": []}, {"id": 499361, "min_date": "2022-05-12T22:27:00Z", "max_date": "2022-05-12T23:18:00Z", "count_points": 3, "latitude": 47.9205, "longitude": 39.44036, "city": "Roven\u2019ky", "images": []}, {"id": 499362, "min_date": "2022-05-12T22:27:00Z", "max_date": "2022-05-12T23:18:00Z", "count_points": 4, "latitude": 49.17169, "longitude": 38.7353, "city": "Starobil\u2019s\u2019k", "images": []}, {"id": 499363, "min_date": "2022-05-12T22:27:00Z", "max_date": "2022-05-12T22:27:00Z", "count_points": 1, "latitude": 48.27354, "longitude": 37.84457, "city": "Dzerzhyns\u2019k", "images": []}, {"id": 499364, "min_date": "2022-05-12T22:27:00Z", "max_date": "2022-05-12T23:18:00Z", "count_points": 3, "latitude": 49.41547, "longitude": 37.01676, "city": "Savyntsi", "images": []}, {"id": 499365, "min_date": "2022-05-12T22:27:00Z", "max_date": "2022-05-12T23:18:00Z", "count_points": 5, "latitude": 49.22266, "longitude": 36.95522, "city": "Petrivs\u2019ke", "images": [{"image_url": "499365.jpg", "timestamp": "2022-05-12T23:18:00Z"}]}, {"id": 499367, "min_date": "2022-05-13T00:07:00Z", "max_date": "2022-05-13T00:07:00Z", "count_points": 2, "latitude": 52.26093, "longitude": 33.39601, "city": "Novhorod-Sivers\u2019kyy", "images": []}, {"id": 499368, "min_date": "2022-05-13T00:07:00Z", "max_date": "2022-05-13T00:58:00Z", "count_points": 5, "latitude": 50.17364, "longitude": 36.12748, "city": "Slatyne", "images": []}, {"id": 499369, "min_date": "2022-05-13T00:09:00Z", "max_date": "2022-05-12T23:18:00Z", "count_points": 2, "latitude": 47.41974, "longitude": 35.45917, "city": "Vasylivka", "images": []}, {"id": 499370, "min_date": "2022-05-13T00:09:00Z", "max_date": "2022-05-13T00:09:00Z", "count_points": 1, "latitude": 47.67392, "longitude": 37.53239, "city": "Volnovakha", "images": []}, {"id": 499371, "min_date": "2022-05-13T00:09:00Z", "max_date": "2022-05-13T00:09:00Z", "count_points": 2, "latitude": 48.3998, "longitude": 34.46698, "city": "Krynychky", "images": []}, {"id": 499372, "min_date": "2022-05-13T00:09:00Z", "max_date": "2022-05-12T23:18:00Z", "count_points": 2, "latitude": 47.84938, "longitude": 37.37346, "city": "Blahodatne", "images": []}, {"id": 499373, "min_date": "2022-05-13T00:09:00Z", "max_date": "2022-05-13T00:09:00Z", "count_points": 1, "latitude": 48.51128, "longitude": 34.989, "city": "Dnipro", "images": []}, {"id": 499374, "min_date": "2022-05-13T00:09:00Z", "max_date": "2022-05-13T00:09:00Z", "count_points": 1, "latitude": 48.63617, "longitude": 38.45739, "city": "Popasna", "images": []}, {"id": 499375, "min_date": "2022-05-13T00:09:00Z", "max_date": "2022-05-12T11:04:00Z", "count_points": 6, "latitude": 49.07632, "longitude": 38.2255, "city": "Kreminna", "images": []}, {"id": 499376, "min_date": "2022-05-13T00:09:00Z", "max_date": "2022-05-12T23:18:00Z", "count_points": 14, "latitude": 49.05384, "longitude": 38.34932, "city": "Rubizhne", "images": []}, {"id": 499377, "min_date": "2022-05-13T00:09:00Z", "max_date": "2022-05-14T10:28:00Z", "count_points": 15, "latitude": 50.86658, "longitude": 29.52469, "city": "Piskivka", "images": []}, {"id": 499378, "min_date": "2022-05-13T00:09:00Z", "max_date": "2022-05-13T00:09:00Z", "count_points": 1, "latitude": 50.75087, "longitude": 31.02405, "city": "Semypolky", "images": []}, {"id": 499379, "min_date": "2022-05-13T00:09:00Z", "max_date": "2022-05-12T23:18:00Z", "count_points": 2, "latitude": 49.0725, "longitude": 37.30114, "city": "Izyum", "images": []}, {"id": 499380, "min_date": "2022-05-13T00:09:00Z", "max_date": "2022-05-13T10:45:00Z", "count_points": 3, "latitude": 48.97837, "longitude": 37.72518, "city": "Krasnyy Lyman", "images": []}, {"id": 499381, "min_date": "2022-05-13T00:09:00Z", "max_date": "2022-05-13T10:45:00Z", "count_points": 17, "latitude": 48.83907, "longitude": 38.60448, "city": "Toshkivka", "images": [{"image_url": "499381.jpg", "timestamp": "2022-05-13T10:45:00Z"}]}, {"id": 499382, "min_date": "2022-05-13T00:09:00Z", "max_date": "2022-05-13T09:07:00Z", "count_points": 5, "latitude": 49.2313, "longitude": 37.24685, "city": "Izyum", "images": [{"image_url": "499382.jpg", "timestamp": "2022-05-13T09:07:00Z"}]}, {"id": 499383, "min_date": "2022-05-13T00:09:00Z", "max_date": "2022-05-12T20:02:00Z", "count_points": 2, "latitude": 51.32901, "longitude": 25.12149, "city": "Ho\u0142oby", "images": []}, {"id": 499384, "min_date": "2022-05-13T09:56:00Z", "max_date": "2022-05-13T09:56:00Z", "count_points": 1, "latitude": 50.67762, "longitude": 31.83066, "city": "Zgurovka", "images": []}, {"id": 499385, "min_date": "2022-05-13T09:56:00Z", "max_date": "2022-05-13T09:56:00Z", "count_points": 1, "latitude": 50.39994, "longitude": 32.37977, "city": "Pryluky", "images": []}, {"id": 499386, "min_date": "2022-05-13T09:56:00Z", "max_date": "2022-05-13T09:05:00Z", "count_points": 3, "latitude": 50.23527, "longitude": 36.3193, "city": "Prudyanka", "images": []}, {"id": 499387, "min_date": "2022-05-13T09:56:00Z", "max_date": "2022-05-13T09:56:00Z", "count_points": 1, "latitude": 48.84903, "longitude": 38.76625, "city": "Frunze", "images": []}, {"id": 499388, "min_date": "2022-05-13T09:56:00Z", "max_date": "2022-05-13T09:56:00Z", "count_points": 1, "latitude": 49.06441, "longitude": 38.27266, "city": "Kreminna", "images": []}, {"id": 499389, "min_date": "2022-05-13T09:56:00Z", "max_date": "2022-05-13T10:45:00Z", "count_points": 6, "latitude": 50.16596, "longitude": 36.84539, "city": "Staryy Saltiv", "images": [{"image_url": "499389.jpg", "timestamp": "2022-05-13T10:45:00Z"}]}, {"id": 499390, "min_date": "2022-05-13T09:56:00Z", "max_date": "2022-05-13T09:56:00Z", "count_points": 1, "latitude": 48.99626, "longitude": 32.43496, "city": "Yelyzavethradka", "images": []}, {"id": 499391, "min_date": "2022-05-13T09:56:00Z", "max_date": "2022-05-13T10:45:00Z", "count_points": 2, "latitude": 49.82837, "longitude": 36.73789, "city": "Malynivka", "images": []}, {"id": 499392, "min_date": "2022-05-13T09:56:00Z", "max_date": "2022-05-13T09:56:00Z", "count_points": 1, "latitude": 49.00008, "longitude": 33.06092, "city": "Svitlovods\u2019k", "images": []}, {"id": 499394, "min_date": "2022-05-13T09:56:00Z", "max_date": "2022-05-13T10:45:00Z", "count_points": 2, "latitude": 49.42068, "longitude": 36.21232, "city": "Pervomays\u2019kyy", "images": []}, {"id": 499395, "min_date": "2022-05-13T09:56:00Z", "max_date": "2022-05-13T10:45:00Z", "count_points": 2, "latitude": 49.10287, "longitude": 34.82036, "city": "Hupalivka", "images": []}, {"id": 499396, "min_date": "2022-05-13T09:56:00Z", "max_date": "2022-05-13T09:56:00Z", "count_points": 1, "latitude": 48.27593, "longitude": 31.79229, "city": "Rivne", "images": []}, {"id": 499397, "min_date": "2022-05-13T09:56:00Z", "max_date": "2022-05-13T09:56:00Z", "count_points": 1, "latitude": 48.65982, "longitude": 34.00708, "city": "Lykhivka", "images": []}, {"id": 499398, "min_date": "2022-05-13T09:56:00Z", "max_date": "2022-05-13T09:56:00Z", "count_points": 1, "latitude": 48.70108, "longitude": 34.72379, "city": "Petrykivka", "images": []}, {"id": 499399, "min_date": "2022-05-13T09:58:00Z", "max_date": "2022-05-13T10:45:00Z", "count_points": 13, "latitude": 51.67826, "longitude": 25.9573, "city": "Kuznetsovs\u2019k", "images": []}, {"id": 499400, "min_date": "2022-05-13T11:36:00Z", "max_date": "2022-05-13T00:58:00Z", "count_points": 3, "latitude": 48.2253, "longitude": 37.52026, "city": "Selydove", "images": []}, {"id": 499401, "min_date": "2022-05-13T11:36:00Z", "max_date": "2022-05-13T10:45:00Z", "count_points": 4, "latitude": 48.47362, "longitude": 31.57064, "city": "Zlynka", "images": []}, {"id": 499402, "min_date": "2022-05-13T11:36:00Z", "max_date": "2022-05-13T10:45:00Z", "count_points": 4, "latitude": 48.2274, "longitude": 32.41128, "city": "Kompaniyivka", "images": []}, {"id": 499403, "min_date": "2022-05-13T11:38:00Z", "max_date": "2022-05-13T11:38:00Z", "count_points": 1, "latitude": 51.82772, "longitude": 25.13341, "city": "Kamin-Kashyrskyi", "images": []}, {"id": 499404, "min_date": "2022-05-13T11:38:00Z", "max_date": "2022-05-11T23:37:00Z", "count_points": 3, "latitude": 48.73996, "longitude": 33.979, "city": "Lykhivka", "images": []}, {"id": 499405, "min_date": "2022-05-13T11:38:00Z", "max_date": "2022-05-13T10:45:00Z", "count_points": 2, "latitude": 51.5247, "longitude": 27.56479, "city": "Olevs\u2019k", "images": []}, {"id": 499406, "min_date": "2022-05-13T11:38:00Z", "max_date": "2022-05-13T11:38:00Z", "count_points": 1, "latitude": 50.83029, "longitude": 24.43933, "city": "Volodymyr-Volynskyi", "images": []}, {"id": 499407, "min_date": "2022-05-13T11:38:00Z", "max_date": "2022-05-12T11:04:00Z", "count_points": 3, "latitude": 50.7191, "longitude": 32.15445, "city": "Lisovi Sorochyntsi", "images": []}, {"id": 499408, "min_date": "2022-05-13T11:38:00Z", "max_date": "2022-05-13T11:38:00Z", "count_points": 1, "latitude": 50.7066, "longitude": 33.72649, "city": "Lypova Dolyna", "images": []}, {"id": 499409, "min_date": "2022-05-13T23:50:00Z", "max_date": "2022-05-13T23:50:00Z", "count_points": 1, "latitude": 48.19871, "longitude": 39.72821, "city": "Krasnodon", "images": []}, {"id": 499410, "min_date": "2022-05-13T23:50:00Z", "max_date": "2022-05-13T23:50:00Z", "count_points": 1, "latitude": 50.20445, "longitude": 36.84045, "city": "Vovchans\u2019k", "images": []}, {"id": 499411, "min_date": "2022-05-14T09:37:00Z", "max_date": "2022-05-14T09:37:00Z", "count_points": 2, "latitude": 50.90511, "longitude": 33.35728, "city": "Romny", "images": []}, {"id": 499412, "min_date": "2022-05-14T11:17:00Z", "max_date": "2022-05-14T11:17:00Z", "count_points": 2, "latitude": 49.81936, "longitude": 37.02469, "city": "Pechenihy", "images": []}, {"id": 499413, "min_date": "2022-05-14T11:17:00Z", "max_date": "2022-05-14T11:17:00Z", "count_points": 2, "latitude": 45.40535, "longitude": 28.85021, "city": "Izmayil", "images": []}, {"id": 499414, "min_date": "2022-05-14T11:17:00Z", "max_date": "2022-05-14T11:17:00Z", "count_points": 1, "latitude": 45.56784, "longitude": 29.69337, "city": "Vylkove", "images": []}, {"id": 499415, "min_date": "2022-05-14T11:17:00Z", "max_date": "2022-05-14T10:28:00Z", "count_points": 4, "latitude": 48.89993, "longitude": 24.20991, "city": "Rozhnyativ", "images": []}, {"id": 499416, "min_date": "2022-05-14T11:17:00Z", "max_date": "2022-05-14T11:17:00Z", "count_points": 1, "latitude": 50.15449, "longitude": 36.65849, "city": "Staryy Saltiv", "images": []}, {"id": 499417, "min_date": "2022-05-14T11:17:00Z", "max_date": "2022-05-14T11:17:00Z", "count_points": 1, "latitude": 50.17884, "longitude": 37.04847, "city": "Vovchans\u2019k", "images": []}, {"id": 499418, "min_date": "2022-05-14T11:17:00Z", "max_date": "2022-05-14T11:17:00Z", "count_points": 1, "latitude": 51.26164, "longitude": 32.59336, "city": "Borzna", "images": []}, {"id": 499419, "min_date": "2022-05-14T11:17:00Z", "max_date": "2022-05-14T11:17:00Z", "count_points": 1, "latitude": 49.68406, "longitude": 30.15244, "city": "Bila Tserkva", "images": []}, {"id": 499421, "min_date": "2022-05-14T11:17:00Z", "max_date": "2022-05-14T11:17:00Z", "count_points": 1, "latitude": 48.9796, "longitude": 27.88277, "city": "Kopayhorod", "images": []}, {"id": 499422, "min_date": "2022-05-14T11:17:00Z", "max_date": "2022-05-14T11:17:00Z", "count_points": 1, "latitude": 48.75037, "longitude": 24.1348, "city": "Nebyliv", "images": []}, {"id": 499423, "min_date": "2022-05-15T23:12:00Z", "max_date": "2022-05-15T23:12:00Z", "count_points": 2, "latitude": 49.76852, "longitude": 37.03514, "city": "Pechenihy", "images": []}, {"id": 499424, "min_date": "2022-05-15T23:12:00Z", "max_date": "2022-05-12T11:04:00Z", "count_points": 4, "latitude": 48.7518, "longitude": 38.37823, "city": "Popasna", "images": []}, {"id": 499425, "min_date": "2022-05-15T23:12:00Z", "max_date": "2022-05-15T23:12:00Z", "count_points": 1, "latitude": 49.00261, "longitude": 37.80753, "city": "Krasnyy Lyman", "images": []}, {"id": 499426, "min_date": "2022-05-09T08:20:00Z", "max_date": "2022-05-09T10:19:00Z", "count_points": 7, "latitude": 48.31096, "longitude": 37.82165, "city": "Shcherbynivka", "images": []}, {"id": 499427, "min_date": "2022-05-09T08:20:00Z", "max_date": "2022-05-09T08:20:00Z", "count_points": 1, "latitude": 48.07788, "longitude": 39.58235, "city": "Sverdlovs\u2019k", "images": []}, {"id": 499428, "min_date": "2022-05-09T08:20:00Z", "max_date": "2022-05-09T08:39:00Z", "count_points": 3, "latitude": 48.7907, "longitude": 38.90591, "city": "Tr\u2019okhizbenka", "images": []}, {"id": 499429, "min_date": "2022-05-09T08:20:00Z", "max_date": "2022-05-09T08:20:00Z", "count_points": 1, "latitude": 48.90658, "longitude": 38.202, "city": "Bilohorivka", "images": []}, {"id": 499430, "min_date": "2022-05-09T08:20:00Z", "max_date": "2022-05-09T08:20:00Z", "count_points": 1, "latitude": 48.9147, "longitude": 38.34643, "city": "Lysychans\u2019k", "images": []}, {"id": 499432, "min_date": "2022-05-09T08:20:00Z", "max_date": "2022-05-09T08:20:00Z", "count_points": 1, "latitude": 49.84414, "longitude": 30.5436, "city": "Mirovka", "images": []}, {"id": 499434, "min_date": "2022-05-09T10:09:00Z", "max_date": "2022-05-09T10:09:00Z", "count_points": 1, "latitude": 51.80118, "longitude": 31.67128, "city": "Horodnya", "images": []}, {"id": 499435, "min_date": "2022-05-09T10:09:00Z", "max_date": "2022-05-09T10:09:00Z", "count_points": 2, "latitude": 49.78866, "longitude": 32.56332, "city": "Orzhytsya", "images": []}, {"id": 499436, "min_date": "2022-05-09T11:47:00Z", "max_date": "2022-05-09T10:21:00Z", "count_points": 2, "latitude": 51.25332, "longitude": 32.32842, "city": "Borzna", "images": []}, {"id": 499437, "min_date": "2022-05-10T09:02:00Z", "max_date": "2022-05-10T09:02:00Z", "count_points": 1, "latitude": 51.70336, "longitude": 34.15804, "city": "Chervone", "images": []}, {"id": 499438, "min_date": "2022-05-10T09:02:00Z", "max_date": "2022-05-10T09:02:00Z", "count_points": 1, "latitude": 52.00351, "longitude": 31.31566, "city": "Dobryanka", "images": []}, {"id": 499439, "min_date": "2022-05-10T09:02:00Z", "max_date": "2022-05-10T09:02:00Z", "count_points": 1, "latitude": 51.93549, "longitude": 31.50415, "city": "Horodnya", "images": []}, {"id": 499440, "min_date": "2022-05-10T09:02:00Z", "max_date": "2022-05-10T09:02:00Z", "count_points": 1, "latitude": 51.46858, "longitude": 31.15092, "city": "Chernihiv", "images": []}, {"id": 499441, "min_date": "2022-05-10T09:02:00Z", "max_date": "2022-05-10T09:02:00Z", "count_points": 1, "latitude": 50.97639, "longitude": 29.74874, "city": "Krasyatychi", "images": []}, {"id": 499442, "min_date": "2022-05-10T09:02:00Z", "max_date": "2022-05-10T09:02:00Z", "count_points": 2, "latitude": 50.83337, "longitude": 25.13999, "city": "Rozhyshche", "images": []}, {"id": 499443, "min_date": "2022-05-10T09:05:00Z", "max_date": "2022-05-10T09:05:00Z", "count_points": 1, "latitude": 48.7267, "longitude": 32.68177, "city": "Znomenka", "images": []}, {"id": 499444, "min_date": "2022-05-10T09:05:00Z", "max_date": "2022-05-10T09:05:00Z", "count_points": 1, "latitude": 49.21518, "longitude": 30.28489, "city": "Buky", "images": []}, {"id": 499445, "min_date": "2022-05-10T10:51:00Z", "max_date": "2022-05-10T10:51:00Z", "count_points": 1, "latitude": 47.50407, "longitude": 29.51501, "city": "Okny", "images": []}, {"id": 499446, "min_date": "2022-05-10T10:51:00Z", "max_date": "2022-05-10T10:02:00Z", "count_points": 7, "latitude": 48.50387, "longitude": 29.83037, "city": "Hayvoron", "images": []}, {"id": 499447, "min_date": "2022-05-10T10:51:00Z", "max_date": "2022-05-10T10:51:00Z", "count_points": 1, "latitude": 50.80908, "longitude": 33.61482, "city": "Romny", "images": []}, {"id": 499448, "min_date": "2022-05-11T08:07:00Z", "max_date": "2022-05-11T08:07:00Z", "count_points": 1, "latitude": 50.59028, "longitude": 33.03699, "city": "Sribne", "images": []}, {"id": 499449, "min_date": "2022-05-11T08:07:00Z", "max_date": "2022-05-11T08:07:00Z", "count_points": 2, "latitude": 47.68381, "longitude": 37.88918, "city": "Starobesheve", "images": []}, {"id": 499450, "min_date": "2022-05-11T08:07:00Z", "max_date": "2022-05-12T09:24:00Z", "count_points": 4, "latitude": 47.80497, "longitude": 37.4079, "city": "Blahodatne", "images": []}, {"id": 499451, "min_date": "2022-05-11T09:45:00Z", "max_date": "2022-05-11T09:45:00Z", "count_points": 1, "latitude": 51.48132, "longitude": 25.9372, "city": "Kuznetsovs\u2019k", "images": []}, {"id": 499452, "min_date": "2022-05-11T11:34:00Z", "max_date": "2022-05-11T11:23:00Z", "count_points": 3, "latitude": 50.04354, "longitude": 28.87084, "city": "Chervone", "images": []}, {"id": 499453, "min_date": "2022-05-12T08:50:00Z", "max_date": "2022-05-12T08:50:00Z", "count_points": 1, "latitude": 47.662, "longitude": 36.25358, "city": "Hulyaypole", "images": []}, {"id": 499454, "min_date": "2022-05-12T08:50:00Z", "max_date": "2022-05-12T09:26:00Z", "count_points": 4, "latitude": 49.48956, "longitude": 26.59582, "city": "Narkevychi", "images": []}, {"id": 499455, "min_date": "2022-05-12T08:50:00Z", "max_date": "2022-05-12T08:50:00Z", "count_points": 2, "latitude": 51.55235, "longitude": 26.06461, "city": "Volodymyrets\u2019", "images": []}, {"id": 499456, "min_date": "2022-05-12T08:50:00Z", "max_date": "2022-05-12T08:50:00Z", "count_points": 2, "latitude": 50.05237, "longitude": 32.52005, "city": "Hrebinka", "images": []}, {"id": 499457, "min_date": "2022-05-12T08:50:00Z", "max_date": "2022-05-12T08:50:00Z", "count_points": 1, "latitude": 50.86295, "longitude": 26.12966, "city": "Orzhiv", "images": []}, {"id": 499458, "min_date": "2022-05-12T08:50:00Z", "max_date": "2022-05-12T09:24:00Z", "count_points": 4, "latitude": 49.41018, "longitude": 36.64809, "city": "Balakliya", "images": []}, {"id": 499459, "min_date": "2022-05-12T08:50:00Z", "max_date": "2022-05-12T11:04:00Z", "count_points": 4, "latitude": 50.1417, "longitude": 33.79107, "city": "Komyshnya", "images": [{"image_url": "499459.jpg", "timestamp": "2022-05-12T11:04:00Z"}]}, {"id": 499460, "min_date": "2022-05-12T08:50:00Z", "max_date": "2022-05-12T08:50:00Z", "count_points": 1, "latitude": 50.49646, "longitude": 32.029, "city": "Zgurovka", "images": []}, {"id": 499461, "min_date": "2022-05-12T08:52:00Z", "max_date": "2022-05-12T08:52:00Z", "count_points": 1, "latitude": 45.26328, "longitude": 34.67574, "city": "Zhemchuzhina", "images": []}, {"id": 499462, "min_date": "2022-05-12T08:52:00Z", "max_date": "2022-05-12T08:52:00Z", "count_points": 1, "latitude": 47.46342, "longitude": 36.24975, "city": "Polohy", "images": []}, {"id": 499463, "min_date": "2022-05-12T10:38:00Z", "max_date": "2022-05-12T11:06:00Z", "count_points": 10, "latitude": 50.71089, "longitude": 29.79143, "city": "Borodianka", "images": [{"image_url": "499463.jpg", "timestamp": "2022-05-12T11:06:00Z"}]}, {"id": 499465, "min_date": "2022-05-12T10:38:00Z", "max_date": "2022-05-12T10:38:00Z", "count_points": 1, "latitude": 49.76051, "longitude": 36.08778, "city": "Utkivka", "images": []}, {"id": 499466, "min_date": "2022-05-12T10:38:00Z", "max_date": "2022-05-12T11:04:00Z", "count_points": 3, "latitude": 50.52333, "longitude": 30.27242, "city": "Irpin", "images": []}, {"id": 499467, "min_date": "2022-05-12T10:38:00Z", "max_date": "2022-05-12T11:04:00Z", "count_points": 5, "latitude": 50.3806, "longitude": 32.45424, "city": "Pyryatyn", "images": []}, {"id": 499468, "min_date": "2022-05-12T10:38:00Z", "max_date": "2022-05-12T11:04:00Z", "count_points": 3, "latitude": 49.55739, "longitude": 28.78227, "city": "Kozyatyn", "images": []}, {"id": 499469, "min_date": "2022-05-12T10:38:00Z", "max_date": "2022-05-12T10:38:00Z", "count_points": 1, "latitude": 50.25543, "longitude": 35.85172, "city": "Zolochiv", "images": []}, {"id": 499470, "min_date": "2022-05-12T10:38:00Z", "max_date": "2022-05-13T09:07:00Z", "count_points": 4, "latitude": 50.1019, "longitude": 36.49548, "city": "Kulynychi", "images": []}, {"id": 499471, "min_date": "2022-05-13T07:54:00Z", "max_date": "2022-05-13T07:54:00Z", "count_points": 1, "latitude": 50.4921, "longitude": 34.92163, "city": "Trostyanets\u2019", "images": []}, {"id": 499472, "min_date": "2022-05-13T19:04:00Z", "max_date": "2022-05-12T11:04:00Z", "count_points": 2, "latitude": 48.679, "longitude": 38.47182, "city": "Hirs\u2019ke", "images": []}, {"id": 499473, "min_date": "2022-05-14T10:26:00Z", "max_date": "2022-05-14T10:26:00Z", "count_points": 1, "latitude": 50.18354, "longitude": 36.59722, "city": "Staryy Saltiv", "images": []}, {"id": 499474, "min_date": "2022-05-09T00:35:00Z", "max_date": "2022-05-09T00:35:00Z", "count_points": 2, "latitude": 46.50191, "longitude": 31.92457, "city": "Parutyne", "images": []}, {"id": 499475, "min_date": "2022-05-09T00:35:00Z", "max_date": "2022-05-09T00:35:00Z", "count_points": 1, "latitude": 49.76221, "longitude": 31.05545, "city": "Myronivka", "images": []}, {"id": 499476, "min_date": "2022-05-09T00:35:00Z", "max_date": "2022-05-09T00:35:00Z", "count_points": 1, "latitude": 48.19257, "longitude": 37.76189, "city": "Avdiyivka", "images": []}, {"id": 499477, "min_date": "2022-05-09T00:35:00Z", "max_date": "2022-05-09T00:35:00Z", "count_points": 3, "latitude": 49.76329, "longitude": 32.57531, "city": "Orzhytsya", "images": []}, {"id": 499478, "min_date": "2022-05-09T00:35:00Z", "max_date": "2022-05-09T00:35:00Z", "count_points": 1, "latitude": 48.30434, "longitude": 38.19507, "city": "Yenakiyeve", "images": []}, {"id": 499479, "min_date": "2022-05-09T00:35:00Z", "max_date": "2022-05-09T00:35:00Z", "count_points": 2, "latitude": 49.40568, "longitude": 37.25124, "city": "Savyntsi", "images": []}, {"id": 499480, "min_date": "2022-05-09T00:35:00Z", "max_date": "2022-05-09T00:35:00Z", "count_points": 1, "latitude": 50.12334, "longitude": 36.73584, "city": "Staryy Saltiv", "images": []}, {"id": 499481, "min_date": "2022-05-09T10:19:00Z", "max_date": "2022-05-09T10:19:00Z", "count_points": 1, "latitude": 49.50012, "longitude": 38.08633, "city": "Svatove", "images": []}, {"id": 499482, "min_date": "2022-05-09T10:19:00Z", "max_date": "2022-05-09T10:19:00Z", "count_points": 1, "latitude": 48.78616, "longitude": 38.26603, "city": "Bilohorivka", "images": []}, {"id": 499483, "min_date": "2022-05-09T10:19:00Z", "max_date": "2022-05-09T10:19:00Z", "count_points": 1, "latitude": 48.73966, "longitude": 38.05071, "city": "Soledar", "images": []}, {"id": 499484, "min_date": "2022-05-09T10:19:00Z", "max_date": "2022-05-09T10:19:00Z", "count_points": 1, "latitude": 48.24112, "longitude": 37.84278, "city": "Yasynuvata", "images": []}, {"id": 499485, "min_date": "2022-05-09T10:19:00Z", "max_date": "2022-05-09T10:19:00Z", "count_points": 2, "latitude": 48.16143, "longitude": 37.82945, "city": "Yasynuvata", "images": []}, {"id": 499486, "min_date": "2022-05-09T10:19:00Z", "max_date": "2022-05-09T10:19:00Z", "count_points": 1, "latitude": 47.86823, "longitude": 37.46955, "city": "Mareyka", "images": []}, {"id": 499487, "min_date": "2022-05-09T10:19:00Z", "max_date": "2022-05-09T10:19:00Z", "count_points": 1, "latitude": 46.98974, "longitude": 34.92001, "city": "Vesele", "images": []}, {"id": 499488, "min_date": "2022-05-09T10:21:00Z", "max_date": "2022-05-09T10:21:00Z", "count_points": 2, "latitude": 51.6296, "longitude": 32.55195, "city": "Sosnytsya", "images": []}, {"id": 499489, "min_date": "2022-05-09T10:21:00Z", "max_date": "2022-05-09T10:21:00Z", "count_points": 1, "latitude": 50.29022, "longitude": 28.85978, "city": "Ozerne", "images": []}, {"id": 499490, "min_date": "2022-05-09T10:21:00Z", "max_date": "2022-05-09T10:21:00Z", "count_points": 2, "latitude": 50.8157, "longitude": 31.90841, "city": "Talalayivka", "images": []}, {"id": 499492, "min_date": "2022-05-09T10:21:00Z", "max_date": "2022-05-09T10:21:00Z", "count_points": 1, "latitude": 50.70114, "longitude": 32.0322, "city": "Talalayivka", "images": []}, {"id": 499493, "min_date": "2022-05-09T10:21:00Z", "max_date": "2022-05-12T09:26:00Z", "count_points": 3, "latitude": 50.63372, "longitude": 32.16107, "city": "Lisovi Sorochyntsi", "images": []}, {"id": 499494, "min_date": "2022-05-09T10:21:00Z", "max_date": "2022-05-09T10:21:00Z", "count_points": 1, "latitude": 50.97636, "longitude": 26.27262, "city": "Kostopil\u2019", "images": []}, {"id": 499495, "min_date": "2022-05-09T12:02:00Z", "max_date": "2022-05-09T12:02:00Z", "count_points": 1, "latitude": 50.80547, "longitude": 24.8733, "city": "Lokachi", "images": []}, {"id": 499496, "min_date": "2022-05-09T12:02:00Z", "max_date": "2022-05-09T12:02:00Z", "count_points": 1, "latitude": 51.81706, "longitude": 24.73577, "city": "Ratne", "images": []}, {"id": 499497, "min_date": "2022-05-10T00:13:00Z", "max_date": "2022-05-10T00:13:00Z", "count_points": 2, "latitude": 50.30629, "longitude": 33.89894, "city": "Hadyach", "images": []}, {"id": 499498, "min_date": "2022-05-10T00:16:00Z", "max_date": "2022-05-10T00:16:00Z", "count_points": 1, "latitude": 46.45913, "longitude": 32.17978, "city": "Stanislav", "images": []}, {"id": 499499, "min_date": "2022-05-10T10:02:00Z", "max_date": "2022-05-10T10:02:00Z", "count_points": 1, "latitude": 51.33535, "longitude": 32.5302, "city": "Borzna", "images": []}, {"id": 499500, "min_date": "2022-05-10T10:02:00Z", "max_date": "2022-05-10T10:02:00Z", "count_points": 1, "latitude": 48.2044, "longitude": 22.62059, "city": "Berehove", "images": []}, {"id": 499501, "min_date": "2022-05-10T10:02:00Z", "max_date": "2022-05-10T10:02:00Z", "count_points": 1, "latitude": 50.91016, "longitude": 32.34767, "city": "Ichnya", "images": []}, {"id": 499502, "min_date": "2022-05-10T10:02:00Z", "max_date": "2022-05-10T10:02:00Z", "count_points": 1, "latitude": 51.01752, "longitude": 33.65739, "city": "Sloboda", "images": []}, {"id": 499503, "min_date": "2022-05-10T10:02:00Z", "max_date": "2022-05-10T10:02:00Z", "count_points": 2, "latitude": 50.71663, "longitude": 32.56852, "city": "Ladan", "images": []}, {"id": 499504, "min_date": "2022-05-10T10:02:00Z", "max_date": "2022-05-10T10:02:00Z", "count_points": 1, "latitude": 50.94123, "longitude": 34.34575, "city": "Bilopillya", "images": []}, {"id": 499505, "min_date": "2022-05-10T10:02:00Z", "max_date": "2022-05-10T10:02:00Z", "count_points": 1, "latitude": 48.82949, "longitude": 26.91276, "city": "Dunaivtsi", "images": []}, {"id": 499506, "min_date": "2022-05-10T10:02:00Z", "max_date": "2022-05-10T10:02:00Z", "count_points": 2, "latitude": 49.13087, "longitude": 30.14702, "city": "Zhashkiv", "images": []}, {"id": 499507, "min_date": "2022-05-10T10:02:00Z", "max_date": "2022-05-10T10:02:00Z", "count_points": 1, "latitude": 48.49125, "longitude": 27.99236, "city": "Chernivtsi", "images": []}, {"id": 499509, "min_date": "2022-05-10T10:02:00Z", "max_date": "2022-05-10T10:02:00Z", "count_points": 1, "latitude": 49.10331, "longitude": 33.45761, "city": "Kremenchuk", "images": []}, {"id": 499510, "min_date": "2022-05-10T10:02:00Z", "max_date": "2022-05-10T10:02:00Z", "count_points": 3, "latitude": 49.59301, "longitude": 37.65869, "city": "Kivsharivka", "images": []}, {"id": 499511, "min_date": "2022-05-10T10:02:00Z", "max_date": "2022-05-10T10:02:00Z", "count_points": 2, "latitude": 48.8743, "longitude": 34.2542, "city": "Tsarychanka", "images": []}, {"id": 499512, "min_date": "2022-05-10T10:02:00Z", "max_date": "2022-05-10T10:02:00Z", "count_points": 1, "latitude": 47.5102, "longitude": 31.08654, "city": "Domanivka", "images": []}, {"id": 499513, "min_date": "2022-05-10T10:02:00Z", "max_date": "2022-05-10T10:02:00Z", "count_points": 1, "latitude": 48.72542, "longitude": 38.5559, "city": "Toshkivka", "images": []}, {"id": 499514, "min_date": "2022-05-10T10:02:00Z", "max_date": "2022-05-10T10:02:00Z", "count_points": 1, "latitude": 48.40139, "longitude": 39.18488, "city": "Uspenka", "images": []}, {"id": 499515, "min_date": "2022-05-10T10:04:00Z", "max_date": "2022-05-10T11:45:00Z", "count_points": 2, "latitude": 51.79671, "longitude": 26.17612, "city": "Zarichne", "images": []}, {"id": 499516, "min_date": "2022-05-10T11:42:00Z", "max_date": "2022-05-10T11:42:00Z", "count_points": 1, "latitude": 48.34744, "longitude": 31.13551, "city": "Dobrovelychkivka", "images": []}, {"id": 499517, "min_date": "2022-05-10T11:42:00Z", "max_date": "2022-05-10T11:42:00Z", "count_points": 1, "latitude": 46.61575, "longitude": 30.95283, "city": "Fontanka", "images": []}, {"id": 499518, "min_date": "2022-05-10T11:42:00Z", "max_date": "2022-05-10T11:42:00Z", "count_points": 1, "latitude": 46.59145, "longitude": 29.99146, "city": "Lymanske", "images": []}, {"id": 499519, "min_date": "2022-05-10T11:45:00Z", "max_date": "2022-05-10T11:45:00Z", "count_points": 2, "latitude": 50.94235, "longitude": 30.85352, "city": "Oster", "images": []}, {"id": 499520, "min_date": "2022-05-10T11:45:00Z", "max_date": "2022-05-10T11:45:00Z", "count_points": 1, "latitude": 50.36946, "longitude": 25.42672, "city": "Demydivka", "images": []}, {"id": 499521, "min_date": "2022-05-10T23:56:00Z", "max_date": "2022-05-10T23:56:00Z", "count_points": 1, "latitude": 47.73248, "longitude": 37.0351, "city": "Velyka Novosilka", "images": []}, {"id": 499522, "min_date": "2022-05-10T23:56:00Z", "max_date": "2022-05-10T23:56:00Z", "count_points": 1, "latitude": 50.34656, "longitude": 32.37389, "city": "Pyryatyn", "images": []}, {"id": 499523, "min_date": "2022-05-10T23:56:00Z", "max_date": "2022-05-10T23:56:00Z", "count_points": 1, "latitude": 49.79197, "longitude": 36.05583, "city": "Utkivka", "images": []}, {"id": 499524, "min_date": "2022-05-10T23:56:00Z", "max_date": "2022-05-10T23:56:00Z", "count_points": 1, "latitude": 50.19168, "longitude": 36.5405, "city": "Kulynychi", "images": []}, {"id": 499525, "min_date": "2022-05-11T09:41:00Z", "max_date": "2022-05-11T09:41:00Z", "count_points": 2, "latitude": 49.02119, "longitude": 37.76967, "city": "Krasnyy Lyman", "images": []}, {"id": 499526, "min_date": "2022-05-11T09:41:00Z", "max_date": "2022-05-11T09:41:00Z", "count_points": 1, "latitude": 48.98915, "longitude": 37.25927, "city": "Izyum", "images": []}, {"id": 499528, "min_date": "2022-05-11T09:43:00Z", "max_date": "2022-05-11T09:43:00Z", "count_points": 1, "latitude": 49.05572, "longitude": 32.84186, "city": "Chyhyryn", "images": []}, {"id": 499529, "min_date": "2022-05-11T11:21:00Z", "max_date": "2022-05-11T11:21:00Z", "count_points": 2, "latitude": 46.34257, "longitude": 29.08409, "city": "Serpneve", "images": []}, {"id": 499530, "min_date": "2022-05-11T11:21:00Z", "max_date": "2022-05-11T11:21:00Z", "count_points": 1, "latitude": 47.42775, "longitude": 35.57087, "city": "Tokmak", "images": []}, {"id": 499531, "min_date": "2022-05-11T11:23:00Z", "max_date": "2022-05-11T11:23:00Z", "count_points": 3, "latitude": 50.31584, "longitude": 36.17165, "city": "Prudyanka", "images": []}, {"id": 499532, "min_date": "2022-05-11T11:23:00Z", "max_date": "2022-05-11T11:23:00Z", "count_points": 1, "latitude": 51.03521, "longitude": 32.98388, "city": "Bakhmach", "images": []}, {"id": 499533, "min_date": "2022-05-11T11:23:00Z", "max_date": "2022-05-11T11:23:00Z", "count_points": 1, "latitude": 50.68037, "longitude": 27.46681, "city": "Novohrad-Volynskyi", "images": []}, {"id": 499534, "min_date": "2022-05-11T11:23:00Z", "max_date": "2022-05-11T11:23:00Z", "count_points": 1, "latitude": 50.54853, "longitude": 28.94202, "city": "Holovyne", "images": []}, {"id": 499535, "min_date": "2022-05-11T11:23:00Z", "max_date": "2022-05-11T11:23:00Z", "count_points": 1, "latitude": 47.72182, "longitude": 35.53303, "city": "Komyshuvakha", "images": []}, {"id": 499536, "min_date": "2022-05-11T11:23:00Z", "max_date": "2022-05-11T11:23:00Z", "count_points": 1, "latitude": 50.46035, "longitude": 32.24218, "city": "Pryluky", "images": []}, {"id": 499537, "min_date": "2022-05-11T11:23:00Z", "max_date": "2022-05-11T11:23:00Z", "count_points": 1, "latitude": 49.53625, "longitude": 23.2007, "city": "Sambir", "images": []}, {"id": 499538, "min_date": "2022-05-11T11:23:00Z", "max_date": "2022-05-11T11:23:00Z", "count_points": 1, "latitude": 48.9688, "longitude": 24.35991, "city": "Novytsya", "images": []}, {"id": 499539, "min_date": "2022-05-11T11:23:00Z", "max_date": "2022-05-11T11:23:00Z", "count_points": 1, "latitude": 48.88343, "longitude": 24.77506, "city": "Cherniyiv", "images": []}, {"id": 499540, "min_date": "2022-05-11T11:23:00Z", "max_date": "2022-05-11T11:23:00Z", "count_points": 1, "latitude": 49.07679, "longitude": 28.33339, "city": "Sutysky", "images": []}, {"id": 499541, "min_date": "2022-05-11T11:23:00Z", "max_date": "2022-05-11T11:23:00Z", "count_points": 1, "latitude": 48.40908, "longitude": 22.74898, "city": "Mukacheve", "images": []}, {"id": 499542, "min_date": "2022-05-11T11:23:00Z", "max_date": "2022-05-11T11:23:00Z", "count_points": 1, "latitude": 48.52111, "longitude": 25.71697, "city": "Verenchanka", "images": []}, {"id": 499543, "min_date": "2022-05-11T11:23:00Z", "max_date": "2022-05-11T11:23:00Z", "count_points": 1, "latitude": 48.27805, "longitude": 31.32826, "city": "Pomichna", "images": []}, {"id": 499544, "min_date": "2022-05-11T23:35:00Z", "max_date": "2022-05-11T23:35:00Z", "count_points": 1, "latitude": 50.19317, "longitude": 36.68137, "city": "Staryy Saltiv", "images": []}, {"id": 499545, "min_date": "2022-05-11T23:35:00Z", "max_date": "2022-05-11T23:35:00Z", "count_points": 1, "latitude": 50.06017, "longitude": 37.744, "city": "Dvorichna", "images": []}, {"id": 499546, "min_date": "2022-05-11T23:37:00Z", "max_date": "2022-05-11T23:37:00Z", "count_points": 3, "latitude": 45.57836, "longitude": 34.24914, "city": "Kalinino", "images": []}, {"id": 499547, "min_date": "2022-05-11T23:37:00Z", "max_date": "2022-05-11T23:37:00Z", "count_points": 1, "latitude": 46.72679, "longitude": 36.82948, "city": "Berdyansk", "images": []}, {"id": 499548, "min_date": "2022-05-11T23:37:00Z", "max_date": "2022-05-11T23:37:00Z", "count_points": 1, "latitude": 48.35246, "longitude": 25.96776, "city": "Chernivtsi", "images": []}, {"id": 499549, "min_date": "2022-05-11T23:37:00Z", "max_date": "2022-05-11T23:37:00Z", "count_points": 1, "latitude": 49.34258, "longitude": 29.46975, "city": "Orativ", "images": []}, {"id": 499550, "min_date": "2022-05-11T23:37:00Z", "max_date": "2022-05-11T23:37:00Z", "count_points": 2, "latitude": 48.94961, "longitude": 37.25794, "city": "Barvinkove", "images": []}, {"id": 499551, "min_date": "2022-05-11T23:37:00Z", "max_date": "2022-05-12T23:18:00Z", "count_points": 4, "latitude": 49.41732, "longitude": 36.90226, "city": "Balakliya", "images": [{"image_url": "499551.jpg", "timestamp": "2022-05-12T23:18:00Z"}]}, {"id": 499552, "min_date": "2022-05-12T01:17:00Z", "max_date": "2022-05-12T01:17:00Z", "count_points": 2, "latitude": 46.78434, "longitude": 32.09435, "city": "Shevchenkove", "images": []}, {"id": 499554, "min_date": "2022-05-12T09:24:00Z", "max_date": "2022-05-12T09:24:00Z", "count_points": 1, "latitude": 48.68888, "longitude": 38.07818, "city": "Soledar", "images": []}, {"id": 499555, "min_date": "2022-05-12T09:24:00Z", "max_date": "2022-05-12T09:24:00Z", "count_points": 1, "latitude": 48.90371, "longitude": 35.48803, "city": "Hubynykha", "images": []}, {"id": 499556, "min_date": "2022-05-12T09:24:00Z", "max_date": "2022-05-12T11:04:00Z", "count_points": 2, "latitude": 50.12099, "longitude": 33.73306, "city": "Komyshnya", "images": []}, {"id": 499557, "min_date": "2022-05-12T09:24:00Z", "max_date": "2022-05-12T09:24:00Z", "count_points": 1, "latitude": 47.7034, "longitude": 36.66607, "city": "Velyka Novosilka", "images": []}, {"id": 499558, "min_date": "2022-05-12T09:26:00Z", "max_date": "2022-05-12T09:26:00Z", "count_points": 1, "latitude": 50.85055, "longitude": 33.04172, "city": "Talalayivka", "images": []}, {"id": 499559, "min_date": "2022-05-12T11:04:00Z", "max_date": "2022-05-12T11:04:00Z", "count_points": 1, "latitude": 49.89366, "longitude": 24.68122, "city": "Krasne", "images": []}, {"id": 499560, "min_date": "2022-05-12T11:04:00Z", "max_date": "2022-05-12T11:04:00Z", "count_points": 1, "latitude": 50.77432, "longitude": 33.45337, "city": "Romny", "images": []}, {"id": 499561, "min_date": "2022-05-12T11:04:00Z", "max_date": "2022-05-12T11:04:00Z", "count_points": 1, "latitude": 50.63549, "longitude": 33.84883, "city": "Lypova Dolyna", "images": []}, {"id": 499562, "min_date": "2022-05-12T11:04:00Z", "max_date": "2022-05-12T11:04:00Z", "count_points": 1, "latitude": 49.34477, "longitude": 23.58047, "city": "Rykhtychi", "images": []}, {"id": 499563, "min_date": "2022-05-12T11:04:00Z", "max_date": "2022-05-12T11:04:00Z", "count_points": 1, "latitude": 49.23875, "longitude": 23.7428, "city": "Duliby", "images": []}, {"id": 499564, "min_date": "2022-05-12T11:04:00Z", "max_date": "2022-05-12T11:04:00Z", "count_points": 1, "latitude": 50.04237, "longitude": 29.96601, "city": "Fastiv", "images": []}, {"id": 499565, "min_date": "2022-05-12T11:04:00Z", "max_date": "2022-05-12T11:04:00Z", "count_points": 1, "latitude": 50.15576, "longitude": 31.29345, "city": "Pereyaslav-Khmel\u2019nyts\u2019kyy", "images": []}, {"id": 499566, "min_date": "2022-05-12T11:04:00Z", "max_date": "2022-05-12T11:04:00Z", "count_points": 1, "latitude": 49.98042, "longitude": 30.70172, "city": "Mirovka", "images": []}, {"id": 499567, "min_date": "2022-05-12T11:04:00Z", "max_date": "2022-05-12T11:04:00Z", "count_points": 1, "latitude": 49.7011, "longitude": 28.26217, "city": "Ulaniv", "images": []}, {"id": 499568, "min_date": "2022-05-12T11:04:00Z", "max_date": "2022-05-12T11:04:00Z", "count_points": 1, "latitude": 49.98423, "longitude": 31.70133, "city": "Tsybli", "images": []}, {"id": 499569, "min_date": "2022-05-12T11:04:00Z", "max_date": "2022-05-12T11:04:00Z", "count_points": 2, "latitude": 49.63872, "longitude": 28.721, "city": "Kozyatyn", "images": []}, {"id": 499570, "min_date": "2022-05-12T11:04:00Z", "max_date": "2022-05-12T11:04:00Z", "count_points": 1, "latitude": 49.51022, "longitude": 29.56695, "city": "Tetiiv", "images": []}, {"id": 499571, "min_date": "2022-05-12T11:04:00Z", "max_date": "2022-05-12T11:04:00Z", "count_points": 1, "latitude": 48.80169, "longitude": 25.31164, "city": "Zolotyy Potik", "images": []}, {"id": 499572, "min_date": "2022-05-12T11:04:00Z", "max_date": "2022-05-12T11:04:00Z", "count_points": 1, "latitude": 48.82705, "longitude": 27.23308, "city": "Nova Ushytsya", "images": []}, {"id": 499573, "min_date": "2022-05-12T11:04:00Z", "max_date": "2022-05-12T11:04:00Z", "count_points": 1, "latitude": 48.83903, "longitude": 28.74644, "city": "Nemyriv", "images": []}, {"id": 499574, "min_date": "2022-05-12T11:04:00Z", "max_date": "2022-05-12T11:04:00Z", "count_points": 1, "latitude": 48.8336, "longitude": 29.25318, "city": "Haisyn", "images": []}, {"id": 499575, "min_date": "2022-05-12T11:04:00Z", "max_date": "2022-05-12T11:04:00Z", "count_points": 1, "latitude": 48.44833, "longitude": 26.31568, "city": "Klishkivtsi", "images": []}, {"id": 499576, "min_date": "2022-05-12T11:04:00Z", "max_date": "2022-05-12T11:04:00Z", "count_points": 1, "latitude": 48.57196, "longitude": 27.36351, "city": "Novodnistrovs\u2019k", "images": []}, {"id": 499577, "min_date": "2022-05-12T11:04:00Z", "max_date": "2022-05-12T11:04:00Z", "count_points": 5, "latitude": 48.77269, "longitude": 29.72557, "city": "Teplyk", "images": []}, {"id": 499578, "min_date": "2022-05-12T11:04:00Z", "max_date": "2022-05-12T11:04:00Z", "count_points": 1, "latitude": 48.38952, "longitude": 28.37358, "city": "Klembivka", "images": []}, {"id": 499579, "min_date": "2022-05-12T11:04:00Z", "max_date": "2022-05-12T11:04:00Z", "count_points": 1, "latitude": 48.49779, "longitude": 29.59876, "city": "Viytivka", "images": []}, {"id": 499580, "min_date": "2022-05-12T11:04:00Z", "max_date": "2022-05-12T11:04:00Z", "count_points": 1, "latitude": 48.97965, "longitude": 37.45729, "city": "Studenok", "images": []}, {"id": 499581, "min_date": "2022-05-12T11:04:00Z", "max_date": "2022-05-12T11:04:00Z", "count_points": 1, "latitude": 48.54914, "longitude": 35.87469, "city": "Pavlohrad", "images": []}, {"id": 499582, "min_date": "2022-05-12T11:04:00Z", "max_date": "2022-05-12T11:04:00Z", "count_points": 1, "latitude": 47.84863, "longitude": 32.35151, "city": "Ustynivka", "images": []}, {"id": 499583, "min_date": "2022-05-12T11:04:00Z", "max_date": "2022-05-12T11:04:00Z", "count_points": 1, "latitude": 45.53463, "longitude": 28.26687, "city": "Reni", "images": []}, {"id": 499585, "min_date": "2022-05-12T11:06:00Z", "max_date": "2022-05-12T11:06:00Z", "count_points": 1, "latitude": 50.88201, "longitude": 33.297, "city": "Talalayivka", "images": []}, {"id": 499586, "min_date": "2022-05-12T11:06:00Z", "max_date": "2022-05-12T11:06:00Z", "count_points": 1, "latitude": 49.78103, "longitude": 23.54127, "city": "Rodatychi", "images": []}, {"id": 499587, "min_date": "2022-05-12T11:06:00Z", "max_date": "2022-05-12T11:06:00Z", "count_points": 2, "latitude": 51.59911, "longitude": 26.72745, "city": "Dubrovytsya", "images": []}, {"id": 499588, "min_date": "2022-05-12T11:06:00Z", "max_date": "2022-05-12T11:06:00Z", "count_points": 1, "latitude": 51.31466, "longitude": 25.90399, "city": "Volodymyrets\u2019", "images": []}, {"id": 499589, "min_date": "2022-05-12T11:06:00Z", "max_date": "2022-05-12T11:06:00Z", "count_points": 1, "latitude": 51.28672, "longitude": 26.10909, "city": "Volodymyrets\u2019", "images": []}, {"id": 499590, "min_date": "2022-05-12T11:06:00Z", "max_date": "2022-05-12T11:06:00Z", "count_points": 1, "latitude": 51.73969, "longitude": 33.95976, "city": "Hlukhiv", "images": []}, {"id": 499591, "min_date": "2022-05-12T11:06:00Z", "max_date": "2022-05-12T11:06:00Z", "count_points": 1, "latitude": 50.8996, "longitude": 28.24667, "city": "Luhyny", "images": []}, {"id": 499592, "min_date": "2022-05-12T11:06:00Z", "max_date": "2022-05-12T11:06:00Z", "count_points": 3, "latitude": 50.98641, "longitude": 30.43236, "city": "Dymer", "images": []}, {"id": 499593, "min_date": "2022-05-12T23:18:00Z", "max_date": "2022-05-12T23:18:00Z", "count_points": 1, "latitude": 49.1222, "longitude": 37.29435, "city": "Izyum", "images": []}, {"id": 499594, "min_date": "2022-05-12T23:18:00Z", "max_date": "2022-05-12T23:18:00Z", "count_points": 1, "latitude": 49.03129, "longitude": 38.51208, "city": "Syevyerodonets\u2019k", "images": []}, {"id": 499595, "min_date": "2022-05-12T23:18:00Z", "max_date": "2022-05-12T23:18:00Z", "count_points": 2, "latitude": 49.11357, "longitude": 37.7833, "city": "Krasnyy Lyman", "images": []}, {"id": 499596, "min_date": "2022-05-12T23:18:00Z", "max_date": "2022-05-12T23:18:00Z", "count_points": 1, "latitude": 49.17339, "longitude": 37.39852, "city": "Chervonyy Oskil", "images": []}, {"id": 499598, "min_date": "2022-05-12T23:18:00Z", "max_date": "2022-05-12T23:18:00Z", "count_points": 1, "latitude": 48.92047, "longitude": 38.25008, "city": "Bilohorivka", "images": []}, {"id": 499599, "min_date": "2022-05-12T23:18:00Z", "max_date": "2022-05-12T23:18:00Z", "count_points": 1, "latitude": 48.90948, "longitude": 37.93084, "city": "Krasnyy Lyman", "images": []}, {"id": 499600, "min_date": "2022-05-12T23:18:00Z", "max_date": "2022-05-12T23:18:00Z", "count_points": 3, "latitude": 48.91471, "longitude": 32.23488, "city": "Oleksandrivka", "images": []}, {"id": 499601, "min_date": "2022-05-12T23:18:00Z", "max_date": "2022-05-12T23:18:00Z", "count_points": 1, "latitude": 48.16233, "longitude": 38.06943, "city": "Krinichnaya", "images": []}, {"id": 499602, "min_date": "2022-05-12T23:18:00Z", "max_date": "2022-05-12T23:18:00Z", "count_points": 1, "latitude": 48.13712, "longitude": 37.75203, "city": "Avdiyivka", "images": []}, {"id": 499603, "min_date": "2022-05-12T23:18:00Z", "max_date": "2022-05-12T23:18:00Z", "count_points": 1, "latitude": 47.3513, "longitude": 33.31913, "city": "Velyka Oleksandrivka", "images": []}, {"id": 499604, "min_date": "2022-05-12T23:20:00Z", "max_date": "2022-05-12T23:20:00Z", "count_points": 1, "latitude": 46.49694, "longitude": 31.72425, "city": "Ochakiv", "images": []}, {"id": 499605, "min_date": "2022-05-13T09:07:00Z", "max_date": "2022-05-13T09:07:00Z", "count_points": 3, "latitude": 49.50017, "longitude": 36.78588, "city": "Balakliya", "images": []}, {"id": 499606, "min_date": "2022-05-13T10:43:00Z", "max_date": "2022-05-13T10:43:00Z", "count_points": 1, "latitude": 45.89522, "longitude": 30.1402, "city": "Kulevcha", "images": []}, {"id": 499607, "min_date": "2022-05-13T10:45:00Z", "max_date": "2022-05-13T10:45:00Z", "count_points": 1, "latitude": 48.98885, "longitude": 34.52894, "city": "Tsarychanka", "images": []}, {"id": 499608, "min_date": "2022-05-13T10:45:00Z", "max_date": "2022-05-13T10:45:00Z", "count_points": 1, "latitude": 48.66953, "longitude": 33.75983, "city": "Lykhivka", "images": []}, {"id": 499609, "min_date": "2022-05-13T10:45:00Z", "max_date": "2022-05-13T10:45:00Z", "count_points": 2, "latitude": 49.08045, "longitude": 39.04081, "city": "Novoaydar", "images": []}, {"id": 499610, "min_date": "2022-05-13T10:45:00Z", "max_date": "2022-05-13T10:45:00Z", "count_points": 1, "latitude": 48.97853, "longitude": 37.81545, "city": "Krasnyy Lyman", "images": []}, {"id": 499611, "min_date": "2022-05-13T10:45:00Z", "max_date": "2022-05-13T10:45:00Z", "count_points": 2, "latitude": 47.79272, "longitude": 30.41503, "city": "Lyubashivka", "images": []}, {"id": 499612, "min_date": "2022-05-13T10:45:00Z", "max_date": "2022-05-13T10:45:00Z", "count_points": 1, "latitude": 50.80133, "longitude": 32.07002, "city": "Talalayivka", "images": []}, {"id": 499613, "min_date": "2022-05-13T10:45:00Z", "max_date": "2022-05-13T10:45:00Z", "count_points": 1, "latitude": 50.73267, "longitude": 31.69875, "city": "Kobyzhcha", "images": []}, {"id": 499614, "min_date": "2022-05-13T10:45:00Z", "max_date": "2022-05-13T10:45:00Z", "count_points": 1, "latitude": 50.2688, "longitude": 32.83131, "city": "Chornukhy", "images": []}, {"id": 499615, "min_date": "2022-05-13T10:45:00Z", "max_date": "2022-05-13T10:45:00Z", "count_points": 1, "latitude": 49.63668, "longitude": 36.15577, "city": "Utkivka", "images": []}, {"id": 499616, "min_date": "2022-05-13T10:45:00Z", "max_date": "2022-05-13T10:45:00Z", "count_points": 1, "latitude": 48.50864, "longitude": 30.2027, "city": "Blahovishchens\u2019ke", "images": []}, {"id": 499617, "min_date": "2022-05-13T10:45:00Z", "max_date": "2022-05-13T10:45:00Z", "count_points": 1, "latitude": 49.06362, "longitude": 35.12397, "city": "Zachepylivka", "images": []}, {"id": 499618, "min_date": "2022-05-14T10:28:00Z", "max_date": "2022-05-14T10:28:00Z", "count_points": 1, "latitude": 51.05208, "longitude": 31.51074, "city": "Nosivka", "images": []}, {"id": 499619, "min_date": "2022-05-14T10:28:00Z", "max_date": "2022-05-14T10:28:00Z", "count_points": 2, "latitude": 50.91492, "longitude": 33.31352, "city": "Talalayivka", "images": []}, {"id": 499620, "min_date": "2022-05-15T10:09:00Z", "max_date": "2022-05-15T10:09:00Z", "count_points": 2, "latitude": 49.27255, "longitude": 37.20773, "city": "Izyum", "images": []}, {"id": 499621, "min_date": "2022-05-15T10:09:00Z", "max_date": "2022-05-15T10:09:00Z", "count_points": 1, "latitude": 48.62758, "longitude": 35.20395, "city": "Novomoskovs\u2019k", "images": []}, {"id": 497649, "min_date": "2022-05-15T09:22:00Z", "max_date": "2022-05-15T09:22:00Z", "count_points": 1, "latitude": 49.94893, "longitude": 26.52883, "city": "Lyakhovtsy", "images": []}, {"id": 499050, "min_date": "2022-05-09T09:32:00Z", "max_date": "2022-05-09T10:21:00Z", "count_points": 2, "latitude": 50.27934, "longitude": 29.37996, "city": "Brusyliv", "images": []}, {"id": 499061, "min_date": "2022-05-09T09:32:00Z", "max_date": "2022-05-09T10:19:00Z", "count_points": 6, "latitude": 48.93359, "longitude": 38.29015, "city": "Bilohorivka", "images": []}, {"id": 499088, "min_date": "2022-05-09T11:10:00Z", "max_date": "2022-05-09T11:10:00Z", "count_points": 1, "latitude": 48.94674, "longitude": 26.98293, "city": "Dunaivtsi", "images": []}, {"id": 499115, "min_date": "2022-05-09T23:26:00Z", "max_date": "2022-05-10T23:56:00Z", "count_points": 6, "latitude": 48.6798, "longitude": 38.53092, "city": "Pervomays\u2019k", "images": [{"image_url": "499115.jpg", "timestamp": "2022-05-10T23:56:00Z"}]}, {"id": 499128, "min_date": "2022-05-10T01:05:00Z", "max_date": "2022-05-09T12:02:00Z", "count_points": 2, "latitude": 48.88805, "longitude": 23.04348, "city": "Volovets", "images": []}, {"id": 499153, "min_date": "2022-05-10T10:51:00Z", "max_date": "2022-05-10T10:51:00Z", "count_points": 1, "latitude": 47.07585, "longitude": 29.95175, "city": "Velyka Mykhaylivka", "images": []}, {"id": 499185, "min_date": "2022-05-11T08:54:00Z", "max_date": "2022-05-11T08:54:00Z", "count_points": 1, "latitude": 49.41104, "longitude": 35.0297, "city": "Karlivka", "images": []}, {"id": 499202, "min_date": "2022-05-11T10:34:00Z", "max_date": "2022-05-11T11:23:00Z", "count_points": 2, "latitude": 51.95619, "longitude": 33.21971, "city": "Novhorod-Sivers\u2019kyy", "images": []}, {"id": 499227, "min_date": "2022-05-11T10:34:00Z", "max_date": "2022-05-11T10:34:00Z", "count_points": 1, "latitude": 48.31936, "longitude": 31.14503, "city": "Dobrovelychkivka", "images": []},