[{"id": 494678, "min_date": "2022-03-14T09:09:00Z", "max_date": "2022-03-15T00:13:00Z", "count_points": 8, "latitude": 50.60387, "longitude": 30.30518, "city": "Hostomel", "images": []}, {"id": 494679, "min_date": "2022-03-14T09:09:00Z", "max_date": "2022-03-14T10:21:00Z", "count_points": 3, "latitude": 50.6657, "longitude": 29.8293, "city": "Borodianka", "images": []}, {"id": 494680, "min_date": "2022-03-14T09:09:00Z", "max_date": "2022-03-15T00:13:00Z", "count_points": 28, "latitude": 50.57666, "longitude": 29.79471, "city": "Makariv", "images": []}, {"id": 494682, "min_date": "2022-03-14T09:09:00Z", "max_date": "2022-03-14T10:21:00Z", "count_points": 16, "latitude": 50.41588, "longitude": 29.82929, "city": "Makariv", "images": [{"image_url": "494682.jpg", "timestamp": "2022-03-14T10:21:00Z"}]}, {"id": 494683, "min_date": "2022-03-14T09:09:00Z", "max_date": "2022-03-14T09:09:00Z", "count_points": 1, "latitude": 50.36379, "longitude": 30.01495, "city": "Borova", "images": []}, {"id": 494684, "min_date": "2022-03-14T09:09:00Z", "max_date": "2022-03-14T09:09:00Z", "count_points": 1, "latitude": 50.65855, "longitude": 26.5206, "city": "Horodyshche", "images": []}, {"id": 494755, "min_date": "2022-03-14T11:04:00Z", "max_date": "2022-03-14T12:02:00Z", "count_points": 5, "latitude": 51.19532, "longitude": 29.70596, "city": "Krasyatychi", "images": [{"image_url": "494755.jpg", "timestamp": "2022-03-14T12:02:00Z"}]}, {"id": 494756, "min_date": "2022-03-14T11:04:00Z", "max_date": "2022-03-14T12:02:00Z", "count_points": 4, "latitude": 51.48074, "longitude": 31.27082, "city": "Chernihiv", "images": [{"image_url": "494756.jpg", "timestamp": "2022-03-14T12:02:00Z"}]}, {"id": 494757, "min_date": "2022-03-14T11:04:00Z", "max_date": "2022-03-15T00:13:00Z", "count_points": 9, "latitude": 51.53021, "longitude": 31.35423, "city": "Chernihiv", "images": [{"image_url": "494757.jpg", "timestamp": "2022-03-15T00:13:00Z"}]}, {"id": 494758, "min_date": "2022-03-14T11:04:00Z", "max_date": "2022-03-14T12:02:00Z", "count_points": 10, "latitude": 50.98998, "longitude": 27.23642, "city": "Horodnytsya", "images": [{"image_url": "494758.jpg", "timestamp": "2022-03-14T12:02:00Z"}]}, {"id": 494759, "min_date": "2022-03-14T11:04:00Z", "max_date": "2022-03-14T12:02:00Z", "count_points": 11, "latitude": 51.26373, "longitude": 28.07909, "city": "Novi Bilokorovychi", "images": []}, {"id": 494760, "min_date": "2022-03-14T11:04:00Z", "max_date": "2022-03-14T12:02:00Z", "count_points": 7, "latitude": 51.24907, "longitude": 27.90487, "city": "Novi Bilokorovychi", "images": [{"image_url": "494760.jpg", "timestamp": "2022-03-14T12:02:00Z"}]}, {"id": 494761, "min_date": "2022-03-14T11:04:00Z", "max_date": "2022-03-14T12:02:00Z", "count_points": 9, "latitude": 51.38288, "longitude": 26.99456, "city": "Rokytne", "images": [{"image_url": "494761.jpg", "timestamp": "2022-03-14T12:02:00Z"}]}, {"id": 494762, "min_date": "2022-03-14T11:04:00Z", "max_date": "2022-03-14T12:02:00Z", "count_points": 8, "latitude": 51.54778, "longitude": 27.59464, "city": "Olevs\u2019k", "images": [{"image_url": "494762.jpg", "timestamp": "2022-03-14T12:02:00Z"}]}, {"id": 494763, "min_date": "2022-03-14T11:04:00Z", "max_date": "2022-03-14T11:10:00Z", "count_points": 3, "latitude": 51.54675, "longitude": 26.2694, "city": "Volodymyrets\u2019", "images": [{"image_url": "494763.jpg", "timestamp": "2022-03-14T11:10:00Z"}]}, {"id": 494764, "min_date": "2022-03-14T11:04:00Z", "max_date": "2022-03-14T11:04:00Z", "count_points": 1, "latitude": 51.17761, "longitude": 24.02498, "city": "Liuboml", "images": []}, {"id": 494765, "min_date": "2022-03-14T11:04:00Z", "max_date": "2022-03-14T11:04:00Z", "count_points": 1, "latitude": 51.63766, "longitude": 25.7019, "city": "Kuznetsovs\u2019k", "images": []}, {"id": 494766, "min_date": "2022-03-14T11:04:00Z", "max_date": "2022-03-14T12:02:00Z", "count_points": 5, "latitude": 51.8308, "longitude": 25.25841, "city": "Lyubeshiv", "images": [{"image_url": "494766.jpg", "timestamp": "2022-03-14T12:02:00Z"}]}, {"id": 494767, "min_date": "2022-03-14T11:04:00Z", "max_date": "2022-03-14T10:21:00Z", "count_points": 3, "latitude": 51.84607, "longitude": 24.83928, "city": "Rakiv Lis", "images": []}, {"id": 494768, "min_date": "2022-03-15T08:13:00Z", "max_date": "2022-03-15T08:13:00Z", "count_points": 1, "latitude": 51.35935, "longitude": 31.24527, "city": "Chernihiv", "images": []}, {"id": 494769, "min_date": "2022-03-15T08:16:00Z", "max_date": "2022-03-15T08:16:00Z", "count_points": 3, "latitude": 48.30573, "longitude": 32.88769, "city": "Novhorodka", "images": [{"image_url": "494769.jpg", "timestamp": "2022-03-15T08:16:00Z"}]}, {"id": 494770, "min_date": "2022-03-15T08:16:00Z", "max_date": "2022-03-15T08:16:00Z", "count_points": 2, "latitude": 48.12711, "longitude": 34.01283, "city": "Sofiyivka", "images": []}, {"id": 494771, "min_date": "2022-03-15T08:18:00Z", "max_date": "2022-03-15T08:18:00Z", "count_points": 1, "latitude": 46.59074, "longitude": 33.28845, "city": "Nova Mayachka", "images": []}, {"id": 494772, "min_date": "2022-03-14T01:24:00Z", "max_date": "2022-03-14T12:02:00Z", "count_points": 17, "latitude": 49.24197, "longitude": 24.22135, "city": "Zhydachiv", "images": [{"image_url": "494772.jpg", "timestamp": "2022-03-14T12:02:00Z"}]}, {"id": 494773, "min_date": "2022-03-14T01:24:00Z", "max_date": "2022-03-14T01:24:00Z", "count_points": 1, "latitude": 48.41819, "longitude": 23.73979, "city": "Kolochava", "images": []}, {"id": 494774, "min_date": "2022-03-14T09:30:00Z", "max_date": "2022-03-14T09:30:00Z", "count_points": 2, "latitude": 45.65048, "longitude": 34.79734, "city": "Pshenichnoye", "images": []}, {"id": 494775, "min_date": "2022-03-14T09:32:00Z", "max_date": "2022-03-14T10:21:00Z", "count_points": 9, "latitude": 51.24014, "longitude": 31.34739, "city": "Olyshivka", "images": []}, {"id": 494776, "min_date": "2022-03-14T09:32:00Z", "max_date": "2022-03-14T11:13:00Z", "count_points": 2, "latitude": 50.10698, "longitude": 26.9462, "city": "Izyaslav", "images": []}, {"id": 494777, "min_date": "2022-03-14T09:32:00Z", "max_date": "2022-03-14T10:21:00Z", "count_points": 4, "latitude": 50.95677, "longitude": 28.87229, "city": "Chopovychi", "images": []}, {"id": 494778, "min_date": "2022-03-14T09:32:00Z", "max_date": "2022-03-14T09:32:00Z", "count_points": 1, "latitude": 50.29667, "longitude": 26.3677, "city": "Ostroh", "images": []}, {"id": 494780, "min_date": "2022-03-14T09:32:00Z", "max_date": "2022-03-14T09:32:00Z", "count_points": 2, "latitude": 51.04589, "longitude": 26.67505, "city": "Berezne", "images": []}, {"id": 494781, "min_date": "2022-03-14T09:32:00Z", "max_date": "2022-03-14T09:32:00Z", "count_points": 1, "latitude": 50.30517, "longitude": 24.58574, "city": "Radekhiv", "images": []}, {"id": 494782, "min_date": "2022-03-14T11:10:00Z", "max_date": "2022-03-14T11:10:00Z", "count_points": 1, "latitude": 47.19066, "longitude": 30.03467, "city": "Velyka Mykhaylivka", "images": []}, {"id": 494783, "min_date": "2022-03-14T11:13:00Z", "max_date": "2022-03-14T11:13:00Z", "count_points": 1, "latitude": 48.18277, "longitude": 26.30635, "city": "Marshintsy", "images": []}, {"id": 494784, "min_date": "2022-03-14T11:13:00Z", "max_date": "2022-03-14T11:13:00Z", "count_points": 1, "latitude": 48.31046, "longitude": 26.18694, "city": "Boyany", "images": []}, {"id": 494785, "min_date": "2022-03-14T11:13:00Z", "max_date": "2022-03-14T11:13:00Z", "count_points": 1, "latitude": 48.38416, "longitude": 26.42884, "city": "Khotyn", "images": []}, {"id": 494786, "min_date": "2022-03-14T11:13:00Z", "max_date": "2022-03-14T11:13:00Z", "count_points": 2, "latitude": 48.43236, "longitude": 26.68302, "city": "Kel\u2019mentsi", "images": []}, {"id": 494787, "min_date": "2022-03-14T11:13:00Z", "max_date": "2022-03-14T11:13:00Z", "count_points": 1, "latitude": 48.09763, "longitude": 23.4837, "city": "Bushtyno", "images": []}, {"id": 494788, "min_date": "2022-03-14T11:13:00Z", "max_date": "2022-03-14T11:13:00Z", "count_points": 1, "latitude": 48.52217, "longitude": 26.48294, "city": "Khotyn", "images": []}, {"id": 494789, "min_date": "2022-03-14T11:13:00Z", "max_date": "2022-03-14T11:13:00Z", "count_points": 1, "latitude": 48.79141, "longitude": 28.7168, "city": "Tulchyn", "images": []}, {"id": 494790, "min_date": "2022-03-14T11:13:00Z", "max_date": "2022-03-14T10:21:00Z", "count_points": 3, "latitude": 48.52965, "longitude": 26.44676, "city": "Zhvanets", "images": [{"image_url": "494790.jpg", "timestamp": "2022-03-14T10:21:00Z"}]}, {"id": 494791, "min_date": "2022-03-14T11:13:00Z", "max_date": "2022-03-14T11:13:00Z", "count_points": 1, "latitude": 48.53009, "longitude": 26.07755, "city": "Klishkivtsi", "images": []}, {"id": 494792, "min_date": "2022-03-14T11:13:00Z", "max_date": "2022-03-14T11:13:00Z", "count_points": 1, "latitude": 48.10514, "longitude": 22.92452, "city": "Bobovo", "images": []}, {"id": 494793, "min_date": "2022-03-14T11:13:00Z", "max_date": "2022-03-14T12:02:00Z", "count_points": 2, "latitude": 48.5343, "longitude": 25.71867, "city": "Verenchanka", "images": []}, {"id": 494794, "min_date": "2022-03-14T11:13:00Z", "max_date": "2022-03-14T11:13:00Z", "count_points": 1, "latitude": 48.16383, "longitude": 23.14127, "city": "Korolevo", "images": []}, {"id": 494795, "min_date": "2022-03-14T11:13:00Z", "max_date": "2022-03-14T10:21:00Z", "count_points": 3, "latitude": 48.53237, "longitude": 25.64029, "city": "Stetseva", "images": [{"image_url": "494795.jpg", "timestamp": "2022-03-14T10:21:00Z"}]}, {"id": 494796, "min_date": "2022-03-14T11:13:00Z", "max_date": "2022-03-14T11:13:00Z", "count_points": 1, "latitude": 48.22613, "longitude": 23.51819, "city": "Drahovo", "images": []}, {"id": 494797, "min_date": "2022-03-14T11:13:00Z", "max_date": "2022-03-14T11:13:00Z", "count_points": 1, "latitude": 48.55608, "longitude": 25.74501, "city": "Verenchanka", "images": []}, {"id": 494798, "min_date": "2022-03-14T11:13:00Z", "max_date": "2022-03-14T10:21:00Z", "count_points": 2, "latitude": 48.69173, "longitude": 26.62868, "city": "Kamianets-Podilskyi", "images": []}, {"id": 494799, "min_date": "2022-03-14T11:13:00Z", "max_date": "2022-03-14T11:13:00Z", "count_points": 1, "latitude": 48.23005, "longitude": 23.10172, "city": "Rokosovo", "images": []}, {"id": 494800, "min_date": "2022-03-14T11:13:00Z", "max_date": "2022-03-14T11:13:00Z", "count_points": 1, "latitude": 48.63725, "longitude": 25.54336, "city": "Horodenka", "images": []}, {"id": 494801, "min_date": "2022-03-14T11:13:00Z", "max_date": "2022-03-14T11:13:00Z", "count_points": 1, "latitude": 48.29865, "longitude": 23.08543, "city": "Bilky", "images": []}, {"id": 494802, "min_date": "2022-03-14T11:13:00Z", "max_date": "2022-03-14T11:13:00Z", "count_points": 1, "latitude": 48.29625, "longitude": 23.04842, "city": "Irshava", "images": []}, {"id": 494803, "min_date": "2022-03-14T11:13:00Z", "max_date": "2022-03-14T12:02:00Z", "count_points": 4, "latitude": 48.67943, "longitude": 25.00736, "city": "Kolomyia", "images": []}, {"id": 494805, "min_date": "2022-03-14T11:13:00Z", "max_date": "2022-03-14T11:13:00Z", "count_points": 1, "latitude": 48.77708, "longitude": 25.59423, "city": "Nyrkiv", "images": []}, {"id": 494806, "min_date": "2022-03-14T11:13:00Z", "max_date": "2022-03-14T11:13:00Z", "count_points": 3, "latitude": 48.36313, "longitude": 22.68713, "city": "Mukacheve", "images": []}, {"id": 494807, "min_date": "2022-03-14T11:13:00Z", "max_date": "2022-03-14T12:02:00Z", "count_points": 2, "latitude": 48.46093, "longitude": 23.227, "city": "Kushnytsya", "images": []}, {"id": 494808, "min_date": "2022-03-14T11:13:00Z", "max_date": "2022-03-14T12:02:00Z", "count_points": 3, "latitude": 48.36316, "longitude": 22.56952, "city": "Strabychovo", "images": []}, {"id": 494809, "min_date": "2022-03-14T11:13:00Z", "max_date": "2022-03-14T10:21:00Z", "count_points": 2, "latitude": 48.34298, "longitude": 22.42631, "city": "Batiovo", "images": []}, {"id": 494810, "min_date": "2022-03-14T11:13:00Z", "max_date": "2022-03-14T11:13:00Z", "count_points": 1, "latitude": 49.03277, "longitude": 27.00949, "city": "Dunayivtsi", "images": []}, {"id": 494811, "min_date": "2022-03-14T11:13:00Z", "max_date": "2022-03-14T12:02:00Z", "count_points": 3, "latitude": 48.42275, "longitude": 22.55425, "city": "Strabychovo", "images": []}, {"id": 494812, "min_date": "2022-03-14T11:13:00Z", "max_date": "2022-03-14T12:02:00Z", "count_points": 5, "latitude": 48.82619, "longitude": 25.03648, "city": "Tlumach", "images": []}, {"id": 494813, "min_date": "2022-03-14T11:13:00Z", "max_date": "2022-03-14T11:13:00Z", "count_points": 1, "latitude": 48.53828, "longitude": 23.0872, "city": "Nelipyno", "images": []}, {"id": 494814, "min_date": "2022-03-14T11:13:00Z", "max_date": "2022-03-14T11:13:00Z", "count_points": 1, "latitude": 48.45702, "longitude": 22.57738, "city": "Rakoshyno", "images": []}, {"id": 494815, "min_date": "2022-03-14T11:13:00Z", "max_date": "2022-03-14T10:21:00Z", "count_points": 2, "latitude": 48.49274, "longitude": 22.57941, "city": "Rakoshyno", "images": []}, {"id": 494816, "min_date": "2022-03-14T11:13:00Z", "max_date": "2022-03-14T11:13:00Z", "count_points": 2, "latitude": 49.08333, "longitude": 26.65293, "city": "Horodok", "images": []}, {"id": 494817, "min_date": "2022-03-14T11:13:00Z", "max_date": "2022-03-14T12:02:00Z", "count_points": 3, "latitude": 48.53209, "longitude": 22.69006, "city": "Mukacheve", "images": []}, {"id": 494818, "min_date": "2022-03-14T11:13:00Z", "max_date": "2022-03-14T11:13:00Z", "count_points": 1, "latitude": 48.97882, "longitude": 25.53381, "city": "Druzhba", "images": []}, {"id": 494819, "min_date": "2022-03-14T11:13:00Z", "max_date": "2022-03-14T11:13:00Z", "count_points": 1, "latitude": 49.27902, "longitude": 27.59613, "city": "Letychiv", "images": []}, {"id": 494820, "min_date": "2022-03-14T11:13:00Z", "max_date": "2022-03-14T12:02:00Z", "count_points": 2, "latitude": 49.25831, "longitude": 27.27978, "city": "Derazhnya", "images": []}, {"id": 494821, "min_date": "2022-03-14T11:13:00Z", "max_date": "2022-03-14T11:13:00Z", "count_points": 1, "latitude": 48.66637, "longitude": 22.90638, "city": "Svalyava", "images": []}, {"id": 494822, "min_date": "2022-03-14T11:13:00Z", "max_date": "2022-03-14T12:02:00Z", "count_points": 2, "latitude": 48.71258, "longitude": 22.62049, "city": "Perechyn", "images": []}, {"id": 494823, "min_date": "2022-03-14T11:13:00Z", "max_date": "2022-03-14T11:13:00Z", "count_points": 1, "latitude": 48.95776, "longitude": 24.07806, "city": "Spas", "images": []}, {"id": 494824, "min_date": "2022-03-14T11:13:00Z", "max_date": "2022-03-14T12:02:00Z", "count_points": 2, "latitude": 48.99631, "longitude": 24.28629, "city": "Novytsya", "images": []}, {"id": 494825, "min_date": "2022-03-14T11:13:00Z", "max_date": "2022-03-14T11:13:00Z", "count_points": 1, "latitude": 49.31572, "longitude": 26.52517, "city": "Horodok", "images": []}, {"id": 494826, "min_date": "2022-03-14T11:13:00Z", "max_date": "2022-03-14T11:13:00Z", "count_points": 1, "latitude": 48.99199, "longitude": 24.00613, "city": "Dolyna", "images": []}, {"id": 494827, "min_date": "2022-03-14T11:13:00Z", "max_date": "2022-03-14T11:13:00Z", "count_points": 1, "latitude": 49.13755, "longitude": 24.37871, "city": "Kalush", "images": []}, {"id": 494828, "min_date": "2022-03-14T11:13:00Z", "max_date": "2022-03-14T11:13:00Z", "count_points": 1, "latitude": 49.16104, "longitude": 24.4706, "city": "Kalush", "images": []}, {"id": 494754, "min_date": "2022-03-14T11:04:00Z", "max_date": "2022-03-14T10:21:00Z", "count_points": 7, "latitude": 51.40721, "longitude": 31.43016, "city": "Chernihiv", "images": []}, {"id": 494831, "min_date": "2022-03-14T11:13:00Z", "max_date": "2022-03-14T10:21:00Z", "count_points": 2, "latitude": 49.26861, "longitude": 24.6795, "city": "Burshtyn", "images": []}, {"id": 494832, "min_date": "2022-03-14T11:13:00Z", "max_date": "2022-03-14T10:21:00Z", "count_points": 2, "latitude": 49.25031, "longitude": 24.4847, "city": "Burshtyn", "images": []}, {"id": 494833, "min_date": "2022-03-14T11:13:00Z", "max_date": "2022-03-14T11:13:00Z", "count_points": 1, "latitude": 49.22404, "longitude": 24.26995, "city": "Khodoriv", "images": []}, {"id": 494834, "min_date": "2022-03-14T11:13:00Z", "max_date": "2022-03-14T11:13:00Z", "count_points": 1, "latitude": 49.56238, "longitude": 25.99415, "city": "Skalat", "images": []}, {"id": 494835, "min_date": "2022-03-14T11:13:00Z", "max_date": "2022-03-14T11:13:00Z", "count_points": 1, "latitude": 49.86975, "longitude": 28.59707, "city": "Berdychiv", "images": []}, {"id": 494836, "min_date": "2022-03-14T11:13:00Z", "max_date": "2022-03-14T11:13:00Z", "count_points": 2, "latitude": 49.29202, "longitude": 23.96585, "city": "Stryi", "images": []}, {"id": 494837, "min_date": "2022-03-14T11:13:00Z", "max_date": "2022-03-14T11:13:00Z", "count_points": 1, "latitude": 49.73776, "longitude": 27.16553, "city": "Starokostiantyniv", "images": []}, {"id": 494838, "min_date": "2022-03-14T11:13:00Z", "max_date": "2022-03-14T11:13:00Z", "count_points": 1, "latitude": 49.35851, "longitude": 24.16194, "city": "Zhydachiv", "images": []}, {"id": 494839, "min_date": "2022-03-14T11:13:00Z", "max_date": "2022-03-14T11:13:00Z", "count_points": 1, "latitude": 49.36378, "longitude": 24.12687, "city": "Zhydachiv", "images": []}, {"id": 494840, "min_date": "2022-03-14T11:13:00Z", "max_date": "2022-03-14T11:13:00Z", "count_points": 1, "latitude": 49.31701, "longitude": 23.76125, "city": "Duliby", "images": []}, {"id": 494841, "min_date": "2022-03-14T11:13:00Z", "max_date": "2022-03-14T12:02:00Z", "count_points": 3, "latitude": 49.49078, "longitude": 24.39298, "city": "Khodoriv", "images": [{"image_url": "494841.jpg", "timestamp": "2022-03-14T12:02:00Z"}]}, {"id": 494842, "min_date": "2022-03-14T11:13:00Z", "max_date": "2022-03-14T11:13:00Z", "count_points": 1, "latitude": 49.36462, "longitude": 23.53254, "city": "Drohobych", "images": []}, {"id": 494844, "min_date": "2022-03-14T11:13:00Z", "max_date": "2022-03-14T11:13:00Z", "count_points": 1, "latitude": 50.19721, "longitude": 29.7128, "city": "Kornyn", "images": []}, {"id": 494845, "min_date": "2022-03-14T11:13:00Z", "max_date": "2022-03-14T11:13:00Z", "count_points": 1, "latitude": 49.47686, "longitude": 23.7171, "city": "Medenychi", "images": []}, {"id": 494846, "min_date": "2022-03-14T11:13:00Z", "max_date": "2022-03-14T12:02:00Z", "count_points": 2, "latitude": 49.48976, "longitude": 23.66937, "city": "Medenychi", "images": []}, {"id": 494847, "min_date": "2022-03-14T11:13:00Z", "max_date": "2022-03-14T11:13:00Z", "count_points": 1, "latitude": 49.44195, "longitude": 23.20989, "city": "Ralivka", "images": []}, {"id": 494848, "min_date": "2022-03-14T11:13:00Z", "max_date": "2022-03-14T10:21:00Z", "count_points": 2, "latitude": 49.96437, "longitude": 27.04143, "city": "Shepetivka", "images": []}, {"id": 494849, "min_date": "2022-03-14T11:13:00Z", "max_date": "2022-03-14T11:13:00Z", "count_points": 1, "latitude": 49.64196, "longitude": 24.41655, "city": "Bibrka", "images": []}, {"id": 494850, "min_date": "2022-03-14T11:13:00Z", "max_date": "2022-03-14T11:13:00Z", "count_points": 1, "latitude": 50.12502, "longitude": 27.46077, "city": "Polonne", "images": []}, {"id": 494851, "min_date": "2022-03-14T11:13:00Z", "max_date": "2022-03-14T12:02:00Z", "count_points": 4, "latitude": 49.6678, "longitude": 23.49357, "city": "Rudky", "images": []}, {"id": 494852, "min_date": "2022-03-14T11:13:00Z", "max_date": "2022-03-15T00:13:00Z", "count_points": 3, "latitude": 50.49725, "longitude": 30.25515, "city": "Irpin", "images": []}, {"id": 494853, "min_date": "2022-03-14T11:13:00Z", "max_date": "2022-03-14T11:10:00Z", "count_points": 2, "latitude": 50.56982, "longitude": 30.85111, "city": "Velyka Dymerka", "images": []}, {"id": 494854, "min_date": "2022-03-14T11:10:00Z", "max_date": "2022-03-14T11:10:00Z", "count_points": 1, "latitude": 49.86951, "longitude": 24.48943, "city": "Krasne", "images": []}, {"id": 494855, "min_date": "2022-03-14T11:10:00Z", "max_date": "2022-03-15T00:13:00Z", "count_points": 6, "latitude": 50.53716, "longitude": 30.24367, "city": "Irpin", "images": []}, {"id": 494856, "min_date": "2022-03-14T11:10:00Z", "max_date": "2022-03-14T10:21:00Z", "count_points": 2, "latitude": 50.59546, "longitude": 30.93315, "city": "Velyka Dymerka", "images": []}, {"id": 494857, "min_date": "2022-03-14T11:10:00Z", "max_date": "2022-03-14T11:10:00Z", "count_points": 1, "latitude": 50.5618, "longitude": 30.29613, "city": "Hostomel", "images": []}, {"id": 494858, "min_date": "2022-03-14T11:10:00Z", "max_date": "2022-03-14T11:10:00Z", "count_points": 1, "latitude": 50.59289, "longitude": 30.41834, "city": "Novi Petrivtsi", "images": []}, {"id": 494859, "min_date": "2022-03-14T11:10:00Z", "max_date": "2022-03-14T12:02:00Z", "count_points": 4, "latitude": 49.7464, "longitude": 23.16292, "city": "Pnikut", "images": []}, {"id": 494860, "min_date": "2022-03-14T11:10:00Z", "max_date": "2022-03-14T11:10:00Z", "count_points": 1, "latitude": 49.80976, "longitude": 23.32411, "city": "Sudova Vyshnya", "images": []}, {"id": 494861, "min_date": "2022-03-14T11:10:00Z", "max_date": "2022-03-14T11:10:00Z", "count_points": 1, "latitude": 49.78284, "longitude": 23.07788, "city": "Mostys'ka", "images": []}, {"id": 494862, "min_date": "2022-03-14T11:10:00Z", "max_date": "2022-03-14T11:10:00Z", "count_points": 1, "latitude": 50.17173, "longitude": 25.82206, "city": "Smyga", "images": []}, {"id": 494863, "min_date": "2022-03-14T11:10:00Z", "max_date": "2022-03-14T12:02:00Z", "count_points": 3, "latitude": 49.8214, "longitude": 23.16276, "city": "Mostys'ka", "images": []}, {"id": 494864, "min_date": "2022-03-14T11:10:00Z", "max_date": "2022-03-14T11:10:00Z", "count_points": 1, "latitude": 49.88419, "longitude": 23.29177, "city": "Yavoriv", "images": []}, {"id": 494865, "min_date": "2022-03-14T11:10:00Z", "max_date": "2022-03-14T12:02:00Z", "count_points": 2, "latitude": 50.07376, "longitude": 23.97982, "city": "Zhovkva", "images": []}, {"id": 494866, "min_date": "2022-03-14T11:10:00Z", "max_date": "2022-03-14T11:10:00Z", "count_points": 1, "latitude": 50.08741, "longitude": 24.02567, "city": "Zhovkva", "images": []}, {"id": 494867, "min_date": "2022-03-14T11:10:00Z", "max_date": "2022-03-14T11:10:00Z", "count_points": 1, "latitude": 50.18681, "longitude": 24.42791, "city": "Staryy Dobrotvir", "images": []}, {"id": 494869, "min_date": "2022-03-14T11:10:00Z", "max_date": "2022-03-14T11:10:00Z", "count_points": 2, "latitude": 50.31313, "longitude": 23.83414, "city": "Uhniv", "images": []}, {"id": 494870, "min_date": "2022-03-14T11:10:00Z", "max_date": "2022-03-14T11:10:00Z", "count_points": 1, "latitude": 50.49656, "longitude": 24.18351, "city": "Sokal\u2019", "images": []}, {"id": 494871, "min_date": "2022-03-14T11:10:00Z", "max_date": "2022-03-14T12:02:00Z", "count_points": 2, "latitude": 50.75959, "longitude": 25.79037, "city": "Olyka", "images": []}, {"id": 494872, "min_date": "2022-03-14T11:10:00Z", "max_date": "2022-03-14T11:10:00Z", "count_points": 2, "latitude": 50.79838, "longitude": 26.08411, "city": "Orzhiv", "images": []}, {"id": 494873, "min_date": "2022-03-14T11:10:00Z", "max_date": "2022-03-14T11:10:00Z", "count_points": 1, "latitude": 51.12486, "longitude": 28.18608, "city": "Novi Bilokorovychi", "images": []}, {"id": 494874, "min_date": "2022-03-14T11:10:00Z", "max_date": "2022-03-14T11:10:00Z", "count_points": 1, "latitude": 51.03909, "longitude": 26.5009, "city": "Kostopil\u2019", "images": []}, {"id": 494875, "min_date": "2022-03-14T11:10:00Z", "max_date": "2022-03-14T11:10:00Z", "count_points": 2, "latitude": 51.27226, "longitude": 27.278, "city": "Rokytne", "images": []}, {"id": 494876, "min_date": "2022-03-14T11:10:00Z", "max_date": "2022-03-14T12:02:00Z", "count_points": 5, "latitude": 51.37462, "longitude": 27.46569, "city": "Olevs\u2019k", "images": []}, {"id": 494877, "min_date": "2022-03-14T11:10:00Z", "max_date": "2022-03-14T11:10:00Z", "count_points": 2, "latitude": 51.80177, "longitude": 31.86181, "city": "Shchors", "images": []}, {"id": 494878, "min_date": "2022-03-14T11:10:00Z", "max_date": "2022-03-14T10:21:00Z", "count_points": 2, "latitude": 51.59087, "longitude": 27.88833, "city": "Olevs\u2019k", "images": []}, {"id": 494879, "min_date": "2022-03-14T11:10:00Z", "max_date": "2022-03-14T10:21:00Z", "count_points": 2, "latitude": 51.61069, "longitude": 27.09346, "city": "Rokytne", "images": []}, {"id": 494880, "min_date": "2022-03-14T11:10:00Z", "max_date": "2022-03-14T11:10:00Z", "count_points": 1, "latitude": 51.362, "longitude": 24.94464, "city": "Nuyno", "images": []}, {"id": 494881, "min_date": "2022-03-14T11:10:00Z", "max_date": "2022-03-14T10:21:00Z", "count_points": 2, "latitude": 51.61772, "longitude": 26.63043, "city": "Dubrovytsya", "images": []}, {"id": 494882, "min_date": "2022-03-14T11:10:00Z", "max_date": "2022-03-14T11:10:00Z", "count_points": 1, "latitude": 51.47231, "longitude": 24.29626, "city": "Stara Vyzhivka", "images": []}, {"id": 494883, "min_date": "2022-03-14T11:10:00Z", "max_date": "2022-03-14T11:10:00Z", "count_points": 1, "latitude": 51.74141, "longitude": 26.05924, "city": "Zarichne", "images": []}, {"id": 494884, "min_date": "2022-03-14T11:10:00Z", "max_date": "2022-03-14T11:10:00Z", "count_points": 1, "latitude": 51.49327, "longitude": 23.93921, "city": "Shats\u2019k", "images": []}, {"id": 494885, "min_date": "2022-03-14T11:10:00Z", "max_date": "2022-03-14T11:10:00Z", "count_points": 2, "latitude": 51.56576, "longitude": 24.23602, "city": "Stara Vyzhivka", "images": []}, {"id": 494886, "min_date": "2022-03-14T11:10:00Z", "max_date": "2022-03-14T11:10:00Z", "count_points": 1, "latitude": 51.83613, "longitude": 26.31705, "city": "Zarichne", "images": []}, {"id": 494887, "min_date": "2022-03-14T11:10:00Z", "max_date": "2022-03-14T11:10:00Z", "count_points": 1, "latitude": 51.83932, "longitude": 26.25012, "city": "Zarichne", "images": []}, {"id": 494888, "min_date": "2022-03-14T11:10:00Z", "max_date": "2022-03-14T11:10:00Z", "count_points": 2, "latitude": 51.80223, "longitude": 25.69467, "city": "Lyubeshiv", "images": []}, {"id": 494889, "min_date": "2022-03-14T11:10:00Z", "max_date": "2022-03-14T11:10:00Z", "count_points": 1, "latitude": 51.78767, "longitude": 24.66713, "city": "Ratne", "images": []}, {"id": 494890, "min_date": "2022-03-14T23:24:00Z", "max_date": "2022-03-15T00:13:00Z", "count_points": 6, "latitude": 51.30225, "longitude": 31.27604, "city": "Olyshivka", "images": [{"image_url": "494890.jpg", "timestamp": "2022-03-15T00:13:00Z"}]}, {"id": 494891, "min_date": "2022-03-14T23:24:00Z", "max_date": "2022-03-15T00:13:00Z", "count_points": 2, "latitude": 50.48091, "longitude": 34.96587, "city": "Trostyanets\u2019", "images": []}, {"id": 494892, "min_date": "2022-03-14T23:24:00Z", "max_date": "2022-03-15T00:13:00Z", "count_points": 6, "latitude": 50.87256, "longitude": 29.72291, "city": "Ivankiv", "images": []}, {"id": 494893, "min_date": "2022-03-14T23:24:00Z", "max_date": "2022-03-15T00:13:00Z", "count_points": 2, "latitude": 50.39709, "longitude": 34.59193, "city": "Lebedyn", "images": []}, {"id": 494894, "min_date": "2022-03-14T23:24:00Z", "max_date": "2022-03-15T00:13:00Z", "count_points": 2, "latitude": 50.64457, "longitude": 31.18919, "city": "Bobrovytsya", "images": []}, {"id": 494895, "min_date": "2022-03-14T23:24:00Z", "max_date": "2022-03-15T00:13:00Z", "count_points": 4, "latitude": 50.62756, "longitude": 30.2132, "city": "Hostomel", "images": []}, {"id": 494896, "min_date": "2022-03-14T23:24:00Z", "max_date": "2022-03-15T00:13:00Z", "count_points": 4, "latitude": 50.49286, "longitude": 31.25118, "city": "Baryshivka", "images": []}, {"id": 494897, "min_date": "2022-03-14T23:24:00Z", "max_date": "2022-03-15T00:13:00Z", "count_points": 6, "latitude": 50.53136, "longitude": 30.15666, "city": "Vorzel\u2019", "images": []}, {"id": 494898, "min_date": "2022-03-14T23:24:00Z", "max_date": "2022-03-15T00:13:00Z", "count_points": 4, "latitude": 50.47856, "longitude": 29.70531, "city": "Makariv", "images": []}, {"id": 494900, "min_date": "2022-03-15T01:07:00Z", "max_date": "2022-03-15T00:16:00Z", "count_points": 2, "latitude": 50.60085, "longitude": 24.61899, "city": "Lokachi", "images": []}, {"id": 494901, "min_date": "2022-03-15T01:07:00Z", "max_date": "2022-03-15T00:16:00Z", "count_points": 2, "latitude": 49.07958, "longitude": 28.87576, "city": "Nemyriv", "images": []}, {"id": 494902, "min_date": "2022-03-15T01:07:00Z", "max_date": "2022-03-15T00:16:00Z", "count_points": 2, "latitude": 49.32763, "longitude": 23.87289, "city": "Stryi", "images": []}, {"id": 494903, "min_date": "2022-03-15T01:07:00Z", "max_date": "2022-03-15T01:07:00Z", "count_points": 1, "latitude": 49.50328, "longitude": 23.10294, "city": "Voyutychi", "images": []}, {"id": 494904, "min_date": "2022-03-15T01:07:00Z", "max_date": "2022-03-14T12:02:00Z", "count_points": 3, "latitude": 49.37302, "longitude": 23.4943, "city": "Drohobych", "images": []}, {"id": 494905, "min_date": "2022-03-14T00:35:00Z", "max_date": "2022-03-14T00:35:00Z", "count_points": 1, "latitude": 50.9548, "longitude": 24.21996, "city": "Volodymyr-Volynskyi", "images": []}, {"id": 494830, "min_date": "2022-03-14T11:13:00Z", "max_date": "2022-03-14T11:13:00Z", "count_points": 2, "latitude": 49.2512, "longitude": 24.78551, "city": "Bilshivtsi", "images": []}, {"id": 494908, "min_date": "2022-03-14T10:19:00Z", "max_date": "2022-03-14T10:19:00Z", "count_points": 3, "latitude": 47.29957, "longitude": 31.56157, "city": "Nova Odesa", "images": []}, {"id": 494909, "min_date": "2022-03-14T10:21:00Z", "max_date": "2022-03-14T12:02:00Z", "count_points": 2, "latitude": 48.37913, "longitude": 26.06085, "city": "Boyany", "images": []}, {"id": 494910, "min_date": "2022-03-14T10:21:00Z", "max_date": "2022-03-14T12:02:00Z", "count_points": 7, "latitude": 48.60628, "longitude": 26.46575, "city": "Zhvanets", "images": [{"image_url": "494910.jpg", "timestamp": "2022-03-14T12:02:00Z"}]}, {"id": 494911, "min_date": "2022-03-14T10:21:00Z", "max_date": "2022-03-14T10:21:00Z", "count_points": 1, "latitude": 48.70989, "longitude": 26.87188, "city": "Dunaivtsi", "images": []}, {"id": 494913, "min_date": "2022-03-14T10:21:00Z", "max_date": "2022-03-14T10:21:00Z", "count_points": 2, "latitude": 48.55537, "longitude": 25.41096, "city": "Chernyatyn", "images": []}, {"id": 494914, "min_date": "2022-03-14T10:21:00Z", "max_date": "2022-03-14T10:21:00Z", "count_points": 2, "latitude": 48.53048, "longitude": 25.2954, "city": "Zabolotiv", "images": []}, {"id": 494915, "min_date": "2022-03-14T10:21:00Z", "max_date": "2022-03-14T10:21:00Z", "count_points": 1, "latitude": 49.07026, "longitude": 27.10397, "city": "Vinkivtsi", "images": []}, {"id": 494916, "min_date": "2022-03-14T10:21:00Z", "max_date": "2022-03-15T00:16:00Z", "count_points": 2, "latitude": 50.1784, "longitude": 30.41211, "city": "Vasylkiv", "images": []}, {"id": 494917, "min_date": "2022-03-14T10:21:00Z", "max_date": "2022-03-14T10:21:00Z", "count_points": 1, "latitude": 49.74205, "longitude": 27.23107, "city": "Starokostiantyniv", "images": []}, {"id": 494918, "min_date": "2022-03-14T10:21:00Z", "max_date": "2022-03-14T10:21:00Z", "count_points": 1, "latitude": 50.58646, "longitude": 31.04893, "city": "Velyka Dymerka", "images": []}, {"id": 494919, "min_date": "2022-03-14T10:21:00Z", "max_date": "2022-03-14T10:21:00Z", "count_points": 2, "latitude": 50.47723, "longitude": 29.97687, "city": "Klavdiyevo-Tarasove", "images": []}, {"id": 494920, "min_date": "2022-03-14T10:21:00Z", "max_date": "2022-03-14T10:21:00Z", "count_points": 2, "latitude": 50.47415, "longitude": 29.81932, "city": "Makariv", "images": []}, {"id": 494921, "min_date": "2022-03-14T10:21:00Z", "max_date": "2022-03-14T10:21:00Z", "count_points": 1, "latitude": 49.81293, "longitude": 26.78391, "city": "Antoniny", "images": []}, {"id": 494922, "min_date": "2022-03-14T10:21:00Z", "max_date": "2022-03-14T10:21:00Z", "count_points": 1, "latitude": 50.67327, "longitude": 30.30962, "city": "Liutizh", "images": []}, {"id": 494923, "min_date": "2022-03-14T10:21:00Z", "max_date": "2022-03-14T12:02:00Z", "count_points": 4, "latitude": 49.56692, "longitude": 24.81985, "city": "Pomoriany", "images": [{"image_url": "494923.jpg", "timestamp": "2022-03-14T12:02:00Z"}]}, {"id": 494924, "min_date": "2022-03-14T10:21:00Z", "max_date": "2022-03-14T10:21:00Z", "count_points": 2, "latitude": 49.51535, "longitude": 24.38046, "city": "Khodoriv", "images": []}, {"id": 494925, "min_date": "2022-03-14T10:21:00Z", "max_date": "2022-03-14T10:21:00Z", "count_points": 1, "latitude": 50.2285, "longitude": 26.34391, "city": "Ostroh", "images": []}, {"id": 494926, "min_date": "2022-03-14T10:21:00Z", "max_date": "2022-03-14T10:21:00Z", "count_points": 1, "latitude": 51.01691, "longitude": 29.70898, "city": "Krasyatychi", "images": []}, {"id": 494927, "min_date": "2022-03-14T10:21:00Z", "max_date": "2022-03-14T10:21:00Z", "count_points": 1, "latitude": 49.54323, "longitude": 23.23391, "city": "Ralivka", "images": []}, {"id": 494928, "min_date": "2022-03-14T10:21:00Z", "max_date": "2022-03-14T10:21:00Z", "count_points": 1, "latitude": 51.50657, "longitude": 31.20953, "city": "Chernihiv", "images": []}, {"id": 494929, "min_date": "2022-03-14T10:21:00Z", "max_date": "2022-03-14T10:21:00Z", "count_points": 1, "latitude": 50.64814, "longitude": 27.08538, "city": "Korets", "images": []}, {"id": 494930, "min_date": "2022-03-14T10:21:00Z", "max_date": "2022-03-14T10:21:00Z", "count_points": 1, "latitude": 50.69815, "longitude": 26.80907, "city": "Velyki Mezhyrichi", "images": []}, {"id": 494931, "min_date": "2022-03-14T10:21:00Z", "max_date": "2022-03-14T10:21:00Z", "count_points": 2, "latitude": 50.19797, "longitude": 23.85087, "city": "Hlyns'k", "images": []}, {"id": 494932, "min_date": "2022-03-14T10:21:00Z", "max_date": "2022-03-14T10:21:00Z", "count_points": 1, "latitude": 51.11962, "longitude": 27.27106, "city": "Rokytne", "images": []}, {"id": 494933, "min_date": "2022-03-14T10:21:00Z", "max_date": "2022-03-14T10:21:00Z", "count_points": 1, "latitude": 50.5182, "longitude": 24.53308, "city": "Ivanychi", "images": []}, {"id": 494934, "min_date": "2022-03-14T10:21:00Z", "max_date": "2022-03-14T10:21:00Z", "count_points": 1, "latitude": 51.13282, "longitude": 26.79429, "city": "Berezne", "images": []}, {"id": 494935, "min_date": "2022-03-14T10:21:00Z", "max_date": "2022-03-14T10:21:00Z", "count_points": 1, "latitude": 51.28086, "longitude": 26.11676, "city": "Volodymyrets\u2019", "images": []}, {"id": 494936, "min_date": "2022-03-14T10:21:00Z", "max_date": "2022-03-14T10:21:00Z", "count_points": 1, "latitude": 51.09139, "longitude": 24.95229, "city": "Ho\u0142oby", "images": []}, {"id": 494937, "min_date": "2022-03-14T10:21:00Z", "max_date": "2022-03-14T10:21:00Z", "count_points": 1, "latitude": 51.85918, "longitude": 25.99468, "city": "Zarichne", "images": []}, {"id": 494938, "min_date": "2022-03-14T12:02:00Z", "max_date": "2022-03-14T12:02:00Z", "count_points": 2, "latitude": 48.07329, "longitude": 25.87322, "city": "Hlyboka", "images": []}, {"id": 494939, "min_date": "2022-03-14T12:02:00Z", "max_date": "2022-03-14T12:02:00Z", "count_points": 1, "latitude": 48.03772, "longitude": 23.40615, "city": "Vyshkovo", "images": []}, {"id": 494940, "min_date": "2022-03-14T12:02:00Z", "max_date": "2022-03-14T12:02:00Z", "count_points": 1, "latitude": 48.12624, "longitude": 23.60742, "city": "Tyachiv", "images": []}, {"id": 494941, "min_date": "2022-03-14T12:02:00Z", "max_date": "2022-03-14T12:02:00Z", "count_points": 1, "latitude": 48.23697, "longitude": 26.17332, "city": "Boyany", "images": []}, {"id": 494942, "min_date": "2022-03-14T12:02:00Z", "max_date": "2022-03-14T12:02:00Z", "count_points": 2, "latitude": 48.17685, "longitude": 23.58144, "city": "Drahovo", "images": []}, {"id": 494943, "min_date": "2022-03-14T12:02:00Z", "max_date": "2022-03-14T12:02:00Z", "count_points": 1, "latitude": 48.36516, "longitude": 26.4839, "city": "Khotyn", "images": []}, {"id": 494945, "min_date": "2022-03-14T12:02:00Z", "max_date": "2022-03-14T12:02:00Z", "count_points": 1, "latitude": 48.30534, "longitude": 22.9199, "city": "Irshava", "images": []}, {"id": 494946, "min_date": "2022-03-14T12:02:00Z", "max_date": "2022-03-14T12:02:00Z", "count_points": 1, "latitude": 48.41741, "longitude": 22.65456, "city": "Nove Davydkovo", "images": []}, {"id": 494947, "min_date": "2022-03-14T12:02:00Z", "max_date": "2022-03-14T12:02:00Z", "count_points": 1, "latitude": 48.4081, "longitude": 22.38331, "city": "Batiovo", "images": []}, {"id": 494948, "min_date": "2022-03-14T12:02:00Z", "max_date": "2022-03-14T12:02:00Z", "count_points": 5, "latitude": 48.45435, "longitude": 22.47668, "city": "Strabychovo", "images": []}, {"id": 494949, "min_date": "2022-03-14T12:02:00Z", "max_date": "2022-03-14T12:02:00Z", "count_points": 1, "latitude": 48.50344, "longitude": 23.19823, "city": "Bereznyky", "images": []}, {"id": 494950, "min_date": "2022-03-14T12:02:00Z", "max_date": "2022-03-14T12:02:00Z", "count_points": 2, "latitude": 48.55196, "longitude": 22.93424, "city": "Svalyava", "images": []}, {"id": 494951, "min_date": "2022-03-14T12:02:00Z", "max_date": "2022-03-14T12:02:00Z", "count_points": 1, "latitude": 48.66318, "longitude": 25.58387, "city": "Horodenka", "images": []}, {"id": 494952, "min_date": "2022-03-14T12:02:00Z", "max_date": "2022-03-14T12:02:00Z", "count_points": 2, "latitude": 48.67923, "longitude": 22.71842, "city": "Poroshkovo", "images": []}, {"id": 494953, "min_date": "2022-03-14T12:02:00Z", "max_date": "2022-03-14T12:02:00Z", "count_points": 1, "latitude": 48.85277, "longitude": 22.62916, "city": "Velykyi Bereznyi", "images": []}, {"id": 494954, "min_date": "2022-03-14T12:02:00Z", "max_date": "2022-03-14T12:02:00Z", "count_points": 1, "latitude": 49.0107, "longitude": 25.26291, "city": "Monastyrys\u2019ka", "images": []}, {"id": 494955, "min_date": "2022-03-14T12:02:00Z", "max_date": "2022-03-14T12:02:00Z", "count_points": 1, "latitude": 49.17294, "longitude": 27.29616, "city": "Vinkivtsi", "images": []}, {"id": 494956, "min_date": "2022-03-14T12:02:00Z", "max_date": "2022-03-14T12:02:00Z", "count_points": 1, "latitude": 49.14128, "longitude": 24.03049, "city": "Morshyn", "images": []}, {"id": 494957, "min_date": "2022-03-14T12:02:00Z", "max_date": "2022-03-14T12:02:00Z", "count_points": 2, "latitude": 49.18383, "longitude": 24.75705, "city": "Bilshivtsi", "images": []}, {"id": 494958, "min_date": "2022-03-14T12:02:00Z", "max_date": "2022-03-14T12:02:00Z", "count_points": 1, "latitude": 49.18871, "longitude": 24.92626, "city": "Bilshivtsi", "images": []}, {"id": 494959, "min_date": "2022-03-14T12:02:00Z", "max_date": "2022-03-14T12:02:00Z", "count_points": 2, "latitude": 49.33239, "longitude": 26.5658, "city": "Horodok", "images": []}, {"id": 494960, "min_date": "2022-03-14T12:02:00Z", "max_date": "2022-03-14T12:02:00Z", "count_points": 1, "latitude": 49.24525, "longitude": 23.61417, "city": "Ulychne", "images": []}, {"id": 494961, "min_date": "2022-03-14T12:02:00Z", "max_date": "2022-03-14T12:02:00Z", "count_points": 1, "latitude": 49.32772, "longitude": 23.70317, "city": "Ulychne", "images": []}, {"id": 494962, "min_date": "2022-03-14T12:02:00Z", "max_date": "2022-03-14T12:02:00Z", "count_points": 1, "latitude": 49.36611, "longitude": 24.44292, "city": "Khodoriv", "images": []}, {"id": 494963, "min_date": "2022-03-14T12:02:00Z", "max_date": "2022-03-14T12:02:00Z", "count_points": 2, "latitude": 49.37981, "longitude": 24.37047, "city": "Khodoriv", "images": []}, {"id": 494964, "min_date": "2022-03-14T12:02:00Z", "max_date": "2022-03-14T12:02:00Z", "count_points": 2, "latitude": 49.43318, "longitude": 25.00214, "city": "\u0411\u0435\u0440\u0435\u0436\u0430\u043d\u0438", "images": []}, {"id": 494965, "min_date": "2022-03-14T12:02:00Z", "max_date": "2022-03-14T12:02:00Z", "count_points": 1, "latitude": 49.46487, "longitude": 24.2675, "city": "Khodoriv", "images": []}, {"id": 494966, "min_date": "2022-03-14T12:02:00Z", "max_date": "2022-03-14T12:02:00Z", "count_points": 2, "latitude": 49.44225, "longitude": 23.54971, "city": "Rykhtychi", "images": []}, {"id": 494967, "min_date": "2022-03-14T12:02:00Z", "max_date": "2022-03-14T12:02:00Z", "count_points": 1, "latitude": 49.42301, "longitude": 23.00255, "city": "Staryy Sambir", "images": []}, {"id": 494968, "min_date": "2022-03-14T12:02:00Z", "max_date": "2022-03-14T12:02:00Z", "count_points": 1, "latitude": 49.65813, "longitude": 29.10105, "city": "Ruzhyn", "images": []}, {"id": 494969, "min_date": "2022-03-14T12:02:00Z", "max_date": "2022-03-14T12:02:00Z", "count_points": 1, "latitude": 49.62662, "longitude": 24.45469, "city": "Peremyshlyany", "images": []}, {"id": 494971, "min_date": "2022-03-14T12:02:00Z", "max_date": "2022-03-14T12:02:00Z", "count_points": 2, "latitude": 49.64639, "longitude": 23.26562, "city": "Pnikut", "images": []}, {"id": 494972, "min_date": "2022-03-14T12:02:00Z", "max_date": "2022-03-14T12:02:00Z", "count_points": 1, "latitude": 49.66083, "longitude": 23.34713, "city": "Sudova Vyshnya", "images": []}, {"id": 494973, "min_date": "2022-03-14T12:02:00Z", "max_date": "2022-03-14T12:02:00Z", "count_points": 1, "latitude": 49.73886, "longitude": 24.91262, "city": "Zolochiv", "images": []}, {"id": 494974, "min_date": "2022-03-14T12:02:00Z", "max_date": "2022-03-14T12:02:00Z", "count_points": 1, "latitude": 49.70506, "longitude": 23.68604, "city": "Komarno", "images": []}, {"id": 494975, "min_date": "2022-03-14T12:02:00Z", "max_date": "2022-03-14T12:02:00Z", "count_points": 2, "latitude": 49.78585, "longitude": 28.2747, "city": "Ulaniv", "images": []}, {"id": 494976, "min_date": "2022-03-14T12:02:00Z", "max_date": "2022-03-14T12:02:00Z", "count_points": 1, "latitude": 49.73576, "longitude": 24.25623, "city": "Dzvinogrud", "images": []}, {"id": 494977, "min_date": "2022-03-14T12:02:00Z", "max_date": "2022-03-14T12:02:00Z", "count_points": 1, "latitude": 49.70786, "longitude": 23.48648, "city": "Rudky", "images": []}, {"id": 494978, "min_date": "2022-03-14T12:02:00Z", "max_date": "2022-03-14T12:02:00Z", "count_points": 1, "latitude": 49.79698, "longitude": 23.21787, "city": "Mostys'ka", "images": []}, {"id": 494979, "min_date": "2022-03-14T12:02:00Z", "max_date": "2022-03-14T12:02:00Z", "count_points": 2, "latitude": 49.87426, "longitude": 23.84629, "city": "Sukhovolya", "images": []}, {"id": 494980, "min_date": "2022-03-14T12:02:00Z", "max_date": "2022-03-14T12:02:00Z", "count_points": 1, "latitude": 49.95826, "longitude": 26.98435, "city": "Antoniny", "images": []}, {"id": 494981, "min_date": "2022-03-14T12:02:00Z", "max_date": "2022-03-14T12:02:00Z", "count_points": 1, "latitude": 50.01429, "longitude": 24.14387, "city": "Kulykiv", "images": []}, {"id": 494982, "min_date": "2022-03-14T12:02:00Z", "max_date": "2022-03-14T12:02:00Z", "count_points": 1, "latitude": 50.17594, "longitude": 30.28456, "city": "Vasylkiv", "images": []}, {"id": 494907, "min_date": "2022-03-14T10:19:00Z", "max_date": "2022-03-14T10:19:00Z", "count_points": 1, "latitude": 45.84381, "longitude": 33.74184, "city": "Ilyinka", "images": []}, {"id": 494985, "min_date": "2022-03-14T12:02:00Z", "max_date": "2022-03-14T12:02:00Z", "count_points": 3, "latitude": 50.35038, "longitude": 24.72947, "city": "Kulykiv", "images": []}, {"id": 494987, "min_date": "2022-03-14T12:02:00Z", "max_date": "2022-03-14T12:02:00Z", "count_points": 1, "latitude": 50.49794, "longitude": 26.44044, "city": "Kolodenka", "images": []}, {"id": 494988, "min_date": "2022-03-14T12:02:00Z", "max_date": "2022-03-14T12:02:00Z", "count_points": 1, "latitude": 50.47025, "longitude": 24.29233, "city": "Sokal\u2019", "images": []}, {"id": 494989, "min_date": "2022-03-14T12:02:00Z", "max_date": "2022-03-14T12:02:00Z", "count_points": 1, "latitude": 50.50907, "longitude": 25.6347, "city": "Mlyniv", "images": []}, {"id": 494990, "min_date": "2022-03-14T12:02:00Z", "max_date": "2022-03-14T12:02:00Z", "count_points": 2, "latitude": 50.58935, "longitude": 31.19955, "city": "Kirove", "images": []}, {"id": 494991, "min_date": "2022-03-14T12:02:00Z", "max_date": "2022-03-14T12:02:00Z", "count_points": 2, "latitude": 50.62657, "longitude": 30.41514, "city": "Novi Petrivtsi", "images": []}, {"id": 494992, "min_date": "2022-03-14T12:02:00Z", "max_date": "2022-03-14T12:02:00Z", "count_points": 1, "latitude": 50.64834, "longitude": 25.97551, "city": "Klevan\u2019", "images": []}, {"id": 494993, "min_date": "2022-03-14T12:02:00Z", "max_date": "2022-03-14T12:02:00Z", "count_points": 1, "latitude": 50.64442, "longitude": 25.75845, "city": "Olyka", "images": []}, {"id": 494994, "min_date": "2022-03-14T12:02:00Z", "max_date": "2022-03-14T12:02:00Z", "count_points": 1, "latitude": 50.70956, "longitude": 24.38124, "city": "Ivanychi", "images": []}, {"id": 494995, "min_date": "2022-03-14T12:02:00Z", "max_date": "2022-03-14T12:02:00Z", "count_points": 2, "latitude": 50.89927, "longitude": 27.98421, "city": "Yemil\u2019chyne", "images": []}, {"id": 494996, "min_date": "2022-03-14T12:02:00Z", "max_date": "2022-03-14T12:02:00Z", "count_points": 1, "latitude": 50.91003, "longitude": 24.87035, "city": "Ho\u0142oby", "images": []}, {"id": 494997, "min_date": "2022-03-14T12:02:00Z", "max_date": "2022-03-14T12:02:00Z", "count_points": 1, "latitude": 50.95655, "longitude": 24.54218, "city": "Turiys\u2019k", "images": []}, {"id": 494998, "min_date": "2022-03-14T12:02:00Z", "max_date": "2022-03-14T12:02:00Z", "count_points": 2, "latitude": 51.43124, "longitude": 26.98843, "city": "Rokytne", "images": []}, {"id": 494999, "min_date": "2022-03-14T12:02:00Z", "max_date": "2022-03-14T12:02:00Z", "count_points": 3, "latitude": 51.46368, "longitude": 26.96519, "city": "Rokytne", "images": []}, {"id": 495000, "min_date": "2022-03-14T12:02:00Z", "max_date": "2022-03-14T12:02:00Z", "count_points": 2, "latitude": 51.41869, "longitude": 24.04673, "city": "Shats\u2019k", "images": []}, {"id": 495001, "min_date": "2022-03-14T12:02:00Z", "max_date": "2022-03-14T12:02:00Z", "count_points": 1, "latitude": 51.40816, "longitude": 23.79538, "city": "Svityaz\u2019", "images": []}, {"id": 495002, "min_date": "2022-03-14T12:02:00Z", "max_date": "2022-03-14T12:02:00Z", "count_points": 2, "latitude": 51.44168, "longitude": 24.00456, "city": "Shats\u2019k", "images": []}, {"id": 495003, "min_date": "2022-03-14T12:02:00Z", "max_date": "2022-03-14T12:02:00Z", "count_points": 1, "latitude": 51.82771, "longitude": 24.87182, "city": "Rakiv Lis", "images": []}, {"id": 495004, "min_date": "2022-03-15T00:13:00Z", "max_date": "2022-03-15T00:13:00Z", "count_points": 1, "latitude": 51.31596, "longitude": 31.50971, "city": "Kulykivka", "images": []}, {"id": 495005, "min_date": "2022-03-15T00:13:00Z", "max_date": "2022-03-15T00:13:00Z", "count_points": 1, "latitude": 51.47941, "longitude": 27.00643, "city": "Rokytne", "images": []}, {"id": 495006, "min_date": "2022-03-15T00:13:00Z", "max_date": "2022-03-15T00:13:00Z", "count_points": 1, "latitude": 51.223, "longitude": 27.72589, "city": "Olevs\u2019k", "images": []}, {"id": 495007, "min_date": "2022-03-15T00:13:00Z", "max_date": "2022-03-15T00:13:00Z", "count_points": 1, "latitude": 50.43708, "longitude": 30.16279, "city": "Vorzel\u2019", "images": []}, {"id": 495008, "min_date": "2022-03-15T00:13:00Z", "max_date": "2022-03-15T00:13:00Z", "count_points": 1, "latitude": 50.4255, "longitude": 29.67389, "city": "Makariv", "images": []}, {"id": 495010, "min_date": "2022-03-15T00:16:00Z", "max_date": "2022-03-15T00:16:00Z", "count_points": 1, "latitude": 49.55377, "longitude": 28.28618, "city": "Pavlovka", "images": []}, {"id": 495011, "min_date": "2022-03-15T00:16:00Z", "max_date": "2022-03-15T00:16:00Z", "count_points": 1, "latitude": 49.63104, "longitude": 23.08697, "city": "Voyutychi", "images": []}, {"id": 495012, "min_date": "2022-03-15T00:16:00Z", "max_date": "2022-03-15T00:16:00Z", "count_points": 1, "latitude": 49.05652, "longitude": 25.91745, "city": "Kopychyntsi", "images": []}, {"id": 494984, "min_date": "2022-03-14T12:02:00Z", "max_date": "2022-03-14T12:02:00Z", "count_points": 1, "latitude": 50.34057, "longitude": 24.94566, "city": "Kulykiv", "images": []}, {"id": 494676, "min_date": "2022-03-14T09:09:00Z", "max_date": "2022-03-14T12:02:00Z", "count_points": 8, "latitude": 51.2452, "longitude": 27.31566, "city": "Rokytne", "images": [{"image_url": "494676.jpg", "timestamp": "2022-03-14T12:02:00Z"}]}, {"id": 494681, "min_date": "2022-03-14T09:09:00Z", "max_date": "2022-03-14T09:09:00Z", "count_points": 1, "latitude": 50.4259, "longitude": 30.30196, "city": "Sofiyivska Borschagivka", "images": []}, {"id": 494711, "min_date": "2022-03-14T11:04:00Z", "max_date": "2022-03-14T10:21:00Z", "count_points": 2, "latitude": 48.53509, "longitude": 23.00989, "city": "Svalyava", "images": []}, {"id": 494738, "min_date": "2022-03-14T11:04:00Z", "max_date": "2022-03-14T12:02:00Z", "count_points": 4, "latitude": 49.74435, "longitude": 23.56218, "city": "Rodatychi", "images": []}, {"id": 494753, "min_date": "2022-03-14T11:04:00Z", "max_date": "2022-03-14T10:21:00Z", "count_points": 3, "latitude": 50.22646, "longitude": 23.7083, "city": "Rava-Rus\u2019ka", "images": []}, {"id": 494779, "min_date": "2022-03-14T09:32:00Z", "max_date": "2022-03-14T12:02:00Z", "count_points": 5, "latitude": 49.96686, "longitude": 24.44967, "city": "Novyy Yarychiv", "images": [{"image_url": "494779.jpg", "timestamp": "2022-03-14T12:02:00Z"}]}, {"id": 494804, "min_date": "2022-03-14T11:13:00Z", "max_date": "2022-03-14T11:13:00Z", "count_points": 1, "latitude": 48.84995, "longitude": 26.23114, "city": "Skala-Podil\u2019s\u2019ka", "images": []}, {"id": 494829, "min_date": "2022-03-14T11:13:00Z", "max_date": "2022-03-14T12:02:00Z", "count_points": 7, "latitude": 49.16771, "longitude": 24.25032, "city": "Broshniv-Osada", "images": [{"image_url": "494829.jpg", "timestamp": "2022-03-14T12:02:00Z"}]}, {"id": 494843, "min_date": "2022-03-14T11:13:00Z", "max_date": "2022-03-14T11:13:00Z", "count_points": 1, "latitude": 49.60745, "longitude": 24.75148, "city": "Pomoriany", "images": []}, {"id": 494868, "min_date": "2022-03-14T11:10:00Z", "max_date": "2022-03-14T11:10:00Z", "count_points": 1, "latitude": 50.61503, "longitude": 27.60419, "city": "Novohrad-Volynskyi", "images": []}, {"id": 494899, "min_date": "2022-03-14T23:24:00Z", "max_date": "2022-03-15T00:16:00Z", "count_points": 5, "latitude": 50.14789, "longitude": 30.25949, "city": "Vasylkiv", "images": []}, {"id": 494906, "min_date": "2022-03-14T00:35:00Z", "max_date": "2022-03-14T12:02:00Z", "count_points": 3, "latitude": 48.98927, "longitude": 25.02936, "city": "Tlumach", "images": [{"image_url": "494906.jpg", "timestamp": "2022-03-14T12:02:00Z"}]}, {"id": 494912, "min_date": "2022-03-14T10:21:00Z", "max_date": "2022-03-14T10:21:00Z", "count_points": 1, "latitude": 48.02538, "longitude": 23.85201, "city": "Serednye Vodyane", "images": []}, {"id": 494944, "min_date": "2022-03-14T12:02:00Z", "max_date": "2022-03-14T12:02:00Z", "count_points": 1, "latitude": 48.23231, "longitude": 22.67342, "city": "Berehove", "images": []}, {"id": 494970, "min_date": "2022-03-14T12:02:00Z", "max_date": "2022-03-14T12:02:00Z", "count_points": 1, "latitude": 49.63602, "longitude": 24.58366, "city": "Peremyshlyany", "images": []}, {"id": 494983, "min_date": "2022-03-14T12:02:00Z", "max_date": "2022-03-14T12:02:00Z", "count_points": 2, "latitude": 50.31642, "longitude": 26.4299, "city": "Ostroh", "images": []}, {"id": 494986, "min_date": "2022-03-14T12:02:00Z", "max_date": "2022-03-14T12:02:00Z", "count_points": 3, "latitude": 50.34404, "longitude": 23.95977, "city": "Belz", "images": []}, {"id": 495588, "min_date": "2022-03-15T10:53:00Z", "max_date": "2022-03-15T10:53:00Z", "count_points": 1, "latitude": 51.10645, "longitude": 26.97629, "city": "Berezne", "images": []}, {"id": 495209, "min_date": "2022-03-14T09:09:00Z", "max_date": "2022-03-15T11:45:00Z", "count_points": 13, "latitude": 51.2564, "longitude": 27.30881, "city": "Rokytne", "images": [{"image_url": "495209.jpg", "timestamp": "2022-03-15T11:45:00Z"}]}, {"id": 495210, "min_date": "2022-03-14T09:09:00Z", "max_date": "2022-03-16T09:43:00Z", "count_points": 26, "latitude": 50.62861, "longitude": 30.89018, "city": "Velyka Dymerka", "images": [{"image_url": "495210.jpg", "timestamp": "2022-03-16T09:43:00Z"}]}, {"id": 495211, "min_date": "2022-03-14T09:09:00Z", "max_date": "2022-03-16T09:43:00Z", "count_points": 42, "latitude": 50.60245, "longitude": 30.3155, "city": "Hostomel", "images": []}, {"id": 495212, "min_date": "2022-03-14T09:09:00Z", "max_date": "2022-03-16T09:43:00Z", "count_points": 20, "latitude": 50.66527, "longitude": 29.82582, "city": "Borodianka", "images": []}, {"id": 495213, "min_date": "2022-03-14T09:09:00Z", "max_date": "2022-03-15T11:45:00Z", "count_points": 32, "latitude": 50.57761, "longitude": 29.79954, "city": "Makariv", "images": []}, {"id": 495214, "min_date": "2022-03-14T09:09:00Z", "max_date": "2022-03-16T08:58:00Z", "count_points": 17, "latitude": 50.41519, "longitude": 29.82947, "city": "Makariv", "images": [{"image_url": "495214.jpg", "timestamp": "2022-03-16T08:58:00Z"}]}, {"id": 495215, "min_date": "2022-03-14T09:09:00Z", "max_date": "2022-03-15T11:45:00Z", "count_points": 47, "latitude": 50.15784, "longitude": 28.49459, "city": "Denyshi", "images": []}, {"id": 495216, "min_date": "2022-03-14T09:09:00Z", "max_date": "2022-03-15T11:45:00Z", "count_points": 8, "latitude": 50.34389, "longitude": 24.16409, "city": "Silets\u2019", "images": []}, {"id": 495217, "min_date": "2022-03-14T09:09:00Z", "max_date": "2022-03-15T11:45:00Z", "count_points": 63, "latitude": 49.54333, "longitude": 23.60209, "city": "Rykhtychi", "images": [{"image_url": "495217.jpg", "timestamp": "2022-03-15T11:45:00Z"}]}, {"id": 495218, "min_date": "2022-03-14T09:09:00Z", "max_date": "2022-03-15T11:45:00Z", "count_points": 8, "latitude": 49.44386, "longitude": 23.37181, "city": "Dublyany", "images": []}, {"id": 495219, "min_date": "2022-03-14T09:09:00Z", "max_date": "2022-03-15T10:02:00Z", "count_points": 2, "latitude": 48.88636, "longitude": 27.26797, "city": "Nova Ushytsya", "images": []}, {"id": 495220, "min_date": "2022-03-14T09:11:00Z", "max_date": "2022-03-15T10:51:00Z", "count_points": 6, "latitude": 47.15243, "longitude": 32.2827, "city": "Bashtanka", "images": []}, {"id": 495221, "min_date": "2022-03-14T11:04:00Z", "max_date": "2022-03-15T10:51:00Z", "count_points": 2, "latitude": 48.81973, "longitude": 28.63809, "city": "Tyvriv", "images": []}, {"id": 495223, "min_date": "2022-03-14T11:04:00Z", "max_date": "2022-03-15T11:42:00Z", "count_points": 14, "latitude": 48.54217, "longitude": 23.02462, "city": "Svalyava", "images": []}, {"id": 495224, "min_date": "2022-03-14T11:04:00Z", "max_date": "2022-03-15T10:51:00Z", "count_points": 2, "latitude": 49.22875, "longitude": 26.55283, "city": "Horodok", "images": []}, {"id": 495225, "min_date": "2022-03-14T11:04:00Z", "max_date": "2022-03-15T11:45:00Z", "count_points": 7, "latitude": 49.28426, "longitude": 24.42834, "city": "Khodoriv", "images": [{"image_url": "495225.jpg", "timestamp": "2022-03-15T11:45:00Z"}]}, {"id": 495226, "min_date": "2022-03-14T11:04:00Z", "max_date": "2022-03-15T11:45:00Z", "count_points": 9, "latitude": 49.38279, "longitude": 24.44653, "city": "Khodoriv", "images": [{"image_url": "495226.jpg", "timestamp": "2022-03-15T11:45:00Z"}]}, {"id": 495227, "min_date": "2022-03-14T11:04:00Z", "max_date": "2022-03-15T11:45:00Z", "count_points": 6, "latitude": 49.36821, "longitude": 23.58756, "city": "Rykhtychi", "images": [{"image_url": "495227.jpg", "timestamp": "2022-03-15T11:45:00Z"}]}, {"id": 495228, "min_date": "2022-03-14T11:04:00Z", "max_date": "2022-03-15T11:45:00Z", "count_points": 6, "latitude": 50.39457, "longitude": 29.92745, "city": "Makariv", "images": []}, {"id": 495229, "min_date": "2022-03-14T11:04:00Z", "max_date": "2022-03-15T10:51:00Z", "count_points": 7, "latitude": 50.635, "longitude": 31.02931, "city": "Velyka Dymerka", "images": []}, {"id": 495230, "min_date": "2022-03-14T11:04:00Z", "max_date": "2022-03-16T09:43:00Z", "count_points": 41, "latitude": 50.58922, "longitude": 30.18086, "city": "Bucha", "images": []}, {"id": 495231, "min_date": "2022-03-14T11:04:00Z", "max_date": "2022-03-15T11:45:00Z", "count_points": 16, "latitude": 49.55453, "longitude": 23.69597, "city": "Komarno", "images": [{"image_url": "495231.jpg", "timestamp": "2022-03-15T11:45:00Z"}]}, {"id": 495232, "min_date": "2022-03-14T11:04:00Z", "max_date": "2022-03-15T23:56:00Z", "count_points": 10, "latitude": 50.55335, "longitude": 29.6179, "city": "Kodra", "images": []}, {"id": 495233, "min_date": "2022-03-14T11:04:00Z", "max_date": "2022-03-15T10:51:00Z", "count_points": 7, "latitude": 49.61622, "longitude": 23.59342, "city": "Rudky", "images": []}, {"id": 495234, "min_date": "2022-03-14T11:04:00Z", "max_date": "2022-03-15T11:45:00Z", "count_points": 16, "latitude": 49.60453, "longitude": 23.46269, "city": "Rudky", "images": []}, {"id": 495235, "min_date": "2022-03-14T11:04:00Z", "max_date": "2022-03-15T10:51:00Z", "count_points": 7, "latitude": 50.55957, "longitude": 28.51902, "city": "Khoroshiv", "images": [{"image_url": "495235.jpg", "timestamp": "2022-03-15T10:51:00Z"}]}, {"id": 495236, "min_date": "2022-03-14T11:04:00Z", "max_date": "2022-03-15T11:45:00Z", "count_points": 8, "latitude": 51.01114, "longitude": 31.98398, "city": "Talalayivka", "images": []}, {"id": 495237, "min_date": "2022-03-14T11:04:00Z", "max_date": "2022-03-16T09:43:00Z", "count_points": 15, "latitude": 50.91076, "longitude": 29.60204, "city": "Krasyatychi", "images": []}, {"id": 495238, "min_date": "2022-03-14T11:04:00Z", "max_date": "2022-03-15T23:56:00Z", "count_points": 11, "latitude": 51.23276, "longitude": 31.23056, "city": "Olyshivka", "images": []}, {"id": 495239, "min_date": "2022-03-14T11:04:00Z", "max_date": "2022-03-15T10:51:00Z", "count_points": 10, "latitude": 51.19491, "longitude": 29.71889, "city": "Krasyatychi", "images": []}, {"id": 495240, "min_date": "2022-03-14T11:04:00Z", "max_date": "2022-03-16T01:37:00Z", "count_points": 18, "latitude": 51.47331, "longitude": 31.28067, "city": "Chernihiv", "images": []}, {"id": 495241, "min_date": "2022-03-14T11:04:00Z", "max_date": "2022-03-16T09:43:00Z", "count_points": 30, "latitude": 51.5284, "longitude": 31.36065, "city": "Chernihiv", "images": [{"image_url": "495241.jpg", "timestamp": "2022-03-16T09:43:00Z"}]}, {"id": 495242, "min_date": "2022-03-14T11:04:00Z", "max_date": "2022-03-15T10:53:00Z", "count_points": 11, "latitude": 50.98899, "longitude": 27.23675, "city": "Horodnytsya", "images": [{"image_url": "495242.jpg", "timestamp": "2022-03-15T10:53:00Z"}]}, {"id": 495243, "min_date": "2022-03-14T11:04:00Z", "max_date": "2022-03-15T11:45:00Z", "count_points": 13, "latitude": 51.24347, "longitude": 27.92342, "city": "Novi Bilokorovychi", "images": [{"image_url": "495243.jpg", "timestamp": "2022-03-15T11:45:00Z"}]}, {"id": 495244, "min_date": "2022-03-14T11:04:00Z", "max_date": "2022-03-15T11:45:00Z", "count_points": 15, "latitude": 51.55486, "longitude": 27.60524, "city": "Olevs\u2019k", "images": [{"image_url": "495244.jpg", "timestamp": "2022-03-15T11:45:00Z"}]}, {"id": 495245, "min_date": "2022-03-15T08:13:00Z", "max_date": "2022-03-15T10:02:00Z", "count_points": 5, "latitude": 51.36229, "longitude": 31.24206, "city": "Chernihiv", "images": []}, {"id": 495246, "min_date": "2022-03-15T08:16:00Z", "max_date": "2022-03-15T11:42:00Z", "count_points": 13, "latitude": 48.3072, "longitude": 32.88112, "city": "Novhorodka", "images": [{"image_url": "495246.jpg", "timestamp": "2022-03-15T11:42:00Z"}]}, {"id": 495247, "min_date": "2022-03-15T08:18:00Z", "max_date": "2022-03-15T10:02:00Z", "count_points": 2, "latitude": 46.58984, "longitude": 33.28665, "city": "Nova Mayachka", "images": []}, {"id": 495248, "min_date": "2022-03-14T01:24:00Z", "max_date": "2022-03-15T11:45:00Z", "count_points": 36, "latitude": 49.23739, "longitude": 24.23089, "city": "Zhydachiv", "images": [{"image_url": "495248.jpg", "timestamp": "2022-03-15T11:45:00Z"}]}, {"id": 495249, "min_date": "2022-03-14T11:13:00Z", "max_date": "2022-03-15T10:51:00Z", "count_points": 2, "latitude": 48.10135, "longitude": 23.49768, "city": "Bushtyno", "images": []}, {"id": 495250, "min_date": "2022-03-14T11:13:00Z", "max_date": "2022-03-15T10:51:00Z", "count_points": 6, "latitude": 48.68282, "longitude": 25.01284, "city": "Kolomyia", "images": []}, {"id": 495251, "min_date": "2022-03-14T11:13:00Z", "max_date": "2022-03-15T10:51:00Z", "count_points": 4, "latitude": 48.42575, "longitude": 22.54892, "city": "Strabychovo", "images": []}, {"id": 495252, "min_date": "2022-03-14T11:13:00Z", "max_date": "2022-03-15T11:45:00Z", "count_points": 7, "latitude": 48.82303, "longitude": 25.03811, "city": "Tlumach", "images": []}, {"id": 495254, "min_date": "2022-03-14T11:13:00Z", "max_date": "2022-03-15T10:02:00Z", "count_points": 2, "latitude": 49.31601, "longitude": 26.52121, "city": "Horodok", "images": []}, {"id": 495255, "min_date": "2022-03-14T11:13:00Z", "max_date": "2022-03-15T10:51:00Z", "count_points": 2, "latitude": 49.14225, "longitude": 24.38981, "city": "Kalush", "images": []}, {"id": 495256, "min_date": "2022-03-14T11:13:00Z", "max_date": "2022-03-15T10:02:00Z", "count_points": 3, "latitude": 49.17138, "longitude": 24.48291, "city": "Kalush", "images": [{"image_url": "495256.jpg", "timestamp": "2022-03-15T10:02:00Z"}]}, {"id": 495257, "min_date": "2022-03-14T11:13:00Z", "max_date": "2022-03-15T10:51:00Z", "count_points": 3, "latitude": 49.25582, "longitude": 24.47991, "city": "Burshtyn", "images": [{"image_url": "495257.jpg", "timestamp": "2022-03-15T10:51:00Z"}]}, {"id": 495258, "min_date": "2022-03-14T11:13:00Z", "max_date": "2022-03-15T11:45:00Z", "count_points": 6, "latitude": 49.36187, "longitude": 24.20154, "city": "Zhydachiv", "images": [{"image_url": "495258.jpg", "timestamp": "2022-03-15T11:45:00Z"}]}, {"id": 495259, "min_date": "2022-03-14T11:13:00Z", "max_date": "2022-03-15T11:45:00Z", "count_points": 6, "latitude": 49.3185, "longitude": 23.76942, "city": "Duliby", "images": []}, {"id": 495260, "min_date": "2022-03-14T11:13:00Z", "max_date": "2022-03-15T11:45:00Z", "count_points": 5, "latitude": 49.48299, "longitude": 24.37681, "city": "Khodoriv", "images": [{"image_url": "495260.jpg", "timestamp": "2022-03-15T11:45:00Z"}]}, {"id": 495261, "min_date": "2022-03-14T11:13:00Z", "max_date": "2022-03-15T11:45:00Z", "count_points": 15, "latitude": 49.37441, "longitude": 23.50118, "city": "Drohobych", "images": []}, {"id": 495262, "min_date": "2022-03-14T11:13:00Z", "max_date": "2022-03-15T11:45:00Z", "count_points": 5, "latitude": 49.48848, "longitude": 23.67091, "city": "Medenychi", "images": []}, {"id": 495263, "min_date": "2022-03-14T11:13:00Z", "max_date": "2022-03-15T11:45:00Z", "count_points": 10, "latitude": 49.4161, "longitude": 23.1907, "city": "Ralivka", "images": []}, {"id": 495264, "min_date": "2022-03-14T11:13:00Z", "max_date": "2022-03-15T11:45:00Z", "count_points": 22, "latitude": 49.67816, "longitude": 23.49976, "city": "Rudky", "images": []}, {"id": 495265, "min_date": "2022-03-14T11:13:00Z", "max_date": "2022-03-16T09:43:00Z", "count_points": 5, "latitude": 50.50148, "longitude": 30.25798, "city": "Irpin", "images": []}, {"id": 495266, "min_date": "2022-03-14T11:10:00Z", "max_date": "2022-03-15T11:45:00Z", "count_points": 2, "latitude": 49.86731, "longitude": 24.49066, "city": "Krasne", "images": []}, {"id": 495267, "min_date": "2022-03-14T11:10:00Z", "max_date": "2022-03-16T09:43:00Z", "count_points": 23, "latitude": 50.54534, "longitude": 30.25259, "city": "Irpin", "images": []}, {"id": 495268, "min_date": "2022-03-14T11:10:00Z", "max_date": "2022-03-15T23:56:00Z", "count_points": 8, "latitude": 50.59075, "longitude": 30.91933, "city": "Velyka Dymerka", "images": [{"image_url": "495268.jpg", "timestamp": "2022-03-15T23:56:00Z"}]}, {"id": 495269, "min_date": "2022-03-14T11:10:00Z", "max_date": "2022-03-15T11:45:00Z", "count_points": 8, "latitude": 49.8093, "longitude": 23.16788, "city": "Mostys'ka", "images": []}, {"id": 495270, "min_date": "2022-03-14T11:10:00Z", "max_date": "2022-03-15T10:04:00Z", "count_points": 3, "latitude": 50.30878, "longitude": 23.84259, "city": "Uhniv", "images": [{"image_url": "495270.jpg", "timestamp": "2022-03-15T10:04:00Z"}]}, {"id": 495271, "min_date": "2022-03-14T11:10:00Z", "max_date": "2022-03-16T09:43:00Z", "count_points": 8, "latitude": 51.62627, "longitude": 27.11372, "city": "Rokytne", "images": []}, {"id": 495272, "min_date": "2022-03-14T11:10:00Z", "max_date": "2022-03-15T10:04:00Z", "count_points": 7, "latitude": 51.80164, "longitude": 25.68581, "city": "Lyubeshiv", "images": []}, {"id": 495273, "min_date": "2022-03-14T23:24:00Z", "max_date": "2022-03-16T09:43:00Z", "count_points": 28, "latitude": 51.33026, "longitude": 31.28966, "city": "Olyshivka", "images": [{"image_url": "495273.jpg", "timestamp": "2022-03-16T09:43:00Z"}]}, {"id": 495274, "min_date": "2022-03-14T23:24:00Z", "max_date": "2022-03-15T10:02:00Z", "count_points": 5, "latitude": 50.48115, "longitude": 34.96663, "city": "Trostyanets\u2019", "images": []}, {"id": 495275, "min_date": "2022-03-14T23:24:00Z", "max_date": "2022-03-15T09:13:00Z", "count_points": 10, "latitude": 50.86848, "longitude": 29.72611, "city": "Ivankiv", "images": []}, {"id": 495276, "min_date": "2022-03-14T23:24:00Z", "max_date": "2022-03-15T10:02:00Z", "count_points": 6, "latitude": 50.48319, "longitude": 29.71438, "city": "Makariv", "images": []}, {"id": 495277, "min_date": "2022-03-14T23:24:00Z", "max_date": "2022-03-15T11:45:00Z", "count_points": 19, "latitude": 50.13649, "longitude": 30.27497, "city": "Vasylkiv", "images": []}, {"id": 495278, "min_date": "2022-03-15T01:07:00Z", "max_date": "2022-03-15T11:45:00Z", "count_points": 18, "latitude": 49.32321, "longitude": 23.87212, "city": "Stryi", "images": []}, {"id": 495279, "min_date": "2022-03-15T01:07:00Z", "max_date": "2022-03-15T11:45:00Z", "count_points": 2, "latitude": 49.50324, "longitude": 23.11315, "city": "Voyutychi", "images": []}, {"id": 495282, "min_date": "2022-03-14T10:21:00Z", "max_date": "2022-03-15T23:56:00Z", "count_points": 5, "latitude": 50.46562, "longitude": 29.81546, "city": "Makariv", "images": [{"image_url": "495282.jpg", "timestamp": "2022-03-15T23:56:00Z"}]}, {"id": 495283, "min_date": "2022-03-14T10:21:00Z", "max_date": "2022-03-15T23:56:00Z", "count_points": 2, "latitude": 50.67437, "longitude": 30.30924, "city": "Liutizh", "images": []}, {"id": 495284, "min_date": "2022-03-14T10:21:00Z", "max_date": "2022-03-15T11:45:00Z", "count_points": 3, "latitude": 50.52246, "longitude": 24.54466, "city": "Ivanychi", "images": []}, {"id": 495286, "min_date": "2022-03-14T10:21:00Z", "max_date": "2022-03-16T09:43:00Z", "count_points": 3, "latitude": 51.84446, "longitude": 26.0009, "city": "Zarichne", "images": []}, {"id": 495287, "min_date": "2022-03-14T12:02:00Z", "max_date": "2022-03-15T11:42:00Z", "count_points": 3, "latitude": 48.49431, "longitude": 23.20119, "city": "Bereznyky", "images": []}, {"id": 495288, "min_date": "2022-03-14T12:02:00Z", "max_date": "2022-03-15T11:45:00Z", "count_points": 3, "latitude": 49.19128, "longitude": 24.7554, "city": "Bilshivtsi", "images": []}, {"id": 495289, "min_date": "2022-03-14T12:02:00Z", "max_date": "2022-03-15T11:45:00Z", "count_points": 6, "latitude": 49.24554, "longitude": 23.61857, "city": "Ulychne", "images": []}, {"id": 495290, "min_date": "2022-03-14T12:02:00Z", "max_date": "2022-03-15T12:34:00Z", "count_points": 3, "latitude": 49.6604, "longitude": 23.34673, "city": "Sudova Vyshnya", "images": [{"image_url": "495290.jpg", "timestamp": "2022-03-15T12:34:00Z"}]}, {"id": 495291, "min_date": "2022-03-14T12:02:00Z", "max_date": "2022-03-15T11:45:00Z", "count_points": 11, "latitude": 50.34931, "longitude": 24.73708, "city": "Kulykiv", "images": []}, {"id": 495292, "min_date": "2022-03-14T12:02:00Z", "max_date": "2022-03-15T11:45:00Z", "count_points": 6, "latitude": 50.59364, "longitude": 31.2006, "city": "Kirove", "images": []}, {"id": 495293, "min_date": "2022-03-14T12:02:00Z", "max_date": "2022-03-16T09:43:00Z", "count_points": 6, "latitude": 50.6209, "longitude": 30.42517, "city": "Novi Petrivtsi", "images": [{"image_url": "495293.jpg", "timestamp": "2022-03-16T09:43:00Z"}]}, {"id": 495294, "min_date": "2022-03-14T12:02:00Z", "max_date": "2022-03-15T11:45:00Z", "count_points": 5, "latitude": 50.71047, "longitude": 24.38264, "city": "Ivanychi", "images": []}, {"id": 494685, "min_date": "2022-03-14T09:09:00Z", "max_date": "2022-03-14T12:02:00Z", "count_points": 44, "latitude": 50.15689, "longitude": 28.49419, "city": "Denyshi", "images": []}, {"id": 494686, "min_date": "2022-03-14T09:09:00Z", "max_date": "2022-03-14T12:02:00Z", "count_points": 6, "latitude": 50.34052, "longitude": 24.1555, "city": "Silets\u2019", "images": []}, {"id": 494687, "min_date": "2022-03-14T09:09:00Z", "max_date": "2022-03-14T10:21:00Z", "count_points": 5, "latitude": 49.92303, "longitude": 26.1091, "city": "Lanivtsi", "images": [{"image_url": "494687.jpg", "timestamp": "2022-03-14T10:21:00Z"}]}, {"id": 494688, "min_date": "2022-03-14T09:09:00Z", "max_date": "2022-03-14T09:09:00Z", "count_points": 1, "latitude": 49.77285, "longitude": 24.36427, "city": "Verkhnyaya Belka", "images": []}, {"id": 494689, "min_date": "2022-03-14T09:09:00Z", "max_date": "2022-03-14T12:02:00Z", "count_points": 7, "latitude": 49.48532, "longitude": 26.17849, "city": "Pidvolochysk", "images": [{"image_url": "494689.jpg", "timestamp": "2022-03-14T12:02:00Z"}]}, {"id": 494690, "min_date": "2022-03-14T09:09:00Z", "max_date": "2022-03-15T01:56:00Z", "count_points": 35, "latitude": 49.54297, "longitude": 23.59038, "city": "Rykhtychi", "images": [{"image_url": "494690.jpg", "timestamp": "2022-03-15T01:56:00Z"}]}, {"id": 494691, "min_date": "2022-03-14T09:09:00Z", "max_date": "2022-03-14T10:21:00Z", "count_points": 6, "latitude": 49.40761, "longitude": 24.55193, "city": "Rohatyn", "images": [{"image_url": "494691.jpg", "timestamp": "2022-03-14T10:21:00Z"}]}, {"id": 494692, "min_date": "2022-03-14T09:09:00Z", "max_date": "2022-03-14T09:09:00Z", "count_points": 1, "latitude": 49.45272, "longitude": 23.36422, "city": "Dublyany", "images": []}, {"id": 494693, "min_date": "2022-03-14T09:09:00Z", "max_date": "2022-03-14T09:09:00Z", "count_points": 1, "latitude": 48.88425, "longitude": 27.26839, "city": "Nova Ushytsya", "images": []}, {"id": 494694, "min_date": "2022-03-14T09:11:00Z", "max_date": "2022-03-14T09:11:00Z", "count_points": 1, "latitude": 49.04258, "longitude": 24.90733, "city": "Tysmenytsya", "images": []}, {"id": 494695, "min_date": "2022-03-14T09:11:00Z", "max_date": "2022-03-14T12:02:00Z", "count_points": 10, "latitude": 48.40613, "longitude": 26.45998, "city": "Khotyn", "images": [{"image_url": "494695.jpg", "timestamp": "2022-03-14T12:02:00Z"}]}, {"id": 494696, "min_date": "2022-03-14T09:11:00Z", "max_date": "2022-03-14T09:30:00Z", "count_points": 4, "latitude": 47.1601, "longitude": 32.28317, "city": "Bashtanka", "images": []}, {"id": 494697, "min_date": "2022-03-14T11:02:00Z", "max_date": "2022-03-14T11:02:00Z", "count_points": 1, "latitude": 46.33318, "longitude": 32.2506, "city": "Bekhtery", "images": []}, {"id": 494698, "min_date": "2022-03-14T11:02:00Z", "max_date": "2022-03-14T10:19:00Z", "count_points": 10, "latitude": 46.49985, "longitude": 32.66383, "city": "Tsyurupyns\u2019k", "images": [{"image_url": "494698.jpg", "timestamp": "2022-03-14T10:19:00Z"}]}, {"id": 494699, "min_date": "2022-03-14T11:02:00Z", "max_date": "2022-03-14T10:19:00Z", "count_points": 2, "latitude": 46.90586, "longitude": 32.26742, "city": "Shevchenkove", "images": []}, {"id": 494700, "min_date": "2022-03-14T11:02:00Z", "max_date": "2022-03-14T11:02:00Z", "count_points": 1, "latitude": 48.21962, "longitude": 25.89329, "city": "Voloka", "images": []}, {"id": 494701, "min_date": "2022-03-14T11:04:00Z", "max_date": "2022-03-14T11:04:00Z", "count_points": 1, "latitude": 48.81371, "longitude": 28.63567, "city": "Tyvriv", "images": []}, {"id": 494702, "min_date": "2022-03-14T11:04:00Z", "max_date": "2022-03-14T11:13:00Z", "count_points": 3, "latitude": 48.50709, "longitude": 26.58141, "city": "Khotyn", "images": []}, {"id": 494703, "min_date": "2022-03-14T11:04:00Z", "max_date": "2022-03-14T10:21:00Z", "count_points": 8, "latitude": 48.48715, "longitude": 26.43398, "city": "Khotyn", "images": [{"image_url": "494703.jpg", "timestamp": "2022-03-14T10:21:00Z"}]}, {"id": 494704, "min_date": "2022-03-14T11:04:00Z", "max_date": "2022-03-14T11:13:00Z", "count_points": 3, "latitude": 48.63351, "longitude": 26.63324, "city": "Kamianets-Podilskyi", "images": [{"image_url": "494704.jpg", "timestamp": "2022-03-14T11:13:00Z"}]}, {"id": 494705, "min_date": "2022-03-14T11:04:00Z", "max_date": "2022-03-14T12:02:00Z", "count_points": 6, "latitude": 48.09779, "longitude": 23.56424, "city": "Tyachiv", "images": [{"image_url": "494705.jpg", "timestamp": "2022-03-14T12:02:00Z"}]}, {"id": 494706, "min_date": "2022-03-14T11:04:00Z", "max_date": "2022-03-14T12:02:00Z", "count_points": 5, "latitude": 48.21861, "longitude": 22.73591, "city": "Velyki Berehy", "images": []}, {"id": 494707, "min_date": "2022-03-14T11:04:00Z", "max_date": "2022-03-14T11:04:00Z", "count_points": 1, "latitude": 48.98554, "longitude": 26.47882, "city": "Chemerivtsi", "images": []}, {"id": 494708, "min_date": "2022-03-14T11:04:00Z", "max_date": "2022-03-14T11:04:00Z", "count_points": 1, "latitude": 49.18789, "longitude": 26.90339, "city": "Yarmolyntsi", "images": []}, {"id": 494709, "min_date": "2022-03-14T11:04:00Z", "max_date": "2022-03-14T11:13:00Z", "count_points": 2, "latitude": 48.50624, "longitude": 23.12599, "city": "Bereznyky", "images": []}, {"id": 494710, "min_date": "2022-03-14T11:04:00Z", "max_date": "2022-03-14T12:02:00Z", "count_points": 4, "latitude": 48.51349, "longitude": 23.05977, "city": "Nelipyno", "images": []}, {"id": 494712, "min_date": "2022-03-14T11:04:00Z", "max_date": "2022-03-14T11:04:00Z", "count_points": 1, "latitude": 49.23037, "longitude": 26.53708, "city": "Horodok", "images": []}, {"id": 494713, "min_date": "2022-03-14T11:04:00Z", "max_date": "2022-03-14T11:04:00Z", "count_points": 1, "latitude": 49.31507, "longitude": 26.88691, "city": "Yarmolyntsi", "images": []}, {"id": 494714, "min_date": "2022-03-14T11:04:00Z", "max_date": "2022-03-14T10:21:00Z", "count_points": 4, "latitude": 48.64218, "longitude": 22.80826, "city": "Poroshkovo", "images": [{"image_url": "494714.jpg", "timestamp": "2022-03-14T10:21:00Z"}]}, {"id": 494715, "min_date": "2022-03-14T11:04:00Z", "max_date": "2022-03-14T12:02:00Z", "count_points": 2, "latitude": 49.03144, "longitude": 24.80449, "city": "Yamnytsya", "images": []}, {"id": 494716, "min_date": "2022-03-14T11:04:00Z", "max_date": "2022-03-14T11:13:00Z", "count_points": 4, "latitude": 49.17408, "longitude": 24.10076, "city": "Broshniv-Osada", "images": []}, {"id": 494717, "min_date": "2022-03-14T11:04:00Z", "max_date": "2022-03-14T12:02:00Z", "count_points": 6, "latitude": 49.28388, "longitude": 24.42444, "city": "Khodoriv", "images": []}, {"id": 494718, "min_date": "2022-03-14T11:04:00Z", "max_date": "2022-03-14T11:04:00Z", "count_points": 2, "latitude": 49.7915, "longitude": 26.94762, "city": "Antoniny", "images": []}, {"id": 494719, "min_date": "2022-03-14T11:04:00Z", "max_date": "2022-03-14T10:21:00Z", "count_points": 4, "latitude": 49.39713, "longitude": 24.4546, "city": "Khodoriv", "images": [{"image_url": "494719.jpg", "timestamp": "2022-03-14T10:21:00Z"}]}, {"id": 494720, "min_date": "2022-03-14T11:04:00Z", "max_date": "2022-03-14T11:04:00Z", "count_points": 1, "latitude": 49.96648, "longitude": 27.76736, "city": "Liubar", "images": []}, {"id": 494721, "min_date": "2022-03-14T11:04:00Z", "max_date": "2022-03-14T10:21:00Z", "count_points": 2, "latitude": 50.13987, "longitude": 28.42703, "city": "Denyshi", "images": []}, {"id": 494722, "min_date": "2022-03-14T11:04:00Z", "max_date": "2022-03-14T12:02:00Z", "count_points": 5, "latitude": 49.36557, "longitude": 23.59034, "city": "Rykhtychi", "images": [{"image_url": "494722.jpg", "timestamp": "2022-03-14T12:02:00Z"}]}, {"id": 494723, "min_date": "2022-03-14T11:04:00Z", "max_date": "2022-03-14T10:21:00Z", "count_points": 4, "latitude": 50.39622, "longitude": 29.91923, "city": "Makariv", "images": []}, {"id": 494724, "min_date": "2022-03-14T11:04:00Z", "max_date": "2022-03-14T12:02:00Z", "count_points": 5, "latitude": 49.44985, "longitude": 23.86014, "city": "Medenychi", "images": [{"image_url": "494724.jpg", "timestamp": "2022-03-14T12:02:00Z"}]}, {"id": 494725, "min_date": "2022-03-14T11:04:00Z", "max_date": "2022-03-14T11:04:00Z", "count_points": 1, "latitude": 50.05775, "longitude": 27.03248, "city": "Shepetivka", "images": []}, {"id": 494726, "min_date": "2022-03-14T11:04:00Z", "max_date": "2022-03-14T10:21:00Z", "count_points": 6, "latitude": 50.63366, "longitude": 31.02952, "city": "Velyka Dymerka", "images": []}, {"id": 494727, "min_date": "2022-03-14T11:04:00Z", "max_date": "2022-03-14T11:13:00Z", "count_points": 2, "latitude": 49.51373, "longitude": 23.76463, "city": "Medenychi", "images": []}, {"id": 494728, "min_date": "2022-03-14T11:04:00Z", "max_date": "2022-03-15T00:13:00Z", "count_points": 6, "latitude": 50.58351, "longitude": 30.2117, "city": "Bucha", "images": [{"image_url": "494728.jpg", "timestamp": "2022-03-15T00:13:00Z"}]}, {"id": 494729, "min_date": "2022-03-14T11:04:00Z", "max_date": "2022-03-14T10:21:00Z", "count_points": 5, "latitude": 50.59786, "longitude": 30.25419, "city": "Hostomel", "images": []}, {"id": 494730, "min_date": "2022-03-14T11:04:00Z", "max_date": "2022-03-14T12:02:00Z", "count_points": 8, "latitude": 49.5577, "longitude": 23.69322, "city": "Komarno", "images": []}, {"id": 494731, "min_date": "2022-03-14T11:04:00Z", "max_date": "2022-03-14T12:02:00Z", "count_points": 5, "latitude": 50.55085, "longitude": 29.63026, "city": "Kodra", "images": []}, {"id": 494732, "min_date": "2022-03-14T11:04:00Z", "max_date": "2022-03-14T12:02:00Z", "count_points": 6, "latitude": 49.61606, "longitude": 23.59117, "city": "Rudky", "images": []}, {"id": 494733, "min_date": "2022-03-14T11:04:00Z", "max_date": "2022-03-14T12:02:00Z", "count_points": 7, "latitude": 49.60268, "longitude": 23.49348, "city": "Rudky", "images": []}, {"id": 494734, "min_date": "2022-03-14T11:04:00Z", "max_date": "2022-03-14T10:21:00Z", "count_points": 6, "latitude": 50.62303, "longitude": 29.67058, "city": "Piskivka", "images": []}, {"id": 494735, "min_date": "2022-03-14T11:04:00Z", "max_date": "2022-03-14T11:10:00Z", "count_points": 2, "latitude": 50.30675, "longitude": 26.99472, "city": "Slavuta", "images": []}, {"id": 494736, "min_date": "2022-03-14T11:04:00Z", "max_date": "2022-03-14T11:10:00Z", "count_points": 2, "latitude": 49.92098, "longitude": 24.60059, "city": "Krasne", "images": []}, {"id": 494737, "min_date": "2022-03-14T11:04:00Z", "max_date": "2022-03-14T11:10:00Z", "count_points": 6, "latitude": 50.5616, "longitude": 28.5162, "city": "Khoroshiv", "images": []}, {"id": 494739, "min_date": "2022-03-14T11:04:00Z", "max_date": "2022-03-14T10:21:00Z", "count_points": 2, "latitude": 51.02769, "longitude": 31.97406, "city": "Talalayivka", "images": []}, {"id": 494740, "min_date": "2022-03-14T11:04:00Z", "max_date": "2022-03-14T11:10:00Z", "count_points": 4, "latitude": 49.79036, "longitude": 23.69789, "city": "Horodok", "images": []}, {"id": 495359, "min_date": "2022-03-15T11:47:00Z", "max_date": "2022-03-15T11:45:00Z", "count_points": 2, "latitude": 50.33079, "longitude": 23.7159, "city": "Uhniv", "images": []}, {"id": 495360, "min_date": "2022-03-15T11:47:00Z", "max_date": "2022-03-15T11:45:00Z", "count_points": 2, "latitude": 50.5915, "longitude": 26.5463, "city": "Hoshcha", "images": []}, {"id": 495362, "min_date": "2022-03-15T11:47:00Z", "max_date": "2022-03-15T11:45:00Z", "count_points": 14, "latitude": 50.78789, "longitude": 26.57599, "city": "Kostopil\u2019", "images": []}, {"id": 495363, "min_date": "2022-03-15T11:47:00Z", "max_date": "2022-03-15T11:45:00Z", "count_points": 11, "latitude": 50.66046, "longitude": 24.65228, "city": "Lokachi", "images": []}, {"id": 495364, "min_date": "2022-03-15T11:47:00Z", "max_date": "2022-03-16T09:43:00Z", "count_points": 14, "latitude": 50.86679, "longitude": 26.68282, "city": "Berezne", "images": []}, {"id": 495365, "min_date": "2022-03-15T11:47:00Z", "max_date": "2022-03-15T11:45:00Z", "count_points": 10, "latitude": 50.96772, "longitude": 26.58898, "city": "Berezne", "images": []}, {"id": 495366, "min_date": "2022-03-15T11:47:00Z", "max_date": "2022-03-15T11:45:00Z", "count_points": 4, "latitude": 50.89324, "longitude": 24.32081, "city": "Volodymyr-Volynskyi", "images": [{"image_url": "495366.jpg", "timestamp": "2022-03-15T11:45:00Z"}]}, {"id": 495367, "min_date": "2022-03-15T11:47:00Z", "max_date": "2022-03-15T11:45:00Z", "count_points": 2, "latitude": 51.03337, "longitude": 25.31753, "city": "Lukiv", "images": []}, {"id": 495368, "min_date": "2022-03-15T11:47:00Z", "max_date": "2022-03-15T11:45:00Z", "count_points": 4, "latitude": 51.2398, "longitude": 25.85441, "city": "Manevychi", "images": []}, {"id": 495369, "min_date": "2022-03-15T11:47:00Z", "max_date": "2022-03-15T11:47:00Z", "count_points": 2, "latitude": 51.36948, "longitude": 25.01246, "city": "Nuyno", "images": []}, {"id": 495370, "min_date": "2022-03-15T11:47:00Z", "max_date": "2022-03-15T11:45:00Z", "count_points": 4, "latitude": 51.39702, "longitude": 24.84862, "city": "Nuyno", "images": []}, {"id": 495371, "min_date": "2022-03-15T11:47:00Z", "max_date": "2022-03-15T11:45:00Z", "count_points": 6, "latitude": 51.65714, "longitude": 27.1819, "city": "Rokytne", "images": []}, {"id": 495372, "min_date": "2022-03-15T11:47:00Z", "max_date": "2022-03-15T11:45:00Z", "count_points": 4, "latitude": 51.7359, "longitude": 25.74345, "city": "Kuznetsovs\u2019k", "images": []}, {"id": 495373, "min_date": "2022-03-15T11:47:00Z", "max_date": "2022-03-15T11:47:00Z", "count_points": 1, "latitude": 51.68173, "longitude": 24.66813, "city": "Ratne", "images": []}, {"id": 495374, "min_date": "2022-03-15T11:47:00Z", "max_date": "2022-03-15T11:45:00Z", "count_points": 3, "latitude": 51.83434, "longitude": 24.45005, "city": "Ratne", "images": []}, {"id": 495375, "min_date": "2022-03-16T08:56:00Z", "max_date": "2022-03-16T09:43:00Z", "count_points": 5, "latitude": 51.49536, "longitude": 31.07086, "city": "Chernihiv", "images": [{"image_url": "495375.jpg", "timestamp": "2022-03-16T09:43:00Z"}]}, {"id": 495376, "min_date": "2022-03-16T08:56:00Z", "max_date": "2022-03-16T09:43:00Z", "count_points": 11, "latitude": 51.23127, "longitude": 29.41958, "city": "Krasyatychi", "images": [{"image_url": "495376.jpg", "timestamp": "2022-03-16T09:43:00Z"}]}, {"id": 495377, "min_date": "2022-03-16T08:56:00Z", "max_date": "2022-03-16T09:43:00Z", "count_points": 5, "latitude": 51.20782, "longitude": 29.38865, "city": "Krasyatychi", "images": [{"image_url": "495377.jpg", "timestamp": "2022-03-16T09:43:00Z"}]}, {"id": 495378, "min_date": "2022-03-16T08:56:00Z", "max_date": "2022-03-16T09:43:00Z", "count_points": 6, "latitude": 51.1297, "longitude": 29.94662, "city": "Ivankiv", "images": [{"image_url": "495378.jpg", "timestamp": "2022-03-16T09:43:00Z"}]}, {"id": 495379, "min_date": "2022-03-16T08:56:00Z", "max_date": "2022-03-16T09:43:00Z", "count_points": 2, "latitude": 50.62177, "longitude": 31.28142, "city": "Bobrovytsya", "images": []}, {"id": 495380, "min_date": "2022-03-16T08:56:00Z", "max_date": "2022-03-16T09:43:00Z", "count_points": 13, "latitude": 51.03707, "longitude": 27.96864, "city": "Novi Bilokorovychi", "images": [{"image_url": "495380.jpg", "timestamp": "2022-03-16T09:43:00Z"}]}, {"id": 495381, "min_date": "2022-03-16T08:56:00Z", "max_date": "2022-03-16T09:43:00Z", "count_points": 8, "latitude": 50.59782, "longitude": 31.09323, "city": "Velyka Dymerka", "images": [{"image_url": "495381.jpg", "timestamp": "2022-03-16T09:43:00Z"}]}, {"id": 495382, "min_date": "2022-03-16T08:56:00Z", "max_date": "2022-03-16T08:56:00Z", "count_points": 1, "latitude": 50.60927, "longitude": 29.61864, "city": "Kodra", "images": []}, {"id": 495383, "min_date": "2022-03-16T08:58:00Z", "max_date": "2022-03-16T09:43:00Z", "count_points": 6, "latitude": 50.38736, "longitude": 29.5936, "city": "Stavyshche", "images": [{"image_url": "495383.jpg", "timestamp": "2022-03-16T09:43:00Z"}]}, {"id": 495384, "min_date": "2022-03-16T08:58:00Z", "max_date": "2022-03-16T08:58:00Z", "count_points": 1, "latitude": 50.52656, "longitude": 28.11938, "city": "Pulyny", "images": []}, {"id": 495385, "min_date": "2022-03-16T08:58:00Z", "max_date": "2022-03-16T08:58:00Z", "count_points": 1, "latitude": 49.52681, "longitude": 32.26082, "city": "Chornobay", "images": []}, {"id": 495386, "min_date": "2022-03-16T08:58:00Z", "max_date": "2022-03-16T09:43:00Z", "count_points": 2, "latitude": 49.88159, "longitude": 28.18859, "city": "Chudniv", "images": []}, {"id": 495388, "min_date": "2022-03-16T08:58:00Z", "max_date": "2022-03-16T08:58:00Z", "count_points": 1, "latitude": 48.41458, "longitude": 32.69808, "city": "Novhorodka", "images": []}, {"id": 495389, "min_date": "2022-03-16T08:58:00Z", "max_date": "2022-03-16T09:43:00Z", "count_points": 3, "latitude": 48.16671, "longitude": 30.92013, "city": "Pidhorodna", "images": []}, {"id": 495390, "min_date": "2022-03-16T08:58:00Z", "max_date": "2022-03-16T09:43:00Z", "count_points": 4, "latitude": 48.22708, "longitude": 30.40429, "city": "Holovanivs\u2019k", "images": []}, {"id": 495391, "min_date": "2022-03-16T08:58:00Z", "max_date": "2022-03-16T09:43:00Z", "count_points": 7, "latitude": 47.98937, "longitude": 30.94898, "city": "Myhiya", "images": []}, {"id": 495392, "min_date": "2022-03-16T08:58:00Z", "max_date": "2022-03-16T08:58:00Z", "count_points": 1, "latitude": 47.56609, "longitude": 33.12264, "city": "Shyroke", "images": []}, {"id": 495393, "min_date": "2022-03-16T08:58:00Z", "max_date": "2022-03-16T08:58:00Z", "count_points": 2, "latitude": 47.70636, "longitude": 31.85105, "city": "Yelanets\u2019", "images": []}, {"id": 495394, "min_date": "2022-03-16T08:58:00Z", "max_date": "2022-03-16T09:43:00Z", "count_points": 5, "latitude": 47.31154, "longitude": 30.44548, "city": "Shyryayeve", "images": []}, {"id": 495395, "min_date": "2022-03-16T08:58:00Z", "max_date": "2022-03-16T09:41:00Z", "count_points": 4, "latitude": 46.78564, "longitude": 33.28932, "city": "Dnipryany", "images": []}, {"id": 495396, "min_date": "2022-03-16T08:58:00Z", "max_date": "2022-03-16T08:58:00Z", "count_points": 2, "latitude": 47.25424, "longitude": 30.09783, "city": "Shyryayeve", "images": []}, {"id": 495397, "min_date": "2022-03-16T08:58:00Z", "max_date": "2022-03-16T08:58:00Z", "count_points": 1, "latitude": 46.30782, "longitude": 33.17128, "city": "Brylivka", "images": []}, {"id": 495398, "min_date": "2022-03-16T08:58:00Z", "max_date": "2022-03-16T08:58:00Z", "count_points": 1, "latitude": 46.19196, "longitude": 33.57463, "city": "Armyansk", "images": []}, {"id": 495399, "min_date": "2022-03-16T08:58:00Z", "max_date": "2022-03-16T08:58:00Z", "count_points": 1, "latitude": 46.20766, "longitude": 33.09458, "city": "Kalanchak", "images": []}, {"id": 495400, "min_date": "2022-03-15T09:11:00Z", "max_date": "2022-03-15T09:11:00Z", "count_points": 2, "latitude": 47.53216, "longitude": 33.21933, "city": "Shyroke", "images": []}, {"id": 495401, "min_date": "2022-03-15T09:11:00Z", "max_date": "2022-03-15T10:02:00Z", "count_points": 4, "latitude": 48.25159, "longitude": 34.74145, "city": "Surs\u2019ko-Mykhaylivka", "images": [{"image_url": "495401.jpg", "timestamp": "2022-03-15T10:02:00Z"}]}, {"id": 495402, "min_date": "2022-03-15T09:11:00Z", "max_date": "2022-03-15T11:42:00Z", "count_points": 11, "latitude": 48.70773, "longitude": 31.70762, "city": "Mala Vyska", "images": [{"image_url": "495402.jpg", "timestamp": "2022-03-15T11:42:00Z"}]}, {"id": 495403, "min_date": "2022-03-15T09:11:00Z", "max_date": "2022-03-15T09:11:00Z", "count_points": 2, "latitude": 49.50371, "longitude": 32.99695, "city": "Semenivka", "images": []}, {"id": 495404, "min_date": "2022-03-15T09:11:00Z", "max_date": "2022-03-15T09:11:00Z", "count_points": 1, "latitude": 49.51543, "longitude": 31.75478, "city": "Moshny", "images": []}, {"id": 495405, "min_date": "2022-03-15T09:11:00Z", "max_date": "2022-03-15T09:11:00Z", "count_points": 2, "latitude": 49.49128, "longitude": 30.66159, "city": "Tarashcha", "images": []}, {"id": 495406, "min_date": "2022-03-15T10:51:00Z", "max_date": "2022-03-15T10:51:00Z", "count_points": 1, "latitude": 49.856, "longitude": 27.08203, "city": "Starokostiantyniv", "images": []}, {"id": 495407, "min_date": "2022-03-15T10:51:00Z", "max_date": "2022-03-15T10:02:00Z", "count_points": 8, "latitude": 45.45448, "longitude": 29.4236, "city": "Shevchenkove", "images": []}, {"id": 495408, "min_date": "2022-03-15T10:51:00Z", "max_date": "2022-03-15T10:51:00Z", "count_points": 2, "latitude": 46.04104, "longitude": 33.62707, "city": "Suvorovo", "images": []}, {"id": 495409, "min_date": "2022-03-15T10:51:00Z", "max_date": "2022-03-15T10:02:00Z", "count_points": 3, "latitude": 46.27385, "longitude": 34.12006, "city": "Novotroyits\u2019ke", "images": [{"image_url": "495409.jpg", "timestamp": "2022-03-15T10:02:00Z"}]}, {"id": 495410, "min_date": "2022-03-15T10:51:00Z", "max_date": "2022-03-15T10:51:00Z", "count_points": 2, "latitude": 45.60114, "longitude": 28.91821, "city": "Kalcheva", "images": []}, {"id": 495411, "min_date": "2022-03-15T10:51:00Z", "max_date": "2022-03-15T10:51:00Z", "count_points": 1, "latitude": 45.56311, "longitude": 28.54783, "city": "Vynohradivka", "images": []}, {"id": 495412, "min_date": "2022-03-15T10:51:00Z", "max_date": "2022-03-15T10:51:00Z", "count_points": 1, "latitude": 45.63575, "longitude": 28.9818, "city": "Kalcheva", "images": []}, {"id": 495413, "min_date": "2022-03-15T10:51:00Z", "max_date": "2022-03-15T10:51:00Z", "count_points": 1, "latitude": 45.95792, "longitude": 29.0529, "city": "Dmytrivka", "images": []}, {"id": 495414, "min_date": "2022-03-15T10:51:00Z", "max_date": "2022-03-15T10:51:00Z", "count_points": 1, "latitude": 46.09606, "longitude": 29.39801, "city": "Artsyz", "images": []}, {"id": 495416, "min_date": "2022-03-15T10:51:00Z", "max_date": "2022-03-15T10:51:00Z", "count_points": 1, "latitude": 46.33077, "longitude": 29.99936, "city": "Starokozache", "images": []}, {"id": 495417, "min_date": "2022-03-15T10:51:00Z", "max_date": "2022-03-15T10:51:00Z", "count_points": 1, "latitude": 46.69141, "longitude": 32.64965, "city": "Kherson", "images": []}, {"id": 495418, "min_date": "2022-03-15T10:51:00Z", "max_date": "2022-03-15T11:42:00Z", "count_points": 2, "latitude": 47.22955, "longitude": 34.38393, "city": "Verkhniy Rohachyk", "images": []}, {"id": 495419, "min_date": "2022-03-15T10:51:00Z", "max_date": "2022-03-15T10:51:00Z", "count_points": 1, "latitude": 47.37463, "longitude": 34.93312, "city": "Balky", "images": []}, {"id": 495420, "min_date": "2022-03-15T10:51:00Z", "max_date": "2022-03-15T10:02:00Z", "count_points": 2, "latitude": 47.3041, "longitude": 34.19422, "city": "Verkhniy Rohachyk", "images": []}, {"id": 495421, "min_date": "2022-03-15T10:51:00Z", "max_date": "2022-03-15T11:42:00Z", "count_points": 7, "latitude": 47.06451, "longitude": 31.63637, "city": "Ol'shanskoye", "images": []}, {"id": 495422, "min_date": "2022-03-15T10:51:00Z", "max_date": "2022-03-15T10:51:00Z", "count_points": 1, "latitude": 47.13823, "longitude": 30.69255, "city": "Berezivka", "images": []}, {"id": 495423, "min_date": "2022-03-15T10:51:00Z", "max_date": "2022-03-15T10:51:00Z", "count_points": 2, "latitude": 47.64402, "longitude": 34.70571, "city": "Marhanets\u2019", "images": []}, {"id": 495424, "min_date": "2022-03-15T10:51:00Z", "max_date": "2022-03-15T10:51:00Z", "count_points": 1, "latitude": 47.64637, "longitude": 33.24845, "city": "Shyroke", "images": []}, {"id": 495425, "min_date": "2022-03-15T10:51:00Z", "max_date": "2022-03-15T10:51:00Z", "count_points": 2, "latitude": 47.89089, "longitude": 34.83456, "city": "Tomakivka", "images": []}, {"id": 495426, "min_date": "2022-03-15T10:51:00Z", "max_date": "2022-03-15T10:51:00Z", "count_points": 2, "latitude": 47.31061, "longitude": 29.78551, "city": "Zakharivka", "images": []}, {"id": 495427, "min_date": "2022-03-15T10:51:00Z", "max_date": "2022-03-15T10:51:00Z", "count_points": 1, "latitude": 47.34449, "longitude": 29.86544, "city": "Zatyshshya", "images": []}, {"id": 495428, "min_date": "2022-03-15T10:51:00Z", "max_date": "2022-03-15T10:51:00Z", "count_points": 1, "latitude": 47.932, "longitude": 34.0503, "city": "Sofiyivka", "images": []}, {"id": 495429, "min_date": "2022-03-15T10:51:00Z", "max_date": "2022-03-15T11:42:00Z", "count_points": 2, "latitude": 47.51331, "longitude": 29.45546, "city": "Okny", "images": []}, {"id": 495430, "min_date": "2022-03-15T10:51:00Z", "max_date": "2022-03-15T10:51:00Z", "count_points": 2, "latitude": 47.94963, "longitude": 32.74132, "city": "Kazanka", "images": []}, {"id": 495431, "min_date": "2022-03-15T10:51:00Z", "max_date": "2022-03-15T10:51:00Z", "count_points": 1, "latitude": 47.94458, "longitude": 32.52779, "city": "Ustynivka", "images": []}, {"id": 495432, "min_date": "2022-03-15T10:51:00Z", "max_date": "2022-03-15T11:42:00Z", "count_points": 11, "latitude": 47.59716, "longitude": 29.72556, "city": "Ananyiv Pershyi", "images": []}, {"id": 495433, "min_date": "2022-03-15T10:51:00Z", "max_date": "2022-03-15T10:02:00Z", "count_points": 2, "latitude": 47.95143, "longitude": 32.07926, "city": "Bobrynets", "images": []}, {"id": 495434, "min_date": "2022-03-15T10:51:00Z", "max_date": "2022-03-15T10:51:00Z", "count_points": 1, "latitude": 47.62297, "longitude": 29.5575, "city": "Okny", "images": []}, {"id": 495436, "min_date": "2022-03-15T10:51:00Z", "max_date": "2022-03-15T10:51:00Z", "count_points": 1, "latitude": 47.77868, "longitude": 29.93596, "city": "Ananyiv Pershyi", "images": []}, {"id": 495437, "min_date": "2022-03-15T10:51:00Z", "max_date": "2022-03-15T10:02:00Z", "count_points": 2, "latitude": 48.37953, "longitude": 34.27357, "city": "Krynychky", "images": []}, {"id": 495438, "min_date": "2022-03-15T10:51:00Z", "max_date": "2022-03-15T10:51:00Z", "count_points": 1, "latitude": 47.82081, "longitude": 29.56432, "city": "Podil\u2019s\u2019k", "images": []}, {"id": 495439, "min_date": "2022-03-15T10:51:00Z", "max_date": "2022-03-15T11:42:00Z", "count_points": 5, "latitude": 48.20645, "longitude": 32.43029, "city": "Kompaniyivka", "images": [{"image_url": "495439.jpg", "timestamp": "2022-03-15T11:42:00Z"}]}, {"id": 495440, "min_date": "2022-03-15T10:51:00Z", "max_date": "2022-03-15T10:51:00Z", "count_points": 1, "latitude": 47.92878, "longitude": 30.25779, "city": "Lyubashivka", "images": []}, {"id": 495441, "min_date": "2022-03-15T10:51:00Z", "max_date": "2022-03-15T10:51:00Z", "count_points": 1, "latitude": 48.31839, "longitude": 33.39893, "city": "Zhovti Vody", "images": []}, {"id": 495443, "min_date": "2022-03-15T10:51:00Z", "max_date": "2022-03-15T10:51:00Z", "count_points": 1, "latitude": 48.0267, "longitude": 30.08264, "city": "Savran", "images": []}, {"id": 495444, "min_date": "2022-03-15T10:51:00Z", "max_date": "2022-03-15T10:51:00Z", "count_points": 1, "latitude": 47.97742, "longitude": 29.30982, "city": "Slobidka", "images": []}, {"id": 495445, "min_date": "2022-03-15T10:51:00Z", "max_date": "2022-03-15T10:02:00Z", "count_points": 4, "latitude": 48.45441, "longitude": 32.97174, "city": "Nova Praha", "images": [{"image_url": "495445.jpg", "timestamp": "2022-03-15T10:02:00Z"}]}, {"id": 495446, "min_date": "2022-03-15T10:51:00Z", "max_date": "2022-03-15T10:51:00Z", "count_points": 1, "latitude": 48.61432, "longitude": 34.29556, "city": "Verkhn\u2019odniprovs\u2019k", "images": []}, {"id": 495447, "min_date": "2022-03-15T10:51:00Z", "max_date": "2022-03-15T11:42:00Z", "count_points": 7, "latitude": 48.05179, "longitude": 29.59019, "city": "Balta", "images": []}, {"id": 495448, "min_date": "2022-03-15T10:51:00Z", "max_date": "2022-03-15T10:51:00Z", "count_points": 2, "latitude": 48.72994, "longitude": 34.67184, "city": "Petrykivka", "images": []}, {"id": 495449, "min_date": "2022-03-15T10:51:00Z", "max_date": "2022-03-15T10:51:00Z", "count_points": 3, "latitude": 48.58028, "longitude": 32.9997, "city": "Oleksandriys\u2019ke", "images": []}, {"id": 495450, "min_date": "2022-03-15T10:51:00Z", "max_date": "2022-03-15T10:51:00Z", "count_points": 1, "latitude": 48.28625, "longitude": 30.11375, "city": "Blahovishchens\u2019ke", "images": []}, {"id": 495451, "min_date": "2022-03-15T10:51:00Z", "max_date": "2022-03-15T10:51:00Z", "count_points": 1, "latitude": 48.25124, "longitude": 28.8358, "city": "Pishchanka", "images": []}, {"id": 495452, "min_date": "2022-03-15T10:51:00Z", "max_date": "2022-03-15T10:51:00Z", "count_points": 1, "latitude": 48.31518, "longitude": 28.89532, "city": "Kryzhopil\u2019", "images": []}, {"id": 495453, "min_date": "2022-03-15T10:51:00Z", "max_date": "2022-03-15T10:51:00Z", "count_points": 1, "latitude": 48.31567, "longitude": 28.76024, "city": "Kryzhopil\u2019", "images": []}, {"id": 495454, "min_date": "2022-03-15T10:51:00Z", "max_date": "2022-03-15T10:51:00Z", "count_points": 2, "latitude": 48.27904, "longitude": 28.4442, "city": "Klembivka", "images": []}, {"id": 495455, "min_date": "2022-03-15T10:51:00Z", "max_date": "2022-03-15T10:51:00Z", "count_points": 1, "latitude": 48.6671, "longitude": 31.03066, "city": "Tyshkivka", "images": []}, {"id": 495456, "min_date": "2022-03-15T10:51:00Z", "max_date": "2022-03-15T10:02:00Z", "count_points": 2, "latitude": 48.54139, "longitude": 29.6147, "city": "Viytivka", "images": []}, {"id": 495457, "min_date": "2022-03-15T10:51:00Z", "max_date": "2022-03-16T09:43:00Z", "count_points": 2, "latitude": 48.73672, "longitude": 30.6082, "city": "Babanka", "images": []}, {"id": 495458, "min_date": "2022-03-15T10:51:00Z", "max_date": "2022-03-15T11:42:00Z", "count_points": 2, "latitude": 48.66885, "longitude": 29.21708, "city": "Ladyzhyn", "images": []}, {"id": 495459, "min_date": "2022-03-15T10:51:00Z", "max_date": "2022-03-15T10:02:00Z", "count_points": 2, "latitude": 48.62946, "longitude": 28.91613, "city": "Tulchyn", "images": []}, {"id": 495460, "min_date": "2022-03-15T10:51:00Z", "max_date": "2022-03-15T10:51:00Z", "count_points": 1, "latitude": 48.17772, "longitude": 25.90956, "city": "Voloka", "images": []}, {"id": 495461, "min_date": "2022-03-15T10:51:00Z", "max_date": "2022-03-15T10:51:00Z", "count_points": 1, "latitude": 48.69034, "longitude": 28.99964, "city": "Bratslav", "images": []}, {"id": 495462, "min_date": "2022-03-15T10:51:00Z", "max_date": "2022-03-15T10:51:00Z", "count_points": 1, "latitude": 48.67665, "longitude": 28.65019, "city": "Vapnyarka", "images": []}, {"id": 495463, "min_date": "2022-03-15T10:51:00Z", "max_date": "2022-03-15T10:51:00Z", "count_points": 1, "latitude": 48.22456, "longitude": 25.85438, "city": "Voloka", "images": []}, {"id": 495464, "min_date": "2022-03-15T10:51:00Z", "max_date": "2022-03-15T10:51:00Z", "count_points": 1, "latitude": 48.55922, "longitude": 27.83887, "city": "Vendychany", "images": []}, {"id": 495465, "min_date": "2022-03-15T10:51:00Z", "max_date": "2022-03-15T10:51:00Z", "count_points": 1, "latitude": 48.68219, "longitude": 28.5722, "city": "Tomashpil\u2019", "images": []}, {"id": 495466, "min_date": "2022-03-15T10:51:00Z", "max_date": "2022-03-15T10:51:00Z", "count_points": 1, "latitude": 48.45274, "longitude": 26.92136, "city": "Kel\u2019mentsi", "images": []},