[{"id": 494334, "min_date": "2022-03-08T00:30:00Z", "max_date": "2022-03-09T09:26:00Z", "count_points": 6, "latitude": 50.41934, "longitude": 29.81699, "city": "Makariv", "images": []}, {"id": 494335, "min_date": "2022-03-09T08:52:00Z", "max_date": "2022-03-09T08:52:00Z", "count_points": 1, "latitude": 50.49751, "longitude": 31.18037, "city": "Kirove", "images": []}, {"id": 494336, "min_date": "2022-03-09T08:52:00Z", "max_date": "2022-03-09T08:52:00Z", "count_points": 1, "latitude": 47.80023, "longitude": 32.83471, "city": "Kazanka", "images": []}, {"id": 494337, "min_date": "2022-03-09T10:45:00Z", "max_date": "2022-03-09T10:45:00Z", "count_points": 1, "latitude": 45.27114, "longitude": 33.60022, "city": "Okhotnikovo", "images": []}, {"id": 494338, "min_date": "2022-03-09T10:45:00Z", "max_date": "2022-03-09T10:45:00Z", "count_points": 1, "latitude": 46.47556, "longitude": 32.86688, "city": "Radens\u2019k", "images": []}, {"id": 494339, "min_date": "2022-03-09T10:45:00Z", "max_date": "2022-03-13T12:19:00Z", "count_points": 32, "latitude": 48.06871, "longitude": 23.48715, "city": "Bushtyno", "images": []}, {"id": 494340, "min_date": "2022-03-09T10:45:00Z", "max_date": "2022-03-13T12:19:00Z", "count_points": 63, "latitude": 48.11894, "longitude": 23.39208, "city": "Nyzhnye Selyshche", "images": []}, {"id": 494341, "min_date": "2022-03-09T10:45:00Z", "max_date": "2022-03-09T11:06:00Z", "count_points": 4, "latitude": 49.04158, "longitude": 25.05457, "city": "Monastyrys\u2019ka", "images": []}, {"id": 494342, "min_date": "2022-03-09T10:45:00Z", "max_date": "2022-03-09T10:45:00Z", "count_points": 1, "latitude": 50.61702, "longitude": 30.94644, "city": "Velyka Dymerka", "images": []}, {"id": 494343, "min_date": "2022-03-09T20:01:00Z", "max_date": "2022-03-10T00:58:00Z", "count_points": 2, "latitude": 50.70363, "longitude": 24.3707, "city": "Ivanychi", "images": []}, {"id": 494344, "min_date": "2022-03-10T09:34:00Z", "max_date": "2022-03-10T09:34:00Z", "count_points": 1, "latitude": 48.22471, "longitude": 23.11367, "city": "Rokosovo", "images": []}, {"id": 494345, "min_date": "2022-03-10T09:34:00Z", "max_date": "2022-03-10T09:34:00Z", "count_points": 1, "latitude": 48.19767, "longitude": 22.88947, "city": "Oleshnyk", "images": []}, {"id": 494346, "min_date": "2022-03-10T11:29:00Z", "max_date": "2022-03-10T23:50:00Z", "count_points": 21, "latitude": 51.42307, "longitude": 31.33508, "city": "Chernihiv", "images": [{"image_url": "494346.jpg", "timestamp": "2022-03-10T23:50:00Z"}]}, {"id": 494348, "min_date": "2022-03-11T08:39:00Z", "max_date": "2022-03-11T11:17:00Z", "count_points": 21, "latitude": 51.53086, "longitude": 31.36777, "city": "Chernihiv", "images": [{"image_url": "494348.jpg", "timestamp": "2022-03-11T11:17:00Z"}]}, {"id": 494349, "min_date": "2022-03-11T08:39:00Z", "max_date": "2022-03-11T11:17:00Z", "count_points": 14, "latitude": 51.29634, "longitude": 29.93738, "city": "Kryva Hora", "images": [{"image_url": "494349.jpg", "timestamp": "2022-03-11T11:17:00Z"}]}, {"id": 494350, "min_date": "2022-03-11T08:39:00Z", "max_date": "2022-03-11T23:30:00Z", "count_points": 87, "latitude": 51.15253, "longitude": 29.50681, "city": "Krasyatychi", "images": [{"image_url": "494350.jpg", "timestamp": "2022-03-11T23:30:00Z"}]}, {"id": 494351, "min_date": "2022-03-11T08:39:00Z", "max_date": "2022-03-11T11:17:00Z", "count_points": 6, "latitude": 50.70165, "longitude": 30.26906, "city": "Dymer", "images": [{"image_url": "494351.jpg", "timestamp": "2022-03-11T11:17:00Z"}]}, {"id": 494352, "min_date": "2022-03-11T08:39:00Z", "max_date": "2022-03-12T01:11:00Z", "count_points": 26, "latitude": 50.61228, "longitude": 30.28866, "city": "Hostomel", "images": [{"image_url": "494352.jpg", "timestamp": "2022-03-12T01:11:00Z"}]}, {"id": 494353, "min_date": "2022-03-11T10:32:00Z", "max_date": "2022-03-11T11:19:00Z", "count_points": 13, "latitude": 48.47559, "longitude": 22.64779, "city": "Nove Davydkovo", "images": [{"image_url": "494353.jpg", "timestamp": "2022-03-11T11:19:00Z"}]}, {"id": 494354, "min_date": "2022-03-11T10:32:00Z", "max_date": "2022-03-11T10:32:00Z", "count_points": 2, "latitude": 50.39929, "longitude": 29.9326, "city": "Makariv", "images": []}, {"id": 494355, "min_date": "2022-03-11T10:34:00Z", "max_date": "2022-03-11T11:17:00Z", "count_points": 21, "latitude": 50.60016, "longitude": 29.77874, "city": "Makariv", "images": [{"image_url": "494355.jpg", "timestamp": "2022-03-11T11:17:00Z"}]}, {"id": 494356, "min_date": "2022-03-11T10:34:00Z", "max_date": "2022-03-11T11:17:00Z", "count_points": 5, "latitude": 50.66442, "longitude": 29.83856, "city": "Borodianka", "images": [{"image_url": "494356.jpg", "timestamp": "2022-03-11T11:17:00Z"}]}, {"id": 494357, "min_date": "2022-03-11T10:34:00Z", "max_date": "2022-03-11T11:17:00Z", "count_points": 16, "latitude": 50.93164, "longitude": 29.47332, "city": "Krasyatychi", "images": [{"image_url": "494357.jpg", "timestamp": "2022-03-11T11:17:00Z"}]}, {"id": 494358, "min_date": "2022-03-11T10:34:00Z", "max_date": "2022-03-11T11:17:00Z", "count_points": 11, "latitude": 51.22371, "longitude": 29.36211, "city": "Narodychi", "images": []}, {"id": 494359, "min_date": "2022-03-11T10:34:00Z", "max_date": "2022-03-11T11:17:00Z", "count_points": 7, "latitude": 50.63329, "longitude": 26.0379, "city": "Klevan\u2019", "images": []}, {"id": 494360, "min_date": "2022-03-11T10:34:00Z", "max_date": "2022-03-11T12:08:00Z", "count_points": 13, "latitude": 50.61759, "longitude": 25.96643, "city": "Klevan\u2019", "images": []}, {"id": 494361, "min_date": "2022-03-11T10:34:00Z", "max_date": "2022-03-11T11:17:00Z", "count_points": 43, "latitude": 50.6012, "longitude": 24.55605, "city": "Lokachi", "images": []}, {"id": 494362, "min_date": "2022-03-11T10:17:00Z", "max_date": "2022-03-11T10:28:00Z", "count_points": 2, "latitude": 51.47921, "longitude": 26.86599, "city": "Sarny", "images": []}, {"id": 494363, "min_date": "2022-03-11T10:17:00Z", "max_date": "2022-03-11T11:17:00Z", "count_points": 6, "latitude": 51.0371, "longitude": 25.00246, "city": "Ho\u0142oby", "images": []}, {"id": 494364, "min_date": "2022-03-11T12:12:00Z", "max_date": "2022-03-13T12:21:00Z", "count_points": 45, "latitude": 49.51091, "longitude": 23.69494, "city": "Medenychi", "images": []}, {"id": 494365, "min_date": "2022-03-11T12:12:00Z", "max_date": "2022-03-11T12:12:00Z", "count_points": 2, "latitude": 50.64877, "longitude": 25.97003, "city": "Klevan\u2019", "images": []}, {"id": 494369, "min_date": "2022-03-12T09:21:00Z", "max_date": "2022-03-12T09:21:00Z", "count_points": 2, "latitude": 50.39714, "longitude": 30.32245, "city": "Sofiyivska Borschagivka", "images": []}, {"id": 494370, "min_date": "2022-03-12T09:24:00Z", "max_date": "2022-03-12T09:17:00Z", "count_points": 2, "latitude": 48.14427, "longitude": 30.75359, "city": "Pervomays\u2019k", "images": []}, {"id": 494371, "min_date": "2022-03-12T09:24:00Z", "max_date": "2022-03-12T10:57:00Z", "count_points": 2, "latitude": 49.37399, "longitude": 23.53837, "city": "Rykhtychi", "images": []}, {"id": 494372, "min_date": "2022-03-12T09:24:00Z", "max_date": "2022-03-12T10:57:00Z", "count_points": 8, "latitude": 49.2747, "longitude": 23.95195, "city": "Stryi", "images": [{"image_url": "494372.jpg", "timestamp": "2022-03-12T10:57:00Z"}]}, {"id": 494374, "min_date": "2022-03-12T09:24:00Z", "max_date": "2022-03-12T09:24:00Z", "count_points": 1, "latitude": 48.79503, "longitude": 26.70864, "city": "Makiv", "images": []}, {"id": 494375, "min_date": "2022-03-12T09:24:00Z", "max_date": "2022-03-12T09:24:00Z", "count_points": 2, "latitude": 48.45472, "longitude": 22.70018, "city": "Mukacheve", "images": []}, {"id": 494376, "min_date": "2022-03-12T11:14:00Z", "max_date": "2022-03-12T11:14:00Z", "count_points": 2, "latitude": 47.0055, "longitude": 32.09356, "city": "Mykolayiv", "images": []}, {"id": 494377, "min_date": "2022-03-12T11:14:00Z", "max_date": "2022-03-12T10:57:00Z", "count_points": 9, "latitude": 47.14235, "longitude": 32.021, "city": "Mykolayiv", "images": []}, {"id": 494378, "min_date": "2022-03-12T11:14:00Z", "max_date": "2022-03-12T10:57:00Z", "count_points": 10, "latitude": 47.14859, "longitude": 30.25489, "city": "Shyryayeve", "images": []}, {"id": 494379, "min_date": "2022-03-12T11:14:00Z", "max_date": "2022-03-12T11:51:00Z", "count_points": 2, "latitude": 47.96614, "longitude": 32.74165, "city": "Kazanka", "images": []}, {"id": 494380, "min_date": "2022-03-12T11:14:00Z", "max_date": "2022-03-12T11:14:00Z", "count_points": 1, "latitude": 48.57247, "longitude": 28.41788, "city": "Tomashpil\u2019", "images": []}, {"id": 494381, "min_date": "2022-03-12T11:14:00Z", "max_date": "2022-03-12T10:57:00Z", "count_points": 2, "latitude": 48.69984, "longitude": 27.53, "city": "Murovani Kurylivtsi", "images": []}, {"id": 494382, "min_date": "2022-03-12T11:14:00Z", "max_date": "2022-03-12T10:57:00Z", "count_points": 4, "latitude": 48.68732, "longitude": 26.9517, "city": "Dunaivtsi", "images": []}, {"id": 494383, "min_date": "2022-03-12T11:14:00Z", "max_date": "2022-03-12T11:14:00Z", "count_points": 1, "latitude": 48.80271, "longitude": 27.33478, "city": "Nova Ushytsya", "images": []}, {"id": 494384, "min_date": "2022-03-12T11:14:00Z", "max_date": "2022-03-13T12:19:00Z", "count_points": 9, "latitude": 48.30733, "longitude": 23.06683, "city": "Irshava", "images": [{"image_url": "494384.jpg", "timestamp": "2022-03-13T12:19:00Z"}]}, {"id": 494385, "min_date": "2022-03-12T11:14:00Z", "max_date": "2022-03-12T10:57:00Z", "count_points": 9, "latitude": 49.75029, "longitude": 32.76075, "city": "Orzhytsya", "images": []}, {"id": 494386, "min_date": "2022-03-12T11:14:00Z", "max_date": "2022-03-12T10:57:00Z", "count_points": 4, "latitude": 48.43051, "longitude": 22.28153, "city": "Chop", "images": [{"image_url": "494386.jpg", "timestamp": "2022-03-12T10:57:00Z"}]}, {"id": 494387, "min_date": "2022-03-12T11:14:00Z", "max_date": "2022-03-12T10:57:00Z", "count_points": 9, "latitude": 50.14026, "longitude": 28.45559, "city": "Denyshi", "images": []}, {"id": 494388, "min_date": "2022-03-12T11:14:00Z", "max_date": "2022-03-12T11:14:00Z", "count_points": 1, "latitude": 50.33145, "longitude": 28.36751, "city": "Denyshi", "images": []}, {"id": 494389, "min_date": "2022-03-12T11:14:00Z", "max_date": "2022-03-12T11:14:00Z", "count_points": 1, "latitude": 49.91197, "longitude": 23.46053, "city": "Yavoriv", "images": []}, {"id": 494390, "min_date": "2022-03-13T10:04:00Z", "max_date": "2022-03-13T12:21:00Z", "count_points": 5, "latitude": 49.76054, "longitude": 23.69915, "city": "Horodok", "images": []}, {"id": 494391, "min_date": "2022-03-13T10:04:00Z", "max_date": "2022-03-13T12:21:00Z", "count_points": 12, "latitude": 49.44533, "longitude": 23.86032, "city": "Medenychi", "images": [{"image_url": "494391.jpg", "timestamp": "2022-03-13T12:21:00Z"}]}, {"id": 494392, "min_date": "2022-03-13T12:00:00Z", "max_date": "2022-03-13T11:30:00Z", "count_points": 4, "latitude": 48.46201, "longitude": 22.80172, "city": "Chynadiyovo", "images": [{"image_url": "494392.jpg", "timestamp": "2022-03-13T11:30:00Z"}]}, {"id": 494393, "min_date": "2022-03-13T12:00:00Z", "max_date": "2022-03-13T12:00:00Z", "count_points": 2, "latitude": 48.55154, "longitude": 22.93989, "city": "Svalyava", "images": []}, {"id": 494394, "min_date": "2022-03-13T12:00:00Z", "max_date": "2022-03-13T12:19:00Z", "count_points": 6, "latitude": 48.6831, "longitude": 22.72009, "city": "Poroshkovo", "images": []}, {"id": 494395, "min_date": "2022-03-13T12:00:00Z", "max_date": "2022-03-13T12:19:00Z", "count_points": 11, "latitude": 49.23081, "longitude": 24.21741, "city": "Zhydachiv", "images": [{"image_url": "494395.jpg", "timestamp": "2022-03-13T12:19:00Z"}]}, {"id": 494396, "min_date": "2022-03-13T12:00:00Z", "max_date": "2022-03-13T12:21:00Z", "count_points": 5, "latitude": 49.47102, "longitude": 23.55957, "city": "Rykhtychi", "images": [{"image_url": "494396.jpg", "timestamp": "2022-03-13T12:21:00Z"}]}, {"id": 494397, "min_date": "2022-03-13T12:00:00Z", "max_date": "2022-03-13T12:21:00Z", "count_points": 21, "latitude": 49.52213, "longitude": 23.5589, "city": "Rykhtychi", "images": []}, {"id": 494398, "min_date": "2022-03-13T12:00:00Z", "max_date": "2022-03-13T12:21:00Z", "count_points": 5, "latitude": 49.72785, "longitude": 23.91072, "city": "Pustomyty", "images": []}, {"id": 494399, "min_date": "2022-03-13T12:00:00Z", "max_date": "2022-03-13T12:00:00Z", "count_points": 4, "latitude": 49.75765, "longitude": 23.46211, "city": "Rodatychi", "images": []}, {"id": 494400, "min_date": "2022-03-08T09:43:00Z", "max_date": "2022-03-09T23:18:00Z", "count_points": 2, "latitude": 50.36806, "longitude": 30.01506, "city": "Borova", "images": []}, {"id": 494402, "min_date": "2022-03-08T23:37:00Z", "max_date": "2022-03-08T23:37:00Z", "count_points": 1, "latitude": 50.68783, "longitude": 29.65293, "city": "Piskivka", "images": []}, {"id": 494403, "min_date": "2022-03-09T09:26:00Z", "max_date": "2022-03-09T09:26:00Z", "count_points": 1, "latitude": 50.55043, "longitude": 31.24098, "city": "Baryshivka", "images": []}, {"id": 494404, "min_date": "2022-03-09T11:06:00Z", "max_date": "2022-03-09T11:06:00Z", "count_points": 1, "latitude": 51.32991, "longitude": 26.99843, "city": "Rokytne", "images": []}, {"id": 494405, "min_date": "2022-03-09T11:06:00Z", "max_date": "2022-03-09T11:06:00Z", "count_points": 1, "latitude": 51.37827, "longitude": 27.08686, "city": "Rokytne", "images": []}, {"id": 494406, "min_date": "2022-03-09T11:06:00Z", "max_date": "2022-03-09T11:06:00Z", "count_points": 1, "latitude": 51.67173, "longitude": 28.77389, "city": "Pershotravneve", "images": []}, {"id": 494407, "min_date": "2022-03-09T11:06:00Z", "max_date": "2022-03-09T11:06:00Z", "count_points": 1, "latitude": 51.45871, "longitude": 26.40273, "city": "Dubrovytsya", "images": []}, {"id": 494408, "min_date": "2022-03-09T11:06:00Z", "max_date": "2022-03-10T11:38:00Z", "count_points": 2, "latitude": 51.84159, "longitude": 26.27871, "city": "Zarichne", "images": []}, {"id": 494409, "min_date": "2022-03-09T11:04:00Z", "max_date": "2022-03-09T11:04:00Z", "count_points": 1, "latitude": 47.94421, "longitude": 23.84997, "city": "Solotvyno", "images": []}, {"id": 494410, "min_date": "2022-03-09T11:04:00Z", "max_date": "2022-03-11T11:19:00Z", "count_points": 3, "latitude": 48.00748, "longitude": 23.88376, "city": "Serednye Vodyane", "images": []}, {"id": 494411, "min_date": "2022-03-09T11:04:00Z", "max_date": "2022-03-12T11:51:00Z", "count_points": 5, "latitude": 48.01817, "longitude": 23.4787, "city": "Bushtyno", "images": []}, {"id": 494412, "min_date": "2022-03-09T11:04:00Z", "max_date": "2022-03-11T11:19:00Z", "count_points": 6, "latitude": 48.05702, "longitude": 23.60428, "city": "Tyachiv", "images": [{"image_url": "494412.jpg", "timestamp": "2022-03-11T11:19:00Z"}]}, {"id": 494413, "min_date": "2022-03-09T11:06:00Z", "max_date": "2022-03-09T11:06:00Z", "count_points": 1, "latitude": 48.91948, "longitude": 25.23061, "city": "Zolotyy Potik", "images": []}, {"id": 494414, "min_date": "2022-03-09T11:06:00Z", "max_date": "2022-03-09T11:06:00Z", "count_points": 1, "latitude": 49.22535, "longitude": 24.54971, "city": "Burshtyn", "images": []}, {"id": 494415, "min_date": "2022-03-09T11:06:00Z", "max_date": "2022-03-09T11:06:00Z", "count_points": 2, "latitude": 49.33861, "longitude": 24.43796, "city": "Khodoriv", "images": []}, {"id": 494416, "min_date": "2022-03-09T11:06:00Z", "max_date": "2022-03-09T10:17:00Z", "count_points": 2, "latitude": 49.37597, "longitude": 24.19559, "city": "Zhydachiv", "images": []}, {"id": 494417, "min_date": "2022-03-09T11:06:00Z", "max_date": "2022-03-13T12:19:00Z", "count_points": 3, "latitude": 49.40103, "longitude": 24.27185, "city": "Khodoriv", "images": []}, {"id": 494418, "min_date": "2022-03-09T11:06:00Z", "max_date": "2022-03-09T10:17:00Z", "count_points": 5, "latitude": 49.7256, "longitude": 24.28044, "city": "Dzvinogrud", "images": [{"image_url": "494418.jpg", "timestamp": "2022-03-09T10:17:00Z"}]}, {"id": 494419, "min_date": "2022-03-09T11:06:00Z", "max_date": "2022-03-09T11:06:00Z", "count_points": 1, "latitude": 50.40385, "longitude": 26.94496, "city": "Slavuta", "images": []}, {"id": 494420, "min_date": "2022-03-09T11:06:00Z", "max_date": "2022-03-09T11:06:00Z", "count_points": 1, "latitude": 50.76419, "longitude": 29.27986, "city": "Malyn", "images": []}, {"id": 494421, "min_date": "2022-03-09T11:06:00Z", "max_date": "2022-03-09T11:06:00Z", "count_points": 1, "latitude": 50.56316, "longitude": 26.43003, "city": "Horodyshche", "images": []}, {"id": 494422, "min_date": "2022-03-09T11:06:00Z", "max_date": "2022-03-09T11:06:00Z", "count_points": 2, "latitude": 50.99303, "longitude": 27.39393, "city": "Horodnytsya", "images": []}, {"id": 494423, "min_date": "2022-03-09T11:06:00Z", "max_date": "2022-03-09T11:06:00Z", "count_points": 1, "latitude": 50.97515, "longitude": 26.61173, "city": "Berezne", "images": []}, {"id": 494424, "min_date": "2022-03-09T23:18:00Z", "max_date": "2022-03-11T11:17:00Z", "count_points": 3, "latitude": 51.72891, "longitude": 25.69112, "city": "Kuznetsovs\u2019k", "images": []}, {"id": 494425, "min_date": "2022-03-09T23:18:00Z", "max_date": "2022-03-10T00:07:00Z", "count_points": 3, "latitude": 51.38864, "longitude": 31.18707, "city": "Chernihiv", "images": []}, {"id": 494426, "min_date": "2022-03-09T23:18:00Z", "max_date": "2022-03-10T00:07:00Z", "count_points": 6, "latitude": 50.29615, "longitude": 34.56612, "city": "Zin\u2019kiv", "images": []}, {"id": 494428, "min_date": "2022-03-10T10:47:00Z", "max_date": "2022-03-10T10:47:00Z", "count_points": 1, "latitude": 48.78574, "longitude": 25.30443, "city": "Chernelytsya", "images": []}, {"id": 494429, "min_date": "2022-03-10T10:47:00Z", "max_date": "2022-03-10T10:47:00Z", "count_points": 1, "latitude": 48.33328, "longitude": 22.40356, "city": "Batiovo", "images": []}, {"id": 494430, "min_date": "2022-03-10T10:47:00Z", "max_date": "2022-03-10T11:36:00Z", "count_points": 2, "latitude": 50.43234, "longitude": 30.17594, "city": "Vorzel\u2019", "images": []}, {"id": 494431, "min_date": "2022-03-10T10:47:00Z", "max_date": "2022-03-11T23:30:00Z", "count_points": 8, "latitude": 50.55312, "longitude": 30.30822, "city": "Horenka", "images": []}, {"id": 494432, "min_date": "2022-03-10T10:47:00Z", "max_date": "2022-03-09T10:17:00Z", "count_points": 2, "latitude": 51.00897, "longitude": 27.83389, "city": "Yemil\u2019chyne", "images": []}, {"id": 494433, "min_date": "2022-03-10T10:47:00Z", "max_date": "2022-03-10T10:47:00Z", "count_points": 1, "latitude": 51.43514, "longitude": 27.39684, "city": "Rokytne", "images": []}, {"id": 494434, "min_date": "2022-03-10T10:47:00Z", "max_date": "2022-03-10T10:47:00Z", "count_points": 1, "latitude": 51.53633, "longitude": 27.61176, "city": "Olevs\u2019k", "images": []}, {"id": 494435, "min_date": "2022-03-10T10:47:00Z", "max_date": "2022-03-10T10:47:00Z", "count_points": 1, "latitude": 51.15435, "longitude": 23.95013, "city": "Liuboml", "images": []}, {"id": 494436, "min_date": "2022-03-10T10:47:00Z", "max_date": "2022-03-10T10:47:00Z", "count_points": 1, "latitude": 51.39325, "longitude": 25.00245, "city": "Nuyno", "images": []}, {"id": 494437, "min_date": "2022-03-10T10:49:00Z", "max_date": "2022-03-10T10:49:00Z", "count_points": 1, "latitude": 51.83867, "longitude": 26.00162, "city": "Zarichne", "images": []}, {"id": 494438, "min_date": "2022-03-10T10:49:00Z", "max_date": "2022-03-10T10:49:00Z", "count_points": 1, "latitude": 51.64465, "longitude": 23.71726, "city": "Pishcha", "images": []}, {"id": 494439, "min_date": "2022-03-10T12:27:00Z", "max_date": "2022-03-10T12:27:00Z", "count_points": 1, "latitude": 48.60893, "longitude": 22.28913, "city": "Uzhgorod", "images": []}, {"id": 494440, "min_date": "2022-03-10T23:01:00Z", "max_date": "2022-03-12T01:11:00Z", "count_points": 6, "latitude": 50.77328, "longitude": 30.32956, "city": "Dymer", "images": []}, {"id": 494441, "min_date": "2022-03-10T23:01:00Z", "max_date": "2022-03-10T11:38:00Z", "count_points": 2, "latitude": 50.54488, "longitude": 31.02587, "city": "Velyka Dymerka", "images": []}, {"id": 494442, "min_date": "2022-03-11T00:41:00Z", "max_date": "2022-03-11T11:17:00Z", "count_points": 8, "latitude": 51.56018, "longitude": 32.79549, "city": "Korop", "images": []}, {"id": 494443, "min_date": "2022-03-11T10:28:00Z", "max_date": "2022-03-11T10:28:00Z", "count_points": 1, "latitude": 48.17752, "longitude": 23.36546, "city": "Iza", "images": []}, {"id": 494368, "min_date": "2022-03-12T09:21:00Z", "max_date": "2022-03-12T09:21:00Z", "count_points": 2, "latitude": 50.47457, "longitude": 29.98561, "city": "Klavdiyevo-Tarasove", "images": []}, {"id": 494446, "min_date": "2022-03-11T10:28:00Z", "max_date": "2022-03-11T10:28:00Z", "count_points": 1, "latitude": 50.10546, "longitude": 29.93008, "city": "Fastiv", "images": []}, {"id": 494447, "min_date": "2022-03-11T10:28:00Z", "max_date": "2022-03-11T10:28:00Z", "count_points": 1, "latitude": 48.54631, "longitude": 22.74111, "city": "Chynadiyovo", "images": []}, {"id": 494448, "min_date": "2022-03-11T10:28:00Z", "max_date": "2022-03-11T10:28:00Z", "count_points": 1, "latitude": 50.57674, "longitude": 31.53621, "city": "Korniyivka", "images": []}, {"id": 494449, "min_date": "2022-03-11T10:28:00Z", "max_date": "2022-03-11T11:19:00Z", "count_points": 4, "latitude": 48.61082, "longitude": 22.34542, "city": "Onokivtsi", "images": []}, {"id": 494451, "min_date": "2022-03-11T10:28:00Z", "max_date": "2022-03-11T10:28:00Z", "count_points": 1, "latitude": 50.63905, "longitude": 31.17945, "city": "Bobrovytsya", "images": []}, {"id": 494452, "min_date": "2022-03-11T10:28:00Z", "max_date": "2022-03-11T10:28:00Z", "count_points": 2, "latitude": 49.42598, "longitude": 24.6069, "city": "Rohatyn", "images": []}, {"id": 494453, "min_date": "2022-03-11T10:28:00Z", "max_date": "2022-03-11T11:17:00Z", "count_points": 4, "latitude": 49.45448, "longitude": 24.41086, "city": "Khodoriv", "images": [{"image_url": "494453.jpg", "timestamp": "2022-03-11T11:17:00Z"}]}, {"id": 494454, "min_date": "2022-03-11T10:28:00Z", "max_date": "2022-03-12T10:57:00Z", "count_points": 3, "latitude": 49.23871, "longitude": 23.60263, "city": "Stebnyk", "images": []}, {"id": 494455, "min_date": "2022-03-11T10:28:00Z", "max_date": "2022-03-11T10:28:00Z", "count_points": 1, "latitude": 49.39484, "longitude": 24.14288, "city": "Zhydachiv", "images": []}, {"id": 494456, "min_date": "2022-03-11T10:28:00Z", "max_date": "2022-03-11T11:17:00Z", "count_points": 3, "latitude": 50.85156, "longitude": 29.46088, "city": "Bila Krynytsya", "images": []}, {"id": 494457, "min_date": "2022-03-11T10:28:00Z", "max_date": "2022-03-11T11:17:00Z", "count_points": 4, "latitude": 50.90685, "longitude": 29.56633, "city": "Krasyatychi", "images": []}, {"id": 494458, "min_date": "2022-03-11T10:28:00Z", "max_date": "2022-03-11T23:30:00Z", "count_points": 6, "latitude": 51.35209, "longitude": 31.50525, "city": "Kulykivka", "images": []}, {"id": 494459, "min_date": "2022-03-11T10:28:00Z", "max_date": "2022-03-11T10:28:00Z", "count_points": 1, "latitude": 51.33994, "longitude": 31.37553, "city": "Olyshivka", "images": []}, {"id": 494460, "min_date": "2022-03-11T10:28:00Z", "max_date": "2022-03-11T11:17:00Z", "count_points": 2, "latitude": 49.61419, "longitude": 23.32077, "city": "Dublyany", "images": []}, {"id": 494461, "min_date": "2022-03-11T10:28:00Z", "max_date": "2022-03-11T11:17:00Z", "count_points": 2, "latitude": 49.6924, "longitude": 23.31302, "city": "Sudova Vyshnya", "images": []}, {"id": 494462, "min_date": "2022-03-11T10:28:00Z", "max_date": "2022-03-11T09:38:00Z", "count_points": 6, "latitude": 51.38836, "longitude": 31.09177, "city": "Chernihiv", "images": []}, {"id": 494463, "min_date": "2022-03-11T10:28:00Z", "max_date": "2022-03-11T11:17:00Z", "count_points": 2, "latitude": 50.10083, "longitude": 24.79103, "city": "Lopatyn", "images": []}, {"id": 494464, "min_date": "2022-03-11T10:28:00Z", "max_date": "2022-03-11T11:17:00Z", "count_points": 11, "latitude": 51.47231, "longitude": 31.18828, "city": "Chernihiv", "images": [{"image_url": "494464.jpg", "timestamp": "2022-03-11T11:17:00Z"}]}, {"id": 494465, "min_date": "2022-03-11T10:28:00Z", "max_date": "2022-03-11T11:17:00Z", "count_points": 5, "latitude": 49.8869, "longitude": 23.53934, "city": "Novoyavorivs'k", "images": []}, {"id": 494466, "min_date": "2022-03-11T10:28:00Z", "max_date": "2022-03-11T10:28:00Z", "count_points": 2, "latitude": 49.75874, "longitude": 23.03938, "city": "Pnikut", "images": []}, {"id": 494467, "min_date": "2022-03-11T10:28:00Z", "max_date": "2022-03-11T11:17:00Z", "count_points": 2, "latitude": 51.73074, "longitude": 31.14805, "city": "Ripky", "images": []}, {"id": 494468, "min_date": "2022-03-11T10:28:00Z", "max_date": "2022-03-11T10:28:00Z", "count_points": 1, "latitude": 50.64914, "longitude": 25.48514, "city": "Lutsk", "images": []}, {"id": 494469, "min_date": "2022-03-11T10:28:00Z", "max_date": "2022-03-11T10:28:00Z", "count_points": 1, "latitude": 50.90981, "longitude": 25.44401, "city": "Kivertsi", "images": []}, {"id": 494470, "min_date": "2022-03-11T10:28:00Z", "max_date": "2022-03-11T11:17:00Z", "count_points": 5, "latitude": 50.67262, "longitude": 24.38855, "city": "Ivanychi", "images": []}, {"id": 494471, "min_date": "2022-03-11T10:28:00Z", "max_date": "2022-03-11T10:28:00Z", "count_points": 1, "latitude": 51.13797, "longitude": 25.79189, "city": "Manevychi", "images": []}, {"id": 494472, "min_date": "2022-03-11T10:28:00Z", "max_date": "2022-03-11T09:38:00Z", "count_points": 4, "latitude": 51.53674, "longitude": 27.01974, "city": "Rokytne", "images": []}, {"id": 494473, "min_date": "2022-03-11T10:28:00Z", "max_date": "2022-03-11T11:17:00Z", "count_points": 3, "latitude": 51.68745, "longitude": 25.98891, "city": "Kuznetsovs\u2019k", "images": []}, {"id": 494474, "min_date": "2022-03-11T10:28:00Z", "max_date": "2022-03-11T10:28:00Z", "count_points": 2, "latitude": 51.69164, "longitude": 25.42315, "city": "Lyubeshiv", "images": []}, {"id": 494475, "min_date": "2022-03-11T12:08:00Z", "max_date": "2022-03-10T00:09:00Z", "count_points": 3, "latitude": 48.16063, "longitude": 23.15937, "city": "Korolevo", "images": []}, {"id": 494476, "min_date": "2022-03-11T12:08:00Z", "max_date": "2022-03-11T11:19:00Z", "count_points": 4, "latitude": 48.35635, "longitude": 22.57777, "city": "Strabychovo", "images": []}, {"id": 494477, "min_date": "2022-03-11T12:08:00Z", "max_date": "2022-03-11T11:19:00Z", "count_points": 3, "latitude": 48.3531, "longitude": 22.35756, "city": "Batiovo", "images": []}, {"id": 494479, "min_date": "2022-03-11T12:08:00Z", "max_date": "2022-03-11T11:19:00Z", "count_points": 3, "latitude": 48.42439, "longitude": 22.98193, "city": "Irshava", "images": []}, {"id": 494480, "min_date": "2022-03-11T12:08:00Z", "max_date": "2022-03-11T11:19:00Z", "count_points": 2, "latitude": 48.48874, "longitude": 22.48303, "city": "Serednye", "images": []}, {"id": 494481, "min_date": "2022-03-11T12:08:00Z", "max_date": "2022-03-11T11:19:00Z", "count_points": 2, "latitude": 48.56032, "longitude": 22.16692, "city": "Storozhnytsya", "images": []}, {"id": 494482, "min_date": "2022-03-11T12:08:00Z", "max_date": "2022-03-11T12:08:00Z", "count_points": 1, "latitude": 48.5937, "longitude": 22.9534, "city": "Svalyava", "images": []}, {"id": 494483, "min_date": "2022-03-11T12:08:00Z", "max_date": "2022-03-11T11:19:00Z", "count_points": 2, "latitude": 48.68241, "longitude": 22.78095, "city": "Poroshkovo", "images": []}, {"id": 494484, "min_date": "2022-03-11T12:08:00Z", "max_date": "2022-03-11T12:08:00Z", "count_points": 1, "latitude": 48.85635, "longitude": 22.62679, "city": "Velykyi Bereznyi", "images": []}, {"id": 494485, "min_date": "2022-03-11T12:08:00Z", "max_date": "2022-03-11T12:08:00Z", "count_points": 1, "latitude": 49.18861, "longitude": 24.21693, "city": "Broshniv-Osada", "images": []}, {"id": 494486, "min_date": "2022-03-11T12:08:00Z", "max_date": "2022-03-11T11:17:00Z", "count_points": 4, "latitude": 49.65232, "longitude": 23.39739, "city": "Rudky", "images": []}, {"id": 494487, "min_date": "2022-03-11T12:08:00Z", "max_date": "2022-03-11T12:08:00Z", "count_points": 1, "latitude": 49.97364, "longitude": 23.39024, "city": "Yavoriv", "images": []}, {"id": 494488, "min_date": "2022-03-11T12:08:00Z", "max_date": "2022-03-11T11:17:00Z", "count_points": 8, "latitude": 50.16842, "longitude": 27.77042, "city": "Polyanka", "images": []}, {"id": 494489, "min_date": "2022-03-11T12:08:00Z", "max_date": "2022-03-11T12:08:00Z", "count_points": 1, "latitude": 50.28952, "longitude": 23.84345, "city": "Uhniv", "images": []}, {"id": 494490, "min_date": "2022-03-11T12:08:00Z", "max_date": "2022-03-11T12:08:00Z", "count_points": 1, "latitude": 50.36279, "longitude": 26.03392, "city": "Mizoch", "images": []}, {"id": 494491, "min_date": "2022-03-11T12:08:00Z", "max_date": "2022-03-11T12:08:00Z", "count_points": 1, "latitude": 50.44627, "longitude": 29.78574, "city": "Makariv", "images": []}, {"id": 494492, "min_date": "2022-03-11T12:08:00Z", "max_date": "2022-03-11T11:17:00Z", "count_points": 3, "latitude": 50.83984, "longitude": 29.549, "city": "Piskivka", "images": []}, {"id": 494493, "min_date": "2022-03-11T12:08:00Z", "max_date": "2022-03-11T12:08:00Z", "count_points": 1, "latitude": 51.09239, "longitude": 25.02892, "city": "Ho\u0142oby", "images": []}, {"id": 494494, "min_date": "2022-03-11T12:08:00Z", "max_date": "2022-03-11T12:08:00Z", "count_points": 1, "latitude": 51.1859, "longitude": 23.97247, "city": "Liuboml", "images": []}, {"id": 494495, "min_date": "2022-03-11T12:08:00Z", "max_date": "2022-03-11T11:17:00Z", "count_points": 4, "latitude": 51.25851, "longitude": 25.11238, "city": "Ho\u0142oby", "images": []}, {"id": 494496, "min_date": "2022-03-12T10:08:00Z", "max_date": "2022-03-12T10:08:00Z", "count_points": 1, "latitude": 46.954, "longitude": 32.47678, "city": "Chornobayivka", "images": []}, {"id": 494497, "min_date": "2022-03-12T10:08:00Z", "max_date": "2022-03-12T10:08:00Z", "count_points": 1, "latitude": 48.13929, "longitude": 30.59447, "city": "Pobugskoye", "images": []}, {"id": 494498, "min_date": "2022-03-12T10:08:00Z", "max_date": "2022-03-12T10:08:00Z", "count_points": 1, "latitude": 48.25102, "longitude": 30.79834, "city": "Vil\u2019shanka", "images": []}, {"id": 494499, "min_date": "2022-03-12T10:08:00Z", "max_date": "2022-03-12T10:08:00Z", "count_points": 2, "latitude": 47.99117, "longitude": 29.05173, "city": "Kodyma", "images": []}, {"id": 494500, "min_date": "2022-03-12T10:08:00Z", "max_date": "2022-03-12T10:08:00Z", "count_points": 1, "latitude": 48.30835, "longitude": 28.04772, "city": "Chernivtsi", "images": []}, {"id": 494501, "min_date": "2022-03-12T10:08:00Z", "max_date": "2022-03-12T10:08:00Z", "count_points": 2, "latitude": 48.8559, "longitude": 29.18485, "city": "Ladyzhyn", "images": []}, {"id": 494502, "min_date": "2022-03-12T10:08:00Z", "max_date": "2022-03-12T10:57:00Z", "count_points": 3, "latitude": 48.90272, "longitude": 28.3462, "city": "Sutysky", "images": []}, {"id": 494504, "min_date": "2022-03-12T10:08:00Z", "max_date": "2022-03-12T10:08:00Z", "count_points": 1, "latitude": 48.60163, "longitude": 26.00203, "city": "Zastavna", "images": []}, {"id": 494505, "min_date": "2022-03-12T10:08:00Z", "max_date": "2022-03-12T10:57:00Z", "count_points": 2, "latitude": 50.10992, "longitude": 31.26179, "city": "Pereyaslav-Khmel\u2019nyts\u2019kyy", "images": []}, {"id": 494506, "min_date": "2022-03-12T10:08:00Z", "max_date": "2022-03-12T10:08:00Z", "count_points": 1, "latitude": 49.91585, "longitude": 29.89241, "city": "Fastiv", "images": []}, {"id": 494507, "min_date": "2022-03-12T10:08:00Z", "max_date": "2022-03-12T10:57:00Z", "count_points": 5, "latitude": 48.9216, "longitude": 26.08121, "city": "Borshchiv", "images": []}, {"id": 494508, "min_date": "2022-03-12T10:08:00Z", "max_date": "2022-03-12T09:19:00Z", "count_points": 3, "latitude": 50.33533, "longitude": 30.50145, "city": "Khotiv", "images": []}, {"id": 494509, "min_date": "2022-03-12T10:08:00Z", "max_date": "2022-03-12T10:08:00Z", "count_points": 1, "latitude": 48.3432, "longitude": 22.89886, "city": "Irshava", "images": []}, {"id": 494510, "min_date": "2022-03-12T10:10:00Z", "max_date": "2022-03-12T10:10:00Z", "count_points": 1, "latitude": 50.39891, "longitude": 30.18526, "city": "Boyarka", "images": []}, {"id": 494511, "min_date": "2022-03-12T10:10:00Z", "max_date": "2022-03-12T10:57:00Z", "count_points": 3, "latitude": 49.23551, "longitude": 24.31006, "city": "Khodoriv", "images": [{"image_url": "494511.jpg", "timestamp": "2022-03-12T10:57:00Z"}]}, {"id": 494512, "min_date": "2022-03-12T11:49:00Z", "max_date": "2022-03-12T11:49:00Z", "count_points": 1, "latitude": 46.76741, "longitude": 32.40197, "city": "Bilozerka", "images": []}, {"id": 494513, "min_date": "2022-03-12T11:51:00Z", "max_date": "2022-03-12T11:51:00Z", "count_points": 1, "latitude": 47.62475, "longitude": 32.34739, "city": "Novyy Buh", "images": []}, {"id": 494514, "min_date": "2022-03-12T11:51:00Z", "max_date": "2022-03-12T11:51:00Z", "count_points": 1, "latitude": 48.11832, "longitude": 30.43563, "city": "Pobugskoye", "images": []}, {"id": 494515, "min_date": "2022-03-12T11:51:00Z", "max_date": "2022-03-12T11:51:00Z", "count_points": 1, "latitude": 48.14394, "longitude": 22.64178, "city": "Berehove", "images": []}, {"id": 494516, "min_date": "2022-03-12T11:51:00Z", "max_date": "2022-03-12T10:57:00Z", "count_points": 2, "latitude": 48.73358, "longitude": 31.396, "city": "Novomyrhorod", "images": []}, {"id": 494517, "min_date": "2022-03-12T11:51:00Z", "max_date": "2022-03-12T11:51:00Z", "count_points": 2, "latitude": 48.74721, "longitude": 22.4597, "city": "Perechyn", "images": []}, {"id": 494518, "min_date": "2022-03-12T11:51:00Z", "max_date": "2022-03-12T11:51:00Z", "count_points": 1, "latitude": 49.11426, "longitude": 28.75762, "city": "Voronovytsya", "images": []}, {"id": 494519, "min_date": "2022-03-12T11:51:00Z", "max_date": "2022-03-12T11:51:00Z", "count_points": 1, "latitude": 49.27552, "longitude": 30.43576, "city": "Kalynove", "images": []}, {"id": 494520, "min_date": "2022-03-12T11:51:00Z", "max_date": "2022-03-12T10:57:00Z", "count_points": 3, "latitude": 49.27456, "longitude": 23.81942, "city": "Stryi", "images": []}, {"id": 494445, "min_date": "2022-03-11T10:28:00Z", "max_date": "2022-03-11T11:19:00Z", "count_points": 4, "latitude": 48.36363, "longitude": 22.51338, "city": "Strabychovo", "images": [{"image_url": "494445.jpg", "timestamp": "2022-03-11T11:19:00Z"}]}, {"id": 494523, "min_date": "2022-03-12T11:51:00Z", "max_date": "2022-03-13T10:41:00Z", "count_points": 4, "latitude": 49.58944, "longitude": 23.46586, "city": "Rudky", "images": []}, {"id": 494525, "min_date": "2022-03-12T11:51:00Z", "max_date": "2022-03-12T11:51:00Z", "count_points": 1, "latitude": 49.73296, "longitude": 23.26671, "city": "Sudova Vyshnya", "images": []}, {"id": 494526, "min_date": "2022-03-12T11:51:00Z", "max_date": "2022-03-12T11:51:00Z", "count_points": 1, "latitude": 49.90343, "longitude": 23.32619, "city": "Yavoriv", "images": []}, {"id": 494527, "min_date": "2022-03-12T11:51:00Z", "max_date": "2022-03-12T11:00:00Z", "count_points": 2, "latitude": 50.01819, "longitude": 23.53968, "city": "Starychi", "images": []}, {"id": 494528, "min_date": "2022-03-12T11:51:00Z", "max_date": "2022-03-12T11:51:00Z", "count_points": 1, "latitude": 50.42258, "longitude": 24.79832, "city": "Horokhiv", "images": []}, {"id": 494529, "min_date": "2022-03-12T11:51:00Z", "max_date": "2022-03-12T11:51:00Z", "count_points": 4, "latitude": 51.2861, "longitude": 26.13431, "city": "Volodymyrets\u2019", "images": [{"image_url": "494529.jpg", "timestamp": "2022-03-12T11:51:00Z"}]}, {"id": 494530, "min_date": "2022-03-12T11:51:00Z", "max_date": "2022-03-12T11:00:00Z", "count_points": 2, "latitude": 51.85671, "longitude": 25.72397, "city": "Kuznetsovs\u2019k", "images": []}, {"id": 494531, "min_date": "2022-03-13T09:49:00Z", "max_date": "2022-03-13T10:38:00Z", "count_points": 6, "latitude": 46.19011, "longitude": 32.57004, "city": "Lazurne", "images": []}, {"id": 494532, "min_date": "2022-03-13T09:49:00Z", "max_date": "2022-03-13T10:41:00Z", "count_points": 3, "latitude": 46.82322, "longitude": 32.21138, "city": "Shevchenkove", "images": []}, {"id": 494533, "min_date": "2022-03-13T09:49:00Z", "max_date": "2022-03-13T10:41:00Z", "count_points": 3, "latitude": 48.51606, "longitude": 23.11671, "city": "Nelipyno", "images": []}, {"id": 494534, "min_date": "2022-03-13T09:49:00Z", "max_date": "2022-03-13T09:49:00Z", "count_points": 1, "latitude": 49.15685, "longitude": 24.79579, "city": "Bilshivtsi", "images": []}, {"id": 494535, "min_date": "2022-03-13T09:49:00Z", "max_date": "2022-03-13T09:49:00Z", "count_points": 1, "latitude": 49.10468, "longitude": 24.60578, "city": "Halych", "images": []}, {"id": 494536, "min_date": "2022-03-13T11:30:00Z", "max_date": "2022-03-13T11:30:00Z", "count_points": 1, "latitude": 46.15664, "longitude": 33.12864, "city": "Kalanchak", "images": []}, {"id": 494537, "min_date": "2022-03-13T11:30:00Z", "max_date": "2022-03-13T11:30:00Z", "count_points": 1, "latitude": 46.19415, "longitude": 33.11703, "city": "Kalanchak", "images": []}, {"id": 494538, "min_date": "2022-03-13T11:30:00Z", "max_date": "2022-03-13T11:30:00Z", "count_points": 1, "latitude": 46.47828, "longitude": 31.69822, "city": "Ochakiv", "images": []}, {"id": 494539, "min_date": "2022-03-13T11:30:00Z", "max_date": "2022-03-13T10:41:00Z", "count_points": 9, "latitude": 46.89248, "longitude": 32.27314, "city": "Shevchenkove", "images": []}, {"id": 494540, "min_date": "2022-03-13T11:30:00Z", "max_date": "2022-03-13T11:30:00Z", "count_points": 2, "latitude": 47.0719, "longitude": 32.89906, "city": "Snihurivka", "images": []}, {"id": 494541, "min_date": "2022-03-13T11:30:00Z", "max_date": "2022-03-13T11:30:00Z", "count_points": 1, "latitude": 48.16805, "longitude": 33.97908, "city": "Sofiyivka", "images": []}, {"id": 494542, "min_date": "2022-03-13T11:30:00Z", "max_date": "2022-03-13T11:30:00Z", "count_points": 1, "latitude": 48.37643, "longitude": 34.00505, "city": "Vyshneve", "images": []}, {"id": 494543, "min_date": "2022-03-13T11:30:00Z", "max_date": "2022-03-13T10:41:00Z", "count_points": 3, "latitude": 48.34099, "longitude": 23.05096, "city": "Irshava", "images": []}, {"id": 494544, "min_date": "2022-03-13T11:30:00Z", "max_date": "2022-03-13T11:30:00Z", "count_points": 1, "latitude": 48.41732, "longitude": 22.92966, "city": "Chynadiyovo", "images": []}, {"id": 494545, "min_date": "2022-03-13T11:30:00Z", "max_date": "2022-03-13T11:30:00Z", "count_points": 1, "latitude": 48.42231, "longitude": 22.48373, "city": "Strabychovo", "images": []}, {"id": 494546, "min_date": "2022-03-13T11:30:00Z", "max_date": "2022-03-13T12:19:00Z", "count_points": 4, "latitude": 48.46182, "longitude": 22.54929, "city": "Rakoshyno", "images": []}, {"id": 494547, "min_date": "2022-03-13T11:30:00Z", "max_date": "2022-03-13T11:30:00Z", "count_points": 1, "latitude": 49.17037, "longitude": 23.87469, "city": "Morshyn", "images": []}, {"id": 494548, "min_date": "2022-03-13T11:30:00Z", "max_date": "2022-03-11T11:19:00Z", "count_points": 2, "latitude": 49.27891, "longitude": 24.22958, "city": "Zhydachiv", "images": []}, {"id": 494550, "min_date": "2022-03-13T11:30:00Z", "max_date": "2022-03-13T11:30:00Z", "count_points": 1, "latitude": 49.4589, "longitude": 24.07333, "city": "Rozdil", "images": []}, {"id": 494551, "min_date": "2022-03-13T11:30:00Z", "max_date": "2022-03-13T11:30:00Z", "count_points": 2, "latitude": 49.54774, "longitude": 24.38213, "city": "Bibrka", "images": []}, {"id": 494552, "min_date": "2022-03-13T11:30:00Z", "max_date": "2022-03-13T10:41:00Z", "count_points": 3, "latitude": 49.53186, "longitude": 24.22003, "city": "Bibrka", "images": []}, {"id": 494553, "min_date": "2022-03-13T11:30:00Z", "max_date": "2022-03-13T11:30:00Z", "count_points": 1, "latitude": 49.45858, "longitude": 23.48751, "city": "Rykhtychi", "images": []}, {"id": 494554, "min_date": "2022-03-13T11:30:00Z", "max_date": "2022-03-13T10:41:00Z", "count_points": 2, "latitude": 49.59937, "longitude": 24.74967, "city": "Pomoriany", "images": []}, {"id": 494555, "min_date": "2022-03-13T11:30:00Z", "max_date": "2022-03-13T12:21:00Z", "count_points": 3, "latitude": 49.54122, "longitude": 23.62421, "city": "Komarno", "images": []}, {"id": 494556, "min_date": "2022-03-13T11:30:00Z", "max_date": "2022-03-13T10:41:00Z", "count_points": 3, "latitude": 49.5746, "longitude": 23.86975, "city": "Shchyrets\u2019", "images": []}, {"id": 494557, "min_date": "2022-03-13T11:30:00Z", "max_date": "2022-03-13T11:30:00Z", "count_points": 1, "latitude": 49.61882, "longitude": 24.21829, "city": "Bibrka", "images": []}, {"id": 494558, "min_date": "2022-03-13T11:30:00Z", "max_date": "2022-03-13T12:21:00Z", "count_points": 4, "latitude": 49.62591, "longitude": 23.78187, "city": "Komarno", "images": []}, {"id": 494559, "min_date": "2022-03-13T11:30:00Z", "max_date": "2022-03-13T12:21:00Z", "count_points": 3, "latitude": 49.6432, "longitude": 23.26407, "city": "Sambir", "images": []}, {"id": 494560, "min_date": "2022-03-13T11:30:00Z", "max_date": "2022-03-13T10:41:00Z", "count_points": 4, "latitude": 49.66774, "longitude": 23.46523, "city": "Rudky", "images": []}, {"id": 494561, "min_date": "2022-03-13T11:30:00Z", "max_date": "2022-03-13T11:30:00Z", "count_points": 1, "latitude": 49.64854, "longitude": 22.8615, "city": "Dobromyl\u2019", "images": []}, {"id": 494562, "min_date": "2022-03-13T11:30:00Z", "max_date": "2022-03-13T11:30:00Z", "count_points": 1, "latitude": 49.8163, "longitude": 23.64737, "city": "Horodok", "images": []}, {"id": 494563, "min_date": "2022-03-13T11:30:00Z", "max_date": "2022-03-13T10:41:00Z", "count_points": 5, "latitude": 49.8009, "longitude": 23.21259, "city": "Mostys'ka", "images": []}, {"id": 494564, "min_date": "2022-03-13T11:30:00Z", "max_date": "2022-03-13T11:30:00Z", "count_points": 1, "latitude": 50.33996, "longitude": 23.89584, "city": "Belz", "images": []}, {"id": 494565, "min_date": "2022-03-08T10:34:00Z", "max_date": "2022-03-08T10:34:00Z", "count_points": 1, "latitude": 48.52425, "longitude": 22.5739, "city": "Rakoshyno", "images": []}, {"id": 494566, "min_date": "2022-03-09T10:15:00Z", "max_date": "2022-03-09T10:15:00Z", "count_points": 1, "latitude": 45.79905, "longitude": 33.62535, "city": "Ruch\u2019i", "images": []}, {"id": 494567, "min_date": "2022-03-09T10:17:00Z", "max_date": "2022-03-09T10:17:00Z", "count_points": 1, "latitude": 50.67633, "longitude": 28.01978, "city": "Yemil\u2019chyne", "images": []}, {"id": 494568, "min_date": "2022-03-10T00:07:00Z", "max_date": "2022-03-10T00:07:00Z", "count_points": 2, "latitude": 51.32131, "longitude": 31.09763, "city": "Olyshivka", "images": []}, {"id": 494569, "min_date": "2022-03-10T00:07:00Z", "max_date": "2022-03-10T00:07:00Z", "count_points": 1, "latitude": 50.69173, "longitude": 26.53517, "city": "Hoshcha", "images": []}, {"id": 494570, "min_date": "2022-03-10T00:07:00Z", "max_date": "2022-03-10T00:07:00Z", "count_points": 1, "latitude": 50.57272, "longitude": 26.71573, "city": "Hoshcha", "images": []}, {"id": 494571, "min_date": "2022-03-10T09:56:00Z", "max_date": "2022-03-10T09:56:00Z", "count_points": 1, "latitude": 50.60974, "longitude": 31.15105, "city": "Kirove", "images": []}, {"id": 494572, "min_date": "2022-03-10T09:56:00Z", "max_date": "2022-03-10T09:56:00Z", "count_points": 1, "latitude": 50.62405, "longitude": 30.87114, "city": "Velyka Dymerka", "images": []}, {"id": 494573, "min_date": "2022-03-10T11:38:00Z", "max_date": "2022-03-12T10:57:00Z", "count_points": 3, "latitude": 50.5618, "longitude": 31.18296, "city": "Kirove", "images": []}, {"id": 494575, "min_date": "2022-03-10T23:50:00Z", "max_date": "2022-03-10T23:50:00Z", "count_points": 1, "latitude": 50.56282, "longitude": 29.66181, "city": "Kodra", "images": []}, {"id": 494576, "min_date": "2022-03-10T23:50:00Z", "max_date": "2022-03-10T23:50:00Z", "count_points": 1, "latitude": 50.11361, "longitude": 30.8226, "city": "Trypillia", "images": []}, {"id": 494577, "min_date": "2022-03-11T09:38:00Z", "max_date": "2022-03-11T09:38:00Z", "count_points": 1, "latitude": 50.45686, "longitude": 30.99782, "city": "Trebukhiv", "images": []}, {"id": 494578, "min_date": "2022-03-11T09:38:00Z", "max_date": "2022-03-11T09:38:00Z", "count_points": 1, "latitude": 51.36643, "longitude": 32.86356, "city": "Baturyn", "images": []}, {"id": 494579, "min_date": "2022-03-11T09:38:00Z", "max_date": "2022-03-11T11:17:00Z", "count_points": 3, "latitude": 50.50902, "longitude": 29.80675, "city": "Makariv", "images": []}, {"id": 494580, "min_date": "2022-03-11T09:38:00Z", "max_date": "2022-03-11T11:17:00Z", "count_points": 2, "latitude": 50.72709, "longitude": 29.96201, "city": "Borodianka", "images": []}, {"id": 494581, "min_date": "2022-03-11T09:38:00Z", "max_date": "2022-03-11T09:38:00Z", "count_points": 1, "latitude": 51.16221, "longitude": 30.09637, "city": "Kryva Hora", "images": []}, {"id": 494582, "min_date": "2022-03-11T09:38:00Z", "max_date": "2022-03-11T09:38:00Z", "count_points": 1, "latitude": 50.65096, "longitude": 26.57535, "city": "Hoshcha", "images": []}, {"id": 494583, "min_date": "2022-03-11T11:19:00Z", "max_date": "2022-03-11T11:19:00Z", "count_points": 1, "latitude": 48.09531, "longitude": 23.64167, "city": "Tyachiv", "images": []}, {"id": 494584, "min_date": "2022-03-11T11:19:00Z", "max_date": "2022-03-11T11:19:00Z", "count_points": 1, "latitude": 48.5004, "longitude": 26.72228, "city": "Kel\u2019mentsi", "images": []}, {"id": 494585, "min_date": "2022-03-11T11:19:00Z", "max_date": "2022-03-11T11:19:00Z", "count_points": 1, "latitude": 48.21595, "longitude": 23.17064, "city": "Rokosovo", "images": []}, {"id": 494586, "min_date": "2022-03-11T11:19:00Z", "max_date": "2022-03-11T11:19:00Z", "count_points": 2, "latitude": 48.81037, "longitude": 27.26682, "city": "Nova Ushytsya", "images": []}, {"id": 494587, "min_date": "2022-03-11T11:19:00Z", "max_date": "2022-03-11T11:19:00Z", "count_points": 1, "latitude": 48.33667, "longitude": 22.94036, "city": "Irshava", "images": []}, {"id": 494588, "min_date": "2022-03-11T11:19:00Z", "max_date": "2022-03-11T11:19:00Z", "count_points": 1, "latitude": 48.3682, "longitude": 22.89769, "city": "Chynadiyovo", "images": []}, {"id": 494589, "min_date": "2022-03-11T11:19:00Z", "max_date": "2022-03-11T11:19:00Z", "count_points": 1, "latitude": 48.39278, "longitude": 23.00053, "city": "Irshava", "images": []}, {"id": 494590, "min_date": "2022-03-11T11:19:00Z", "max_date": "2022-03-11T11:19:00Z", "count_points": 1, "latitude": 48.43602, "longitude": 22.8726, "city": "Chynadiyovo", "images": []}, {"id": 494591, "min_date": "2022-03-11T11:19:00Z", "max_date": "2022-03-12T10:57:00Z", "count_points": 3, "latitude": 48.41572, "longitude": 22.36476, "city": "Batiovo", "images": [{"image_url": "494591.jpg", "timestamp": "2022-03-12T10:57:00Z"}]}, {"id": 494592, "min_date": "2022-03-11T11:19:00Z", "max_date": "2022-03-11T11:19:00Z", "count_points": 1, "latitude": 48.4801, "longitude": 22.59044, "city": "Rakoshyno", "images": []}, {"id": 494593, "min_date": "2022-03-11T11:19:00Z", "max_date": "2022-03-11T11:19:00Z", "count_points": 1, "latitude": 48.55001, "longitude": 22.44004, "city": "Serednye", "images": []}, {"id": 494594, "min_date": "2022-03-11T11:19:00Z", "max_date": "2022-03-11T11:19:00Z", "count_points": 3, "latitude": 48.92075, "longitude": 24.9938, "city": "Tlumach", "images": []}, {"id": 494595, "min_date": "2022-03-11T11:19:00Z", "max_date": "2022-03-11T11:19:00Z", "count_points": 2, "latitude": 49.35553, "longitude": 28.59392, "city": "Sobolivka", "images": []}, {"id": 494596, "min_date": "2022-03-11T11:19:00Z", "max_date": "2022-03-11T11:19:00Z", "count_points": 1, "latitude": 48.70815, "longitude": 22.60687, "city": "Perechyn", "images": []}, {"id": 494597, "min_date": "2022-03-11T11:19:00Z", "max_date": "2022-03-11T11:19:00Z", "count_points": 1, "latitude": 49.06396, "longitude": 24.53065, "city": "Kalush", "images": []}, {"id": 494598, "min_date": "2022-03-11T11:19:00Z", "max_date": "2022-03-11T11:19:00Z", "count_points": 1, "latitude": 49.14682, "longitude": 24.41144, "city": "Kalush", "images": []}, {"id": 494522, "min_date": "2022-03-12T11:51:00Z", "max_date": "2022-03-12T10:57:00Z", "count_points": 7, "latitude": 49.58133, "longitude": 23.55774, "city": "Rudky", "images": [{"image_url": "494522.jpg", "timestamp": "2022-03-12T10:57:00Z"}]}, {"id": 494601, "min_date": "2022-03-11T11:17:00Z", "max_date": "2022-03-11T11:17:00Z", "count_points": 1, "latitude": 49.66502, "longitude": 25.05947, "city": "Zboriv", "images": []}, {"id": 494602, "min_date": "2022-03-11T11:17:00Z", "max_date": "2022-03-11T11:17:00Z", "count_points": 1, "latitude": 49.6213, "longitude": 24.47737, "city": "Peremyshlyany", "images": []}, {"id": 494603, "min_date": "2022-03-11T11:17:00Z", "max_date": "2022-03-11T11:17:00Z", "count_points": 1, "latitude": 49.58693, "longitude": 23.91553, "city": "Demnya", "images": []}, {"id": 494604, "min_date": "2022-03-11T11:17:00Z", "max_date": "2022-03-11T11:17:00Z", "count_points": 1, "latitude": 49.63925, "longitude": 23.64951, "city": "Komarno", "images": []}, {"id": 494605, "min_date": "2022-03-11T11:17:00Z", "max_date": "2022-03-11T11:17:00Z", "count_points": 1, "latitude": 50.34465, "longitude": 30.36149, "city": "Kriukivschina", "images": []}, {"id": 494606, "min_date": "2022-03-11T11:17:00Z", "max_date": "2022-03-11T11:17:00Z", "count_points": 1, "latitude": 49.77057, "longitude": 23.92272, "city": "Navaria", "images": []}, {"id": 494607, "min_date": "2022-03-11T11:17:00Z", "max_date": "2022-03-11T11:17:00Z", "count_points": 1, "latitude": 50.54102, "longitude": 30.14313, "city": "Vorzel\u2019", "images": []}, {"id": 494608, "min_date": "2022-03-11T11:17:00Z", "max_date": "2022-03-11T11:17:00Z", "count_points": 2, "latitude": 50.09725, "longitude": 24.1032, "city": "Kulykiv", "images": []}, {"id": 494609, "min_date": "2022-03-11T11:17:00Z", "max_date": "2022-03-11T11:17:00Z", "count_points": 1, "latitude": 50.86724, "longitude": 27.59775, "city": "Yemil\u2019chyne", "images": []}, {"id": 494610, "min_date": "2022-03-11T11:17:00Z", "max_date": "2022-03-11T11:17:00Z", "count_points": 1, "latitude": 50.79217, "longitude": 24.12282, "city": "Novovolyns\u2019k", "images": []}, {"id": 494611, "min_date": "2022-03-11T11:17:00Z", "max_date": "2022-03-11T11:17:00Z", "count_points": 1, "latitude": 51.1826, "longitude": 27.18492, "city": "Rokytne", "images": []}, {"id": 494613, "min_date": "2022-03-11T11:17:00Z", "max_date": "2022-03-11T11:17:00Z", "count_points": 1, "latitude": 51.20955, "longitude": 24.75268, "city": "Kovel", "images": []}, {"id": 494614, "min_date": "2022-03-11T11:17:00Z", "max_date": "2022-03-11T11:17:00Z", "count_points": 1, "latitude": 51.36895, "longitude": 25.37956, "city": "Manevychi", "images": []}, {"id": 494615, "min_date": "2022-03-11T11:17:00Z", "max_date": "2022-03-11T11:17:00Z", "count_points": 1, "latitude": 51.46286, "longitude": 24.16187, "city": "Shats\u2019k", "images": []}, {"id": 494616, "min_date": "2022-03-11T11:17:00Z", "max_date": "2022-03-11T11:17:00Z", "count_points": 1, "latitude": 51.77865, "longitude": 25.11498, "city": "Kamin-Kashyrskyi", "images": []}, {"id": 494617, "min_date": "2022-03-12T09:17:00Z", "max_date": "2022-03-12T09:17:00Z", "count_points": 5, "latitude": 49.80213, "longitude": 32.84821, "city": "Orzhytsya", "images": []}, {"id": 494618, "min_date": "2022-03-12T09:19:00Z", "max_date": "2022-03-12T09:19:00Z", "count_points": 2, "latitude": 50.32673, "longitude": 30.89259, "city": "Boryspil\u2019", "images": []}, {"id": 494619, "min_date": "2022-03-12T09:19:00Z", "max_date": "2022-03-12T09:19:00Z", "count_points": 2, "latitude": 50.45735, "longitude": 31.17629, "city": "Kirove", "images": []}, {"id": 494620, "min_date": "2022-03-12T10:57:00Z", "max_date": "2022-03-12T10:57:00Z", "count_points": 1, "latitude": 46.77809, "longitude": 30.90469, "city": "Dobroslav", "images": []}, {"id": 494621, "min_date": "2022-03-12T10:57:00Z", "max_date": "2022-03-12T10:57:00Z", "count_points": 1, "latitude": 47.35573, "longitude": 29.76529, "city": "Zakharivka", "images": []}, {"id": 494622, "min_date": "2022-03-12T10:57:00Z", "max_date": "2022-03-12T10:57:00Z", "count_points": 1, "latitude": 48.42498, "longitude": 32.71998, "city": "Novhorodka", "images": []}, {"id": 494623, "min_date": "2022-03-12T10:57:00Z", "max_date": "2022-03-12T10:57:00Z", "count_points": 3, "latitude": 48.22979, "longitude": 30.47213, "city": "Pobugskoye", "images": []}, {"id": 494624, "min_date": "2022-03-12T10:57:00Z", "max_date": "2022-03-12T10:57:00Z", "count_points": 1, "latitude": 48.40685, "longitude": 26.92792, "city": "Kel\u2019mentsi", "images": []}, {"id": 494625, "min_date": "2022-03-12T10:57:00Z", "max_date": "2022-03-12T10:57:00Z", "count_points": 1, "latitude": 48.37646, "longitude": 26.13625, "city": "Boyany", "images": []}, {"id": 494626, "min_date": "2022-03-12T10:57:00Z", "max_date": "2022-03-12T10:57:00Z", "count_points": 1, "latitude": 48.71881, "longitude": 27.43859, "city": "Murovani Kurylivtsi", "images": []}, {"id": 494627, "min_date": "2022-03-12T10:57:00Z", "max_date": "2022-03-12T10:57:00Z", "count_points": 1, "latitude": 48.6188, "longitude": 26.63334, "city": "Kamianets-Podilskyi", "images": []}, {"id": 494628, "min_date": "2022-03-12T10:57:00Z", "max_date": "2022-03-12T10:57:00Z", "count_points": 2, "latitude": 48.72112, "longitude": 26.76552, "city": "Makiv", "images": []}, {"id": 494629, "min_date": "2022-03-12T10:57:00Z", "max_date": "2022-03-12T10:57:00Z", "count_points": 1, "latitude": 48.51479, "longitude": 25.46355, "city": "Stetseva", "images": []}, {"id": 494630, "min_date": "2022-03-12T10:57:00Z", "max_date": "2022-03-12T10:57:00Z", "count_points": 1, "latitude": 48.75074, "longitude": 26.89329, "city": "Dunaivtsi", "images": []}, {"id": 494631, "min_date": "2022-03-12T10:57:00Z", "max_date": "2022-03-12T10:57:00Z", "count_points": 1, "latitude": 49.04607, "longitude": 28.83525, "city": "Nemyriv", "images": []}, {"id": 494632, "min_date": "2022-03-12T10:57:00Z", "max_date": "2022-03-12T10:57:00Z", "count_points": 1, "latitude": 48.18721, "longitude": 23.23549, "city": "Kryva", "images": []}, {"id": 494633, "min_date": "2022-03-12T10:57:00Z", "max_date": "2022-03-12T10:57:00Z", "count_points": 1, "latitude": 49.48714, "longitude": 31.6249, "city": "Moshny", "images": []}, {"id": 494634, "min_date": "2022-03-12T10:57:00Z", "max_date": "2022-03-12T10:57:00Z", "count_points": 1, "latitude": 49.48769, "longitude": 31.45532, "city": "Mleyev", "images": []}, {"id": 494635, "min_date": "2022-03-12T10:57:00Z", "max_date": "2022-03-12T10:57:00Z", "count_points": 1, "latitude": 49.38575, "longitude": 29.65232, "city": "Tetiiv", "images": []}, {"id": 494636, "min_date": "2022-03-12T10:57:00Z", "max_date": "2022-03-12T10:57:00Z", "count_points": 1, "latitude": 49.59303, "longitude": 31.09143, "city": "Myronivka", "images": []}, {"id": 494637, "min_date": "2022-03-12T10:57:00Z", "max_date": "2022-03-12T10:57:00Z", "count_points": 1, "latitude": 48.34809, "longitude": 22.45935, "city": "Batiovo", "images": []}, {"id": 494639, "min_date": "2022-03-12T10:57:00Z", "max_date": "2022-03-12T10:57:00Z", "count_points": 1, "latitude": 48.49475, "longitude": 22.27809, "city": "Mynay", "images": []}, {"id": 494640, "min_date": "2022-03-12T10:57:00Z", "max_date": "2022-03-12T10:57:00Z", "count_points": 1, "latitude": 49.21043, "longitude": 25.91642, "city": "Khorostkiv", "images": []}, {"id": 494641, "min_date": "2022-03-12T10:57:00Z", "max_date": "2022-03-12T10:57:00Z", "count_points": 1, "latitude": 49.3552, "longitude": 26.25061, "city": "Volochysk", "images": []}, {"id": 494642, "min_date": "2022-03-12T10:57:00Z", "max_date": "2022-03-12T10:57:00Z", "count_points": 1, "latitude": 49.17599, "longitude": 24.4915, "city": "Burshtyn", "images": []}, {"id": 494643, "min_date": "2022-03-12T10:57:00Z", "max_date": "2022-03-12T10:57:00Z", "count_points": 1, "latitude": 49.14886, "longitude": 23.96207, "city": "Morshyn", "images": []}, {"id": 494644, "min_date": "2022-03-12T10:57:00Z", "max_date": "2022-03-13T10:41:00Z", "count_points": 2, "latitude": 49.16159, "longitude": 24.02439, "city": "Morshyn", "images": []}, {"id": 494645, "min_date": "2022-03-12T10:57:00Z", "max_date": "2022-03-12T10:57:00Z", "count_points": 1, "latitude": 50.41146, "longitude": 31.86642, "city": "Zgurovka", "images": []}, {"id": 494646, "min_date": "2022-03-12T10:57:00Z", "max_date": "2022-03-12T10:57:00Z", "count_points": 1, "latitude": 50.49331, "longitude": 31.02813, "city": "Trebukhiv", "images": []}, {"id": 494647, "min_date": "2022-03-12T10:57:00Z", "max_date": "2022-03-12T10:57:00Z", "count_points": 1, "latitude": 49.48695, "longitude": 22.99771, "city": "Staryy Sambir", "images": []}, {"id": 494648, "min_date": "2022-03-12T10:57:00Z", "max_date": "2022-03-12T10:57:00Z", "count_points": 1, "latitude": 49.56807, "longitude": 23.26607, "city": "Ralivka", "images": []}, {"id": 494649, "min_date": "2022-03-12T10:57:00Z", "max_date": "2022-03-12T10:57:00Z", "count_points": 1, "latitude": 49.52508, "longitude": 22.97259, "city": "Skelivka", "images": []}, {"id": 494650, "min_date": "2022-03-12T10:57:00Z", "max_date": "2022-03-12T10:57:00Z", "count_points": 1, "latitude": 49.58491, "longitude": 22.96473, "city": "Skelivka", "images": []}, {"id": 494651, "min_date": "2022-03-12T10:57:00Z", "max_date": "2022-03-12T10:57:00Z", "count_points": 1, "latitude": 49.87649, "longitude": 24.57071, "city": "Krasne", "images": []}, {"id": 494652, "min_date": "2022-03-12T10:57:00Z", "max_date": "2022-03-12T10:57:00Z", "count_points": 1, "latitude": 49.97243, "longitude": 24.34536, "city": "Novyy Yarychiv", "images": []}, {"id": 494653, "min_date": "2022-03-12T11:00:00Z", "max_date": "2022-03-12T11:00:00Z", "count_points": 1, "latitude": 49.97514, "longitude": 24.03403, "city": "Kulykiv", "images": []}, {"id": 494654, "min_date": "2022-03-12T11:00:00Z", "max_date": "2022-03-12T11:00:00Z", "count_points": 1, "latitude": 50.27048, "longitude": 25.5138, "city": "Tarakaniv", "images": []}, {"id": 494655, "min_date": "2022-03-12T11:00:00Z", "max_date": "2022-03-12T11:00:00Z", "count_points": 1, "latitude": 50.47693, "longitude": 26.41382, "city": "Kolodenka", "images": []}, {"id": 494656, "min_date": "2022-03-12T11:00:00Z", "max_date": "2022-03-12T11:00:00Z", "count_points": 1, "latitude": 50.04032, "longitude": 23.38282, "city": "Verblyany", "images": []}, {"id": 494657, "min_date": "2022-03-12T11:00:00Z", "max_date": "2022-03-12T11:00:00Z", "count_points": 1, "latitude": 50.14201, "longitude": 23.69863, "city": "Rava-Rus\u2019ka", "images": []}, {"id": 494658, "min_date": "2022-03-12T11:00:00Z", "max_date": "2022-03-12T11:00:00Z", "count_points": 1, "latitude": 50.62004, "longitude": 24.94415, "city": "Horokhiv", "images": []}, {"id": 494659, "min_date": "2022-03-12T11:00:00Z", "max_date": "2022-03-12T11:00:00Z", "count_points": 1, "latitude": 51.19802, "longitude": 25.20134, "city": "Ho\u0142oby", "images": []}, {"id": 494660, "min_date": "2022-03-12T11:00:00Z", "max_date": "2022-03-12T11:00:00Z", "count_points": 1, "latitude": 51.33764, "longitude": 25.0612, "city": "Ho\u0142oby", "images": []}, {"id": 494661, "min_date": "2022-03-12T11:00:00Z", "max_date": "2022-03-12T11:00:00Z", "count_points": 3, "latitude": 51.24882, "longitude": 24.38612, "city": "Stara Vyzhivka", "images": []}, {"id": 494662, "min_date": "2022-03-12T11:00:00Z", "max_date": "2022-03-12T11:00:00Z", "count_points": 1, "latitude": 51.40029, "longitude": 24.43926, "city": "Stara Vyzhivka", "images": []}, {"id": 494663, "min_date": "2022-03-13T10:38:00Z", "max_date": "2022-03-13T10:38:00Z", "count_points": 1, "latitude": 46.16476, "longitude": 33.59831, "city": "Armyansk", "images": []}, {"id": 494664, "min_date": "2022-03-13T10:38:00Z", "max_date": "2022-03-13T10:38:00Z", "count_points": 1, "latitude": 46.24571, "longitude": 33.76502, "city": "Armyansk", "images": []}, {"id": 494666, "min_date": "2022-03-13T10:41:00Z", "max_date": "2022-03-13T10:41:00Z", "count_points": 1, "latitude": 47.89624, "longitude": 33.92158, "city": "Sofiyivka", "images": []}, {"id": 494667, "min_date": "2022-03-13T10:41:00Z", "max_date": "2022-03-13T10:41:00Z", "count_points": 1, "latitude": 48.73479, "longitude": 34.67586, "city": "Petrykivka", "images": []}, {"id": 494668, "min_date": "2022-03-13T10:41:00Z", "max_date": "2022-03-13T10:41:00Z", "count_points": 1, "latitude": 48.41116, "longitude": 23.02252, "city": "Irshava", "images": []}, {"id": 494669, "min_date": "2022-03-13T10:41:00Z", "max_date": "2022-03-13T10:41:00Z", "count_points": 1, "latitude": 48.95044, "longitude": 25.02215, "city": "Tlumach", "images": []}, {"id": 494670, "min_date": "2022-03-13T10:41:00Z", "max_date": "2022-03-13T10:41:00Z", "count_points": 2, "latitude": 48.53569, "longitude": 23.03377, "city": "Nelipyno", "images": []}, {"id": 494671, "min_date": "2022-03-13T10:41:00Z", "max_date": "2022-03-13T12:19:00Z", "count_points": 3, "latitude": 49.34285, "longitude": 24.70133, "city": "Rohatyn", "images": []}, {"id": 494672, "min_date": "2022-03-13T10:41:00Z", "max_date": "2022-03-13T10:41:00Z", "count_points": 2, "latitude": 49.31119, "longitude": 24.53751, "city": "Burshtyn", "images": []}, {"id": 494673, "min_date": "2022-03-13T10:41:00Z", "max_date": "2022-03-13T10:41:00Z", "count_points": 1, "latitude": 49.70593, "longitude": 23.3721, "city": "Sudova Vyshnya", "images": []}, {"id": 494674, "min_date": "2022-03-13T12:00:00Z", "max_date": "2022-03-13T23:44:00Z", "count_points": 12, "latitude": 49.23195, "longitude": 24.21644, "city": "Zhydachiv", "images": [{"image_url": "494674.jpg", "timestamp": "2022-03-13T23:44:00Z"}]}, {"id": 494675, "min_date": "2022-03-13T23:44:00Z", "max_date": "2022-03-13T23:44:00Z", "count_points": 2, "latitude": 51.77991, "longitude": 25.0538, "city": "Kamin-Kashyrskyi", "images": []}, {"id": 494600, "min_date": "2022-03-11T11:17:00Z", "max_date": "2022-03-11T11:17:00Z", "count_points": 1, "latitude": 49.88808, "longitude": 27.94852, "city": "Liubar", "images": []}, {"id": 494347, "min_date": "2022-03-10T11:29:00Z", "max_date": "2022-03-11T23:30:00Z", "count_points": 19, "latitude": 51.46768, "longitude": 31.2557, "city": "Chernihiv", "images": [{"image_url": "494347.jpg", "timestamp": "2022-03-11T23:30:00Z"}]}, {"id": 494366, "min_date": "2022-03-11T19:49:00Z", "max_date": "2022-03-12T01:11:00Z", "count_points": 29, "latitude": 50.57563, "longitude": 30.21734, "city": "Bucha", "images": [{"image_url": "494366.jpg", "timestamp": "2022-03-12T01:11:00Z"}]}, {"id": 494367, "min_date": "2022-03-12T09:21:00Z", "max_date": "2022-03-11T09:38:00Z", "count_points": 17, "latitude": 50.61959, "longitude": 30.39956, "city": "Novi Petrivtsi", "images": []}, {"id": 494373, "min_date": "2022-03-12T09:24:00Z", "max_date": "2022-03-13T10:41:00Z", "count_points": 4, "latitude": 49.16061, "longitude": 24.73262, "city": "Bilshivtsi", "images": [{"image_url": "494373.jpg", "timestamp": "2022-03-13T10:41:00Z"}]}, {"id": 494401, "min_date": "2022-03-08T11:23:00Z", "max_date": "2022-03-08T10:34:00Z", "count_points": 3, "latitude": 48.43116, "longitude": 22.6053, "city": "Nove Davydkovo", "images": []}, {"id": 494427, "min_date": "2022-03-10T01:00:00Z", "max_date": "2022-03-10T01:00:00Z", "count_points": 2, "latitude": 49.47191, "longitude": 23.99607, "city": "Rozvadiv", "images": []}, {"id": 494444, "min_date": "2022-03-11T10:28:00Z", "max_date": "2022-03-11T10:28:00Z", "count_points": 1, "latitude": 48.97084, "longitude": 25.04053, "city": "Tlumach", "images": []}, {"id": 494478, "min_date": "2022-03-11T12:08:00Z", "max_date": "2022-03-11T11:19:00Z", "count_points": 5, "latitude": 48.39248, "longitude": 22.57968, "city": "Strabychovo", "images": []}, {"id": 494503, "min_date": "2022-03-12T10:08:00Z", "max_date": "2022-03-12T10:08:00Z", "count_points": 2, "latitude": 47.98629, "longitude": 23.93433, "city": "Serednye Vodyane", "images": []}, {"id": 494521, "min_date": "2022-03-12T11:51:00Z", "max_date": "2022-03-12T11:51:00Z", "count_points": 3, "latitude": 49.49355, "longitude": 23.4237, "city": "Dublyany", "images": []}, {"id": 494524, "min_date": "2022-03-12T11:51:00Z", "max_date": "2022-03-12T11:51:00Z", "count_points": 1, "latitude": 49.74666, "longitude": 23.5335, "city": "Rodatychi", "images": []}, {"id": 494549, "min_date": "2022-03-13T11:30:00Z", "max_date": "2022-03-13T12:21:00Z", "count_points": 3, "latitude": 49.41083, "longitude": 24.42433, "city": "Khodoriv", "images": [{"image_url": "494549.jpg", "timestamp": "2022-03-13T12:21:00Z"}]}, {"id": 494574, "min_date": "2022-03-10T11:38:00Z", "max_date": "2022-03-10T11:38:00Z", "count_points": 1, "latitude": 50.74614, "longitude": 24.31865, "city": "Volodymyr-Volynskyi", "images": []}, {"id": 494599, "min_date": "2022-03-11T11:19:00Z", "max_date": "2022-03-11T11:19:00Z", "count_points": 1, "latitude": 49.33466, "longitude": 23.91745, "city": "Stryi", "images": []}, {"id": 494612, "min_date": "2022-03-11T11:17:00Z", "max_date": "2022-03-11T11:17:00Z", "count_points": 1, "latitude": 51.12052, "longitude": 25.75626, "city": "Manevychi", "images": []}, {"id": 494638, "min_date": "2022-03-12T10:57:00Z", "max_date": "2022-03-12T10:57:00Z", "count_points": 1, "latitude": 48.4905, "longitude": 22.79513, "city": "Chynadiyovo", "images": []}, {"id": 494665, "min_date": "2022-03-13T10:41:00Z", "max_date": "2022-03-13T10:41:00Z", "count_points": 2, "latitude": 47.37048, "longitude": 31.20594, "city": "Veselynove", "images": []}, {"id": 495165, "min_date": "2022-03-09T10:15:00Z", "max_date": "2022-03-09T10:15:00Z", "count_points": 1, "latitude": 47.18914, "longitude": 37.51502, "city": "Staryy Krym", "images": []}, {"id": 495167, "min_date": "2022-03-10T09:56:00Z", "max_date": "2022-03-13T23:44:00Z", "count_points": 16, "latitude": 47.14447, "longitude": 37.6267, "city": "Sartana", "images": [{"image_url": "495167.jpg", "timestamp": "2022-03-13T23:44:00Z"}]}, {"id": 495168, "min_date": "2022-03-10T22:09:00Z", "max_date": "2022-03-10T22:58:00Z", "count_points": 3, "latitude": 48.46963, "longitude": 38.22228, "city": "Svetlodarsk", "images": []}, {"id": 495169, "min_date": "2022-03-10T23:50:00Z", "max_date": "2022-03-10T23:50:00Z", "count_points": 1, "latitude": 47.61908, "longitude": 37.12716, "city": "Rozivka", "images": []}, {"id": 495170, "min_date": "2022-03-10T23:50:00Z", "max_date": "2022-03-13T23:44:00Z", "count_points": 12, "latitude": 47.10869, "longitude": 37.53934, "city": "Mariupol", "images": [{"image_url": "495170.jpg", "timestamp": "2022-03-13T23:44:00Z"}]}, {"id": 495171, "min_date": "2022-03-11T09:36:00Z", "max_date": "2022-03-13T23:44:00Z", "count_points": 61, "latitude": 49.02469, "longitude": 38.39345, "city": "Rubizhne", "images": []}, {"id": 495172, "min_date": "2022-03-11T23:30:00Z", "max_date": "2022-03-12T00:22:00Z", "count_points": 5, "latitude": 50.21675, "longitude": 36.16044, "city": "Slatyne", "images": []}, {"id": 495173, "min_date": "2022-03-12T10:57:00Z", "max_date": "2022-03-12T10:57:00Z", "count_points": 1, "latitude": 46.8269, "longitude": 35.98445, "city": "Novovasylivka", "images": []}, {"id": 495174, "min_date": "2022-03-12T10:57:00Z", "max_date": "2022-03-13T11:30:00Z", "count_points": 8, "latitude": 47.80652, "longitude": 37.59531, "city": "Dokuchayevs\u2019k", "images": []}, {"id": 495175, "min_date": "2022-03-12T10:57:00Z", "max_date": "2022-03-12T11:14:00Z", "count_points": 10, "latitude": 48.48189, "longitude": 36.04515, "city": "Pavlohrad", "images": []}, {"id": 495176, "min_date": "2022-03-12T10:57:00Z", "max_date": "2022-03-12T10:57:00Z", "count_points": 1, "latitude": 49.15026, "longitude": 39.83848, "city": "Bilovods'k", "images": []}, {"id": 495177, "min_date": "2022-03-12T23:11:00Z", "max_date": "2022-03-12T23:11:00Z", "count_points": 1, "latitude": 49.39361, "longitude": 36.64054, "city": "Balakliya", "images": []}, {"id": 495178, "min_date": "2022-03-13T08:58:00Z", "max_date": "2022-03-13T11:30:00Z", "count_points": 7, "latitude": 47.11371, "longitude": 36.37322, "city": "Chernihivka", "images": []}, {"id": 495179, "min_date": "2022-03-13T09:00:00Z", "max_date": "2022-03-13T10:19:00Z", "count_points": 3, "latitude": 48.65616, "longitude": 36.65766, "city": "Blyznyuky", "images": []}, {"id": 495180, "min_date": "2022-03-13T10:38:00Z", "max_date": "2022-03-13T10:38:00Z", "count_points": 1, "latitude": 46.66014, "longitude": 36.23306, "city": "Prymors\u2019k", "images": []}, {"id": 495181, "min_date": "2022-03-13T10:38:00Z", "max_date": "2022-03-13T10:38:00Z", "count_points": 1, "latitude": 46.78925, "longitude": 36.75067, "city": "Berdyansk", "images": []}, {"id": 495182, "min_date": "2022-03-13T10:41:00Z", "max_date": "2022-03-13T11:30:00Z", "count_points": 7, "latitude": 46.99772, "longitude": 36.4899, "city": "Prymors\u2019k", "images": []}, {"id": 495183, "min_date": "2022-03-13T10:41:00Z", "max_date": "2022-03-13T10:41:00Z", "count_points": 1, "latitude": 47.17715, "longitude": 36.24305, "city": "Chernihivka", "images": []}, {"id": 495184, "min_date": "2022-03-13T10:41:00Z", "max_date": "2022-03-13T10:41:00Z", "count_points": 2, "latitude": 47.26301, "longitude": 36.17921, "city": "Chernihivka", "images": []}, {"id": 495185, "min_date": "2022-03-13T10:41:00Z", "max_date": "2022-03-13T09:49:00Z", "count_points": 4, "latitude": 47.50156, "longitude": 36.10404, "city": "Polohy", "images": []}, {"id": 495186, "min_date": "2022-03-13T10:41:00Z", "max_date": "2022-03-13T09:49:00Z", "count_points": 4, "latitude": 47.50996, "longitude": 35.80638, "city": "Orikhiv", "images": []}, {"id": 495187, "min_date": "2022-03-13T10:41:00Z", "max_date": "2022-03-13T10:41:00Z", "count_points": 2, "latitude": 47.63426, "longitude": 36.69184, "city": "Velyka Novosilka", "images": []}, {"id": 495188, "min_date": "2022-03-13T10:41:00Z", "max_date": "2022-03-13T08:26:00Z", "count_points": 5, "latitude": 47.77021, "longitude": 37.59196, "city": "Dokuchayevs\u2019k", "images": []}, {"id": 495189, "min_date": "2022-03-13T10:41:00Z", "max_date": "2022-03-13T10:41:00Z", "count_points": 1, "latitude": 47.83711, "longitude": 37.47212, "city": "Mareyka", "images": []}, {"id": 495190, "min_date": "2022-03-13T10:41:00Z", "max_date": "2022-03-13T10:41:00Z", "count_points": 1, "latitude": 47.96074, "longitude": 37.10736, "city": "Kurakhovo", "images": []}, {"id": 495191, "min_date": "2022-03-13T10:41:00Z", "max_date": "2022-03-13T10:41:00Z", "count_points": 1, "latitude": 48.44076, "longitude": 39.75773, "city": "Uralo-Kavkaz", "images": []}, {"id": 495192, "min_date": "2022-03-13T10:41:00Z", "max_date": "2022-03-13T10:41:00Z", "count_points": 1, "latitude": 49.16696, "longitude": 39.30148, "city": "Bilovods'k", "images": []}, {"id": 495193, "min_date": "2022-03-13T10:41:00Z", "max_date": "2022-03-13T10:41:00Z", "count_points": 1, "latitude": 49.1207, "longitude": 37.29748, "city": "Izyum", "images": []}, {"id": 495195, "min_date": "2022-03-13T08:28:00Z", "max_date": "2022-03-13T08:28:00Z", "count_points": 1, "latitude": 47.10036, "longitude": 37.79191, "city": "Sartana", "images": []}, {"id": 495196, "min_date": "2022-03-13T10:19:00Z", "max_date": "2022-03-13T09:49:00Z", "count_points": 2, "latitude": 47.07549, "longitude": 36.59208, "city": "Komysh-Zorya", "images": []}, {"id": 495197, "min_date": "2022-03-08T23:37:00Z", "max_date": "2022-03-08T23:37:00Z", "count_points": 1, "latitude": 49.18816, "longitude": 37.28033, "city": "Izyum", "images": []}, {"id": 495198, "min_date": "2022-03-09T09:24:00Z", "max_date": "2022-03-09T09:24:00Z", "count_points": 1, "latitude": 47.59002, "longitude": 37.47364, "city": "Volnovakha", "images": []}, {"id": 495199, "min_date": "2022-03-09T09:24:00Z", "max_date": "2022-03-09T09:24:00Z", "count_points": 1, "latitude": 47.06678, "longitude": 37.49349, "city": "Mariupol", "images": []}, {"id": 495200, "min_date": "2022-03-12T10:08:00Z", "max_date": "2022-03-12T10:08:00Z", "count_points": 1, "latitude": 46.81255, "longitude": 35.83529, "city": "Novovasylivka", "images": []}, {"id": 495201, "min_date": "2022-03-12T10:08:00Z", "max_date": "2022-03-12T10:08:00Z", "count_points": 2, "latitude": 47.06333, "longitude": 35.55374, "city": "Terpinnya", "images": []}, {"id": 495202, "min_date": "2022-03-12T10:08:00Z", "max_date": "2022-03-12T10:08:00Z", "count_points": 2, "latitude": 47.70499, "longitude": 38.07964, "city": "Starobesheve", "images": []}, {"id": 495203, "min_date": "2022-03-13T09:49:00Z", "max_date": "2022-03-13T09:49:00Z", "count_points": 3, "latitude": 47.48337, "longitude": 35.82649, "city": "Mala Tokmachka", "images": []}, {"id": 495205, "min_date": "2022-03-13T11:30:00Z", "max_date": "2022-03-13T11:30:00Z", "count_points": 4, "latitude": 47.93386, "longitude": 37.71795, "city": "Donetsk", "images": []}, {"id": 495206, "min_date": "2022-03-13T11:30:00Z", "max_date": "2022-03-13T11:30:00Z", "count_points": 4, "latitude": 47.8662, "longitude": 37.67287, "city": "Dokuchayevs\u2019k", "images": []}, {"id": 495207, "min_date": "2022-03-13T11:30:00Z", "max_date": "2022-03-13T11:30:00Z", "count_points": 1, "latitude": 47.92547, "longitude": 37.54229, "city": "Mareyka", "images": []}, {"id": 495208, "min_date": "2022-03-13T23:44:00Z", "max_date": "2022-03-13T23:44:00Z", "count_points": 1, "latitude": 47.10126, "longitude": 37.66278, "city": "Sartana", "images": []}, {"id": 494450, "min_date": "2022-03-11T10:28:00Z", "max_date": "2022-03-12T10:57:00Z", "count_points": 2, "latitude": 49.29854, "longitude": 24.8706, "city": "Bilshivtsi", "images": []}, {"id": 495166, "min_date": "2022-03-09T22:29:00Z", "max_date": "2022-03-13T23:44:00Z", "count_points": 15, "latitude": 50.05396, "longitude": 36.35845, "city": "Kulynychi", "images": []}, {"id": 495194, "min_date": "2022-03-13T08:26:00Z", "max_date": "2022-03-13T08:26:00Z", "count_points": 2, "latitude": 47.77213, "longitude": 36.94228, "city": "Velyka Novosilka", "images": []}, {"id": 495204, "min_date": "2022-03-13T09:49:00Z", "max_date": "2022-03-13T09:49:00Z", "count_points": 1, "latitude": 48.70212, "longitude": 38.585, "city": "Toshkivka", "images": []}]