[{"id": 500330, "min_date": "2023-09-07T11:00:00Z", "max_date": "2023-09-07T11:00:00Z", "count_points": 1, "latitude": 48.85318, "longitude": 25.85995, "city": "Tovste", "images": []}, {"id": 500006, "min_date": "2023-09-07T00:24:00Z", "max_date": "2023-09-07T10:58:00Z", "count_points": 20, "latitude": 46.2143, "longitude": 33.20133, "city": "Kalanchak", "images": []}, {"id": 500007, "min_date": "2023-09-07T00:24:00Z", "max_date": "2023-09-10T23:58:00Z", "count_points": 37, "latitude": 45.37485, "longitude": 30.92901, "city": "Zatoka", "images": []}, {"id": 500008, "min_date": "2023-09-07T08:24:00Z", "max_date": "2023-09-07T08:24:00Z", "count_points": 1, "latitude": 51.94183, "longitude": 34.08497, "city": "Chervone", "images": []}, {"id": 500009, "min_date": "2023-09-07T08:24:00Z", "max_date": "2023-09-07T08:24:00Z", "count_points": 1, "latitude": 51.57625, "longitude": 31.42812, "city": "Sedniv", "images": []}, {"id": 500010, "min_date": "2023-09-07T08:24:00Z", "max_date": "2023-09-07T08:24:00Z", "count_points": 1, "latitude": 50.45687, "longitude": 34.11887, "city": "Hadyach", "images": []}, {"id": 500011, "min_date": "2023-09-07T08:26:00Z", "max_date": "2023-09-07T08:26:00Z", "count_points": 1, "latitude": 49.47068, "longitude": 33.54361, "city": "Hlobyne", "images": []}, {"id": 500012, "min_date": "2023-09-07T08:26:00Z", "max_date": "2023-09-07T10:09:00Z", "count_points": 2, "latitude": 47.29333, "longitude": 33.33989, "city": "Velyka Oleksandrivka", "images": []}, {"id": 500013, "min_date": "2023-09-07T08:26:00Z", "max_date": "2023-09-10T10:02:00Z", "count_points": 22, "latitude": 47.11148, "longitude": 33.37525, "city": "Velyka Oleksandrivka", "images": []}, {"id": 500014, "min_date": "2023-09-07T08:26:00Z", "max_date": "2023-09-07T10:58:00Z", "count_points": 10, "latitude": 46.8617, "longitude": 33.43699, "city": "Beryslav", "images": []}, {"id": 500015, "min_date": "2023-09-07T08:26:00Z", "max_date": "2023-09-07T10:58:00Z", "count_points": 10, "latitude": 46.89115, "longitude": 32.80317, "city": "Oleksandrivka", "images": []}, {"id": 500016, "min_date": "2023-09-07T08:26:00Z", "max_date": "2023-09-07T08:26:00Z", "count_points": 1, "latitude": 46.86908, "longitude": 32.84367, "city": "Oleksandrivka", "images": []}, {"id": 500017, "min_date": "2023-09-07T08:26:00Z", "max_date": "2023-09-08T10:41:00Z", "count_points": 20, "latitude": 46.69221, "longitude": 33.0258, "city": "Kozachi Laheri", "images": []}, {"id": 500018, "min_date": "2023-09-07T08:26:00Z", "max_date": "2023-09-07T09:17:00Z", "count_points": 4, "latitude": 46.40945, "longitude": 34.56423, "city": "Novooleksiyivka", "images": []}, {"id": 500019, "min_date": "2023-09-07T08:26:00Z", "max_date": "2023-09-07T23:14:00Z", "count_points": 8, "latitude": 46.64246, "longitude": 32.07834, "city": "Stanislav", "images": []}, {"id": 500020, "min_date": "2023-09-07T08:26:00Z", "max_date": "2023-09-09T10:21:00Z", "count_points": 5, "latitude": 46.66408, "longitude": 32.21775, "city": "Stanislav", "images": []}, {"id": 500021, "min_date": "2023-09-07T08:26:00Z", "max_date": "2023-09-07T08:26:00Z", "count_points": 1, "latitude": 46.23758, "longitude": 34.81592, "city": "Heniches\u2019k", "images": []}, {"id": 500022, "min_date": "2023-09-07T08:26:00Z", "max_date": "2023-09-09T10:19:00Z", "count_points": 29, "latitude": 46.43416, "longitude": 33.00621, "city": "Velyki Kopani", "images": []}, {"id": 500023, "min_date": "2023-09-07T08:26:00Z", "max_date": "2023-09-07T10:58:00Z", "count_points": 6, "latitude": 46.49522, "longitude": 32.58805, "city": "Hola Prystan\u2019", "images": []}, {"id": 500024, "min_date": "2023-09-07T08:26:00Z", "max_date": "2023-09-08T10:41:00Z", "count_points": 31, "latitude": 46.48063, "longitude": 32.4573, "city": "Hola Prystan\u2019", "images": []}, {"id": 500025, "min_date": "2023-09-07T08:26:00Z", "max_date": "2023-09-07T10:58:00Z", "count_points": 3, "latitude": 46.35348, "longitude": 32.74348, "city": "Vynohradove", "images": []}, {"id": 500026, "min_date": "2023-09-07T11:32:00Z", "max_date": "2023-09-07T10:09:00Z", "count_points": 4, "latitude": 46.25508, "longitude": 32.43483, "city": "Chulakivka", "images": []}, {"id": 500027, "min_date": "2023-09-07T11:32:00Z", "max_date": "2023-09-07T11:32:00Z", "count_points": 1, "latitude": 46.23866, "longitude": 32.14739, "city": "Bekhtery", "images": []}, {"id": 500028, "min_date": "2023-09-07T11:32:00Z", "max_date": "2023-09-07T11:32:00Z", "count_points": 1, "latitude": 46.05157, "longitude": 30.20839, "city": "Serhiyivka", "images": []}, {"id": 500029, "min_date": "2023-09-07T11:32:00Z", "max_date": "2023-09-07T10:58:00Z", "count_points": 17, "latitude": 46.59905, "longitude": 34.74241, "city": "Ivanivka", "images": []}, {"id": 500030, "min_date": "2023-09-07T11:32:00Z", "max_date": "2023-09-08T00:54:00Z", "count_points": 26, "latitude": 46.68121, "longitude": 33.11466, "city": "Nova Mayachka", "images": []}, {"id": 500031, "min_date": "2023-09-07T11:32:00Z", "max_date": "2023-09-07T11:32:00Z", "count_points": 1, "latitude": 47.09229, "longitude": 33.14983, "city": "Velyka Oleksandrivka", "images": []}, {"id": 500032, "min_date": "2023-09-07T11:32:00Z", "max_date": "2023-09-07T10:58:00Z", "count_points": 5, "latitude": 47.51596, "longitude": 30.8829, "city": "Mykolayivka", "images": []}, {"id": 500033, "min_date": "2023-09-07T11:32:00Z", "max_date": "2023-09-07T11:32:00Z", "count_points": 1, "latitude": 49.94472, "longitude": 26.59596, "city": "Lyakhovtsy", "images": []}, {"id": 500034, "min_date": "2023-09-07T11:32:00Z", "max_date": "2023-09-07T09:20:00Z", "count_points": 2, "latitude": 50.38527, "longitude": 28.45837, "city": "Denyshi", "images": []}, {"id": 500035, "min_date": "2023-09-07T11:32:00Z", "max_date": "2023-09-07T11:32:00Z", "count_points": 1, "latitude": 50.39238, "longitude": 28.31661, "city": "Pulyny", "images": []}, {"id": 500036, "min_date": "2023-09-07T11:32:00Z", "max_date": "2023-09-07T11:32:00Z", "count_points": 1, "latitude": 50.42766, "longitude": 27.10282, "city": "Korets", "images": []}, {"id": 500037, "min_date": "2023-09-07T11:32:00Z", "max_date": "2023-09-07T11:32:00Z", "count_points": 1, "latitude": 50.50988, "longitude": 25.13069, "city": "Berestechko", "images": []}, {"id": 500038, "min_date": "2023-09-07T11:32:00Z", "max_date": "2023-09-07T11:32:00Z", "count_points": 2, "latitude": 51.41443, "longitude": 27.03308, "city": "Rokytne", "images": []}, {"id": 500039, "min_date": "2023-09-07T19:34:00Z", "max_date": "2023-09-10T10:02:00Z", "count_points": 43, "latitude": 46.7108, "longitude": 33.17799, "city": "Dnipryany", "images": []}, {"id": 500040, "min_date": "2023-09-07T19:34:00Z", "max_date": "2023-09-09T10:21:00Z", "count_points": 73, "latitude": 47.05919, "longitude": 31.58622, "city": "Ol'shanskoye", "images": []}, {"id": 500041, "min_date": "2023-09-08T07:29:00Z", "max_date": "2023-09-10T10:02:00Z", "count_points": 2, "latitude": 47.31681, "longitude": 33.32301, "city": "Velyka Oleksandrivka", "images": []}, {"id": 500042, "min_date": "2023-09-08T07:29:00Z", "max_date": "2023-09-08T10:41:00Z", "count_points": 25, "latitude": 47.13458, "longitude": 33.61375, "city": "Dudchany", "images": []}, {"id": 500043, "min_date": "2023-09-08T07:29:00Z", "max_date": "2023-09-08T00:03:00Z", "count_points": 4, "latitude": 46.74453, "longitude": 32.42102, "city": "Bilozerka", "images": []}, {"id": 500044, "min_date": "2023-09-08T09:07:00Z", "max_date": "2023-09-08T10:41:00Z", "count_points": 12, "latitude": 49.5845, "longitude": 31.26605, "city": "Korsun-Shevchenkivskyi", "images": []}, {"id": 500045, "min_date": "2023-09-08T09:07:00Z", "max_date": "2023-09-08T10:41:00Z", "count_points": 9, "latitude": 48.16776, "longitude": 30.99212, "city": "Lysa Hora", "images": []}, {"id": 500046, "min_date": "2023-09-08T09:07:00Z", "max_date": "2023-09-08T10:41:00Z", "count_points": 13, "latitude": 47.28849, "longitude": 34.39006, "city": "Verkhniy Rohachyk", "images": []}, {"id": 500047, "min_date": "2023-09-08T09:07:00Z", "max_date": "2023-09-08T10:41:00Z", "count_points": 3, "latitude": 47.10056, "longitude": 33.65142, "city": "Hornostayivka", "images": []}, {"id": 500048, "min_date": "2023-09-08T09:07:00Z", "max_date": "2023-09-08T10:41:00Z", "count_points": 4, "latitude": 46.58687, "longitude": 34.59028, "city": "Ivanivka", "images": []}, {"id": 500049, "min_date": "2023-09-08T09:07:00Z", "max_date": "2023-09-08T10:41:00Z", "count_points": 11, "latitude": 46.82781, "longitude": 33.1477, "city": "Dnipryany", "images": []}, {"id": 500050, "min_date": "2023-09-08T10:34:00Z", "max_date": "2023-09-08T10:41:00Z", "count_points": 10, "latitude": 44.83721, "longitude": 33.93582, "city": "Pochtovoye", "images": []}, {"id": 500051, "min_date": "2023-09-08T10:34:00Z", "max_date": "2023-09-08T10:41:00Z", "count_points": 5, "latitude": 46.82703, "longitude": 34.6676, "city": "Ivanivka", "images": []}, {"id": 500052, "min_date": "2023-09-08T10:34:00Z", "max_date": "2023-09-08T10:41:00Z", "count_points": 18, "latitude": 46.83671, "longitude": 34.57622, "city": "Ivanivka", "images": []}, {"id": 500053, "min_date": "2023-09-08T10:34:00Z", "max_date": "2023-09-08T10:41:00Z", "count_points": 11, "latitude": 46.81454, "longitude": 34.03391, "city": "Kayiry", "images": []}, {"id": 500054, "min_date": "2023-09-08T10:34:00Z", "max_date": "2023-09-08T10:41:00Z", "count_points": 3, "latitude": 46.88061, "longitude": 33.51744, "city": "Kakhovka", "images": []}, {"id": 500055, "min_date": "2023-09-08T10:34:00Z", "max_date": "2023-09-08T10:41:00Z", "count_points": 11, "latitude": 46.63176, "longitude": 32.35117, "city": "Bilozerka", "images": []}, {"id": 500056, "min_date": "2023-09-08T10:34:00Z", "max_date": "2023-09-10T00:16:00Z", "count_points": 8, "latitude": 46.85113, "longitude": 33.285, "city": "Dnipryany", "images": []}, {"id": 500057, "min_date": "2023-09-08T10:34:00Z", "max_date": "2023-09-08T22:54:00Z", "count_points": 6, "latitude": 47.25039, "longitude": 34.50352, "city": "Verkhniy Rohachyk", "images": []}, {"id": 500058, "min_date": "2023-09-08T10:34:00Z", "max_date": "2023-09-09T10:21:00Z", "count_points": 5, "latitude": 47.35319, "longitude": 34.24756, "city": "Verkhniy Rohachyk", "images": []}, {"id": 500059, "min_date": "2023-09-08T10:34:00Z", "max_date": "2023-09-08T10:41:00Z", "count_points": 4, "latitude": 47.41608, "longitude": 33.68518, "city": "Vysokopillya", "images": []}, {"id": 500060, "min_date": "2023-09-08T10:34:00Z", "max_date": "2023-09-08T10:41:00Z", "count_points": 7, "latitude": 48.25968, "longitude": 32.31164, "city": "Kompaniyivka", "images": []}, {"id": 500061, "min_date": "2023-09-08T10:36:00Z", "max_date": "2023-09-08T10:36:00Z", "count_points": 1, "latitude": 52.12223, "longitude": 33.95732, "city": "Druzhba", "images": []}, {"id": 500062, "min_date": "2023-09-08T12:12:00Z", "max_date": "2023-09-08T12:12:00Z", "count_points": 1, "latitude": 46.09547, "longitude": 29.45217, "city": "Artsyz", "images": []}, {"id": 500063, "min_date": "2023-09-08T12:14:00Z", "max_date": "2023-09-08T10:41:00Z", "count_points": 6, "latitude": 49.45398, "longitude": 29.034, "city": "Lypovets", "images": []}, {"id": 500064, "min_date": "2023-09-09T08:09:00Z", "max_date": "2023-09-10T11:45:00Z", "count_points": 4, "latitude": 47.11479, "longitude": 34.22369, "city": "Verkhniy Rohachyk", "images": []}, {"id": 500065, "min_date": "2023-09-09T08:09:00Z", "max_date": "2023-09-09T10:21:00Z", "count_points": 2, "latitude": 47.18514, "longitude": 33.03499, "city": "Bereznehuvate", "images": []}, {"id": 500066, "min_date": "2023-09-09T08:09:00Z", "max_date": "2023-09-09T08:09:00Z", "count_points": 1, "latitude": 46.86193, "longitude": 34.40536, "city": "Nyzhni Sirohozy", "images": []}, {"id": 500067, "min_date": "2023-09-09T08:09:00Z", "max_date": "2023-09-09T08:09:00Z", "count_points": 2, "latitude": 47.26328, "longitude": 29.91215, "city": "Zatyshshya", "images": []}, {"id": 500068, "min_date": "2023-09-09T08:09:00Z", "max_date": "2023-09-10T11:45:00Z", "count_points": 2, "latitude": 46.76751, "longitude": 34.47202, "city": "Ivanivka", "images": []}, {"id": 500069, "min_date": "2023-09-09T08:09:00Z", "max_date": "2023-09-10T10:02:00Z", "count_points": 29, "latitude": 46.63745, "longitude": 33.87445, "city": "Askaniya-Nova", "images": []}, {"id": 500070, "min_date": "2023-09-09T08:09:00Z", "max_date": "2023-09-09T10:21:00Z", "count_points": 5, "latitude": 46.70134, "longitude": 32.48873, "city": "Chornobayivka", "images": []}, {"id": 500071, "min_date": "2023-09-09T08:09:00Z", "max_date": "2023-09-09T10:21:00Z", "count_points": 8, "latitude": 46.54181, "longitude": 32.88665, "city": "Radens\u2019k", "images": []}, {"id": 500072, "min_date": "2023-09-09T08:09:00Z", "max_date": "2023-09-09T10:19:00Z", "count_points": 8, "latitude": 46.33805, "longitude": 34.63271, "city": "Partyzany", "images": []}, {"id": 500073, "min_date": "2023-09-09T08:09:00Z", "max_date": "2023-09-09T10:19:00Z", "count_points": 9, "latitude": 46.45542, "longitude": 32.84234, "city": "Vynohradove", "images": []}, {"id": 500074, "min_date": "2023-09-09T08:09:00Z", "max_date": "2023-09-09T10:21:00Z", "count_points": 5, "latitude": 46.34872, "longitude": 29.31583, "city": "Borodino", "images": []}, {"id": 500075, "min_date": "2023-09-09T08:09:00Z", "max_date": "2023-09-09T08:09:00Z", "count_points": 1, "latitude": 44.94808, "longitude": 34.01773, "city": "Dubki", "images": []}, {"id": 500076, "min_date": "2023-09-09T08:09:00Z", "max_date": "2023-09-07T11:00:00Z", "count_points": 5, "latitude": 49.09137, "longitude": 26.81885, "city": "Yarmolyntsi", "images": []}, {"id": 500077, "min_date": "2023-09-09T11:17:00Z", "max_date": "2023-09-09T11:13:00Z", "count_points": 2, "latitude": 46.21738, "longitude": 32.56945, "city": "Lazurne", "images": []}, {"id": 500078, "min_date": "2023-09-09T11:17:00Z", "max_date": "2023-09-09T10:21:00Z", "count_points": 10, "latitude": 45.95209, "longitude": 30.11865, "city": "Kulevcha", "images": []}, {"id": 500079, "min_date": "2023-09-09T11:17:00Z", "max_date": "2023-09-09T11:13:00Z", "count_points": 3, "latitude": 46.78686, "longitude": 32.94409, "city": "Kozachi Laheri", "images": []}, {"id": 500080, "min_date": "2023-09-09T11:17:00Z", "max_date": "2023-09-08T10:41:00Z", "count_points": 8, "latitude": 47.04476, "longitude": 34.43437, "city": "Nyzhni Sirohozy", "images": []}, {"id": 500081, "min_date": "2023-09-09T11:17:00Z", "max_date": "2023-09-09T12:02:00Z", "count_points": 3, "latitude": 46.35478, "longitude": 29.18001, "city": "Borodino", "images": []}, {"id": 500082, "min_date": "2023-09-09T11:17:00Z", "max_date": "2023-09-09T10:21:00Z", "count_points": 7, "latitude": 46.88739, "longitude": 32.3997, "city": "Shevchenkove", "images": []}, {"id": 500083, "min_date": "2023-09-09T11:17:00Z", "max_date": "2023-09-09T10:21:00Z", "count_points": 2, "latitude": 47.12094, "longitude": 33.9771, "city": "Velyka Lepetykha", "images": []}, {"id": 500084, "min_date": "2023-09-09T11:17:00Z", "max_date": "2023-09-09T10:21:00Z", "count_points": 6, "latitude": 47.3671, "longitude": 34.18301, "city": "Verkhniy Rohachyk", "images": []}, {"id": 500085, "min_date": "2023-09-09T11:17:00Z", "max_date": "2023-09-09T10:21:00Z", "count_points": 3, "latitude": 47.03937, "longitude": 30.74699, "city": "Kurisove", "images": []}, {"id": 500086, "min_date": "2023-09-09T11:17:00Z", "max_date": "2023-09-09T10:21:00Z", "count_points": 7, "latitude": 47.03394, "longitude": 29.65591, "city": "Velykoploske", "images": []}, {"id": 500087, "min_date": "2023-09-09T11:17:00Z", "max_date": "2023-09-10T11:45:00Z", "count_points": 29, "latitude": 47.25457, "longitude": 30.07896, "city": "Shyryayeve", "images": []}, {"id": 500088, "min_date": "2023-09-09T11:17:00Z", "max_date": "2023-09-09T10:21:00Z", "count_points": 6, "latitude": 47.87112, "longitude": 32.7823, "city": "Kazanka", "images": []}, {"id": 500089, "min_date": "2023-09-09T11:17:00Z", "max_date": "2023-09-09T11:10:00Z", "count_points": 2, "latitude": 48.37671, "longitude": 33.72828, "city": "Piatykhatky", "images": []}, {"id": 500090, "min_date": "2023-09-09T11:17:00Z", "max_date": "2023-09-09T10:21:00Z", "count_points": 3, "latitude": 49.09152, "longitude": 34.12645, "city": "Kobelyaky", "images": []}, {"id": 500091, "min_date": "2023-09-09T11:17:00Z", "max_date": "2023-09-09T10:21:00Z", "count_points": 4, "latitude": 49.06155, "longitude": 33.27945, "city": "Svitlovods\u2019k", "images": []}, {"id": 500092, "min_date": "2023-09-09T11:17:00Z", "max_date": "2023-09-09T10:21:00Z", "count_points": 5, "latitude": 49.58605, "longitude": 33.34304, "city": "Semenivka", "images": []}, {"id": 500093, "min_date": "2023-09-09T11:17:00Z", "max_date": "2023-09-09T12:02:00Z", "count_points": 11, "latitude": 50.01702, "longitude": 28.97667, "city": "Andrushivka", "images": []}, {"id": 500094, "min_date": "2023-09-09T11:17:00Z", "max_date": "2023-09-09T11:17:00Z", "count_points": 1, "latitude": 50.70358, "longitude": 34.04193, "city": "Nedryhayliv", "images": []}, {"id": 500095, "min_date": "2023-09-09T11:17:00Z", "max_date": "2023-09-09T11:17:00Z", "count_points": 1, "latitude": 50.08855, "longitude": 28.83924, "city": "Ozerne", "images": []}, {"id": 500096, "min_date": "2023-09-09T11:17:00Z", "max_date": "2023-09-09T12:04:00Z", "count_points": 6, "latitude": 50.61095, "longitude": 26.84516, "city": "Velyki Mezhyrichi", "images": []}, {"id": 500097, "min_date": "2023-09-09T11:17:00Z", "max_date": "2023-09-09T12:04:00Z", "count_points": 4, "latitude": 51.43226, "longitude": 31.18601, "city": "Chernihiv", "images": []}, {"id": 500098, "min_date": "2023-09-09T11:19:00Z", "max_date": "2023-09-09T11:19:00Z", "count_points": 1, "latitude": 51.71243, "longitude": 30.84379, "city": "Lyubech", "images": []}, {"id": 500099, "min_date": "2023-09-09T11:19:00Z", "max_date": "2023-09-09T11:19:00Z", "count_points": 1, "latitude": 51.49077, "longitude": 27.56969, "city": "Olevs\u2019k", "images": []}, {"id": 500100, "min_date": "2023-09-09T19:17:00Z", "max_date": "2023-09-10T23:58:00Z", "count_points": 60, "latitude": 46.4729, "longitude": 32.77429, "city": "Tsyurupyns\u2019k", "images": []}, {"id": 500101, "min_date": "2023-09-09T19:17:00Z", "max_date": "2023-09-10T23:58:00Z", "count_points": 74, "latitude": 46.64763, "longitude": 33.185, "city": "Nova Mayachka", "images": []}, {"id": 500102, "min_date": "2023-09-10T00:50:00Z", "max_date": "2023-09-10T00:16:00Z", "count_points": 3, "latitude": 49.52661, "longitude": 25.60451, "city": "Petrikov", "images": []}, {"id": 500103, "min_date": "2023-09-10T00:50:00Z", "max_date": "2023-09-10T23:58:00Z", "count_points": 21, "latitude": 49.62515, "longitude": 30.65426, "city": "Karapyshi", "images": []}, {"id": 500104, "min_date": "2023-09-10T08:50:00Z", "max_date": "2023-09-10T10:04:00Z", "count_points": 4, "latitude": 49.05063, "longitude": 29.07896, "city": "Illintsi", "images": []}, {"id": 500105, "min_date": "2023-09-10T08:50:00Z", "max_date": "2023-09-10T10:02:00Z", "count_points": 5, "latitude": 47.4095, "longitude": 34.6269, "city": "Dniprovka", "images": []}, {"id": 500106, "min_date": "2023-09-10T08:50:00Z", "max_date": "2023-09-10T11:45:00Z", "count_points": 12, "latitude": 47.18562, "longitude": 34.18639, "city": "Verkhniy Rohachyk", "images": []}, {"id": 500107, "min_date": "2023-09-10T08:50:00Z", "max_date": "2023-09-10T08:50:00Z", "count_points": 1, "latitude": 46.57908, "longitude": 34.62726, "city": "Ivanivka", "images": []}, {"id": 500108, "min_date": "2023-09-10T08:52:00Z", "max_date": "2023-09-10T10:02:00Z", "count_points": 7, "latitude": 46.64243, "longitude": 32.48124, "city": "Komyshany", "images": []}, {"id": 500109, "min_date": "2023-09-10T08:52:00Z", "max_date": "2023-09-10T23:58:00Z", "count_points": 29, "latitude": 46.4454, "longitude": 32.51916, "city": "Hola Prystan\u2019", "images": []}, {"id": 500110, "min_date": "2023-09-10T08:52:00Z", "max_date": "2023-09-10T11:45:00Z", "count_points": 19, "latitude": 46.43566, "longitude": 32.37406, "city": "Chulakivka", "images": []}, {"id": 500111, "min_date": "2023-09-10T08:52:00Z", "max_date": "2023-09-10T11:42:00Z", "count_points": 27, "latitude": 46.19002, "longitude": 33.12864, "city": "Kalanchak", "images": []}, {"id": 500112, "min_date": "2023-09-10T10:19:00Z", "max_date": "2023-09-10T10:02:00Z", "count_points": 7, "latitude": 46.69604, "longitude": 33.97237, "city": "Askaniya-Nova", "images": []}, {"id": 500113, "min_date": "2023-09-10T10:19:00Z", "max_date": "2023-09-10T11:45:00Z", "count_points": 22, "latitude": 46.96147, "longitude": 34.34855, "city": "Nyzhni Sirohozy", "images": []}, {"id": 500114, "min_date": "2023-09-10T10:19:00Z", "max_date": "2023-09-10T10:02:00Z", "count_points": 4, "latitude": 47.23611, "longitude": 34.19031, "city": "Verkhniy Rohachyk", "images": []}, {"id": 500115, "min_date": "2023-09-10T10:19:00Z", "max_date": "2023-09-10T11:45:00Z", "count_points": 20, "latitude": 47.38556, "longitude": 34.50846, "city": "Vodyane", "images": []}, {"id": 500116, "min_date": "2023-09-10T10:21:00Z", "max_date": "2023-09-10T10:21:00Z", "count_points": 2, "latitude": 47.97486, "longitude": 30.80859, "city": "Pervomays\u2019k", "images": []}, {"id": 500117, "min_date": "2023-09-10T10:21:00Z", "max_date": "2023-09-10T10:21:00Z", "count_points": 1, "latitude": 47.96531, "longitude": 30.77127, "city": "Pervomays\u2019k", "images": []}, {"id": 500118, "min_date": "2023-09-10T12:00:00Z", "max_date": "2023-09-10T12:00:00Z", "count_points": 1, "latitude": 46.48163, "longitude": 33.24926, "city": "Brylivka", "images": []}, {"id": 500119, "min_date": "2023-09-10T12:00:00Z", "max_date": "2023-09-10T11:45:00Z", "count_points": 11, "latitude": 46.54958, "longitude": 34.81867, "city": "Partyzany", "images": []}, {"id": 500120, "min_date": "2023-09-10T12:00:00Z", "max_date": "2023-09-10T11:45:00Z", "count_points": 3, "latitude": 46.73794, "longitude": 34.10972, "city": "Nyzhni Sirohozy", "images": []}, {"id": 500121, "min_date": "2023-09-07T00:22:00Z", "max_date": "2023-09-07T00:22:00Z", "count_points": 1, "latitude": 52.10064, "longitude": 33.88533, "city": "Druzhba", "images": []}, {"id": 500122, "min_date": "2023-09-07T00:22:00Z", "max_date": "2023-09-07T01:11:00Z", "count_points": 2, "latitude": 49.04288, "longitude": 29.73748, "city": "Monastyryshche", "images": []}, {"id": 500123, "min_date": "2023-09-07T00:22:00Z", "max_date": "2023-09-07T00:22:00Z", "count_points": 1, "latitude": 47.68182, "longitude": 33.82095, "city": "Apostolove", "images": []}, {"id": 500124, "min_date": "2023-09-07T00:22:00Z", "max_date": "2023-09-08T10:41:00Z", "count_points": 11, "latitude": 47.09587, "longitude": 32.97353, "city": "Snihurivka", "images": []}, {"id": 500125, "min_date": "2023-09-07T00:22:00Z", "max_date": "2023-09-07T00:22:00Z", "count_points": 1, "latitude": 47.22634, "longitude": 32.2284, "city": "Bashtanka", "images": []}, {"id": 500126, "min_date": "2023-09-07T00:24:00Z", "max_date": "2023-09-07T00:24:00Z", "count_points": 1, "latitude": 46.65189, "longitude": 32.8932, "city": "Kozachi Laheri", "images": []}, {"id": 500127, "min_date": "2023-09-07T00:24:00Z", "max_date": "2023-09-07T00:24:00Z", "count_points": 1, "latitude": 46.69744, "longitude": 32.61898, "city": "Kherson", "images": []}, {"id": 500128, "min_date": "2023-09-07T00:24:00Z", "max_date": "2023-09-07T00:24:00Z", "count_points": 1, "latitude": 47.19753, "longitude": 30.18307, "city": "Shyryayeve", "images": []}, {"id": 500129, "min_date": "2023-09-07T10:09:00Z", "max_date": "2023-09-07T10:09:00Z", "count_points": 1, "latitude": 46.31453, "longitude": 34.96464, "city": "Partyzany", "images": []}, {"id": 500130, "min_date": "2023-09-07T10:09:00Z", "max_date": "2023-09-07T10:58:00Z", "count_points": 3, "latitude": 47.03954, "longitude": 34.61363, "city": "Velyka Bilozerka", "images": []}, {"id": 500131, "min_date": "2023-09-07T10:09:00Z", "max_date": "2023-09-07T10:58:00Z", "count_points": 3, "latitude": 47.00834, "longitude": 34.27684, "city": "Nyzhni Sirohozy", "images": []}, {"id": 500132, "min_date": "2023-09-07T10:09:00Z", "max_date": "2023-09-07T10:58:00Z", "count_points": 2, "latitude": 46.5885, "longitude": 32.3029, "city": "Bilozerka", "images": []}, {"id": 500133, "min_date": "2023-09-07T10:09:00Z", "max_date": "2023-09-07T10:58:00Z", "count_points": 4, "latitude": 47.06985, "longitude": 34.47539, "city": "Verkhniy Rohachyk", "images": []}, {"id": 500134, "min_date": "2023-09-07T10:09:00Z", "max_date": "2023-09-07T10:09:00Z", "count_points": 2, "latitude": 46.09741, "longitude": 30.11447, "city": "Kulevcha", "images": []}, {"id": 500135, "min_date": "2023-09-07T10:09:00Z", "max_date": "2023-09-07T10:09:00Z", "count_points": 2, "latitude": 47.07975, "longitude": 34.3976, "city": "Verkhniy Rohachyk", "images": []}, {"id": 500136, "min_date": "2023-09-07T10:09:00Z", "max_date": "2023-09-07T10:58:00Z", "count_points": 3, "latitude": 47.14785, "longitude": 34.46391, "city": "Verkhniy Rohachyk", "images": []}, {"id": 500137, "min_date": "2023-09-07T10:09:00Z", "max_date": "2023-09-07T10:09:00Z", "count_points": 2, "latitude": 46.75019, "longitude": 32.47267, "city": "Chornobayivka", "images": []}, {"id": 500138, "min_date": "2023-09-07T10:09:00Z", "max_date": "2023-09-07T10:09:00Z", "count_points": 1, "latitude": 47.29068, "longitude": 34.78805, "city": "Velyka Bilozerka", "images": []}, {"id": 500139, "min_date": "2023-09-07T10:09:00Z", "max_date": "2023-09-07T10:09:00Z", "count_points": 1, "latitude": 47.19476, "longitude": 34.24174, "city": "Verkhniy Rohachyk", "images": []}, {"id": 500140, "min_date": "2023-09-07T10:09:00Z", "max_date": "2023-09-09T10:21:00Z", "count_points": 5, "latitude": 47.07114, "longitude": 32.87314, "city": "Snihurivka", "images": []}, {"id": 500141, "min_date": "2023-09-07T10:09:00Z", "max_date": "2023-09-07T10:09:00Z", "count_points": 1, "latitude": 47.18738, "longitude": 33.07826, "city": "Bereznehuvate", "images": []}, {"id": 500142, "min_date": "2023-09-07T10:09:00Z", "max_date": "2023-09-07T10:09:00Z", "count_points": 1, "latitude": 47.10308, "longitude": 32.59844, "city": "Snihurivka", "images": []}, {"id": 500143, "min_date": "2023-09-07T10:11:00Z", "max_date": "2023-09-07T10:58:00Z", "count_points": 4, "latitude": 47.46048, "longitude": 31.72248, "city": "Nova Odesa", "images": []}, {"id": 500144, "min_date": "2023-09-07T10:11:00Z", "max_date": "2023-09-07T10:11:00Z", "count_points": 1, "latitude": 48.2295, "longitude": 31.76737, "city": "Rivne", "images": []}, {"id": 500145, "min_date": "2023-09-07T10:11:00Z", "max_date": "2023-09-07T23:12:00Z", "count_points": 6, "latitude": 50.22753, "longitude": 33.39601, "city": "Sencha", "images": []}, {"id": 500146, "min_date": "2023-09-07T10:11:00Z", "max_date": "2023-09-07T10:11:00Z", "count_points": 2, "latitude": 50.54757, "longitude": 34.32666, "city": "Lebedyn", "images": []}, {"id": 500147, "min_date": "2023-09-07T10:11:00Z", "max_date": "2023-09-08T10:43:00Z", "count_points": 6, "latitude": 50.4769, "longitude": 27.22639, "city": "Korets", "images": []}, {"id": 500148, "min_date": "2023-09-07T11:49:00Z", "max_date": "2023-09-07T10:58:00Z", "count_points": 2, "latitude": 45.23598, "longitude": 33.87636, "city": "Krayneye", "images": []}, {"id": 500149, "min_date": "2023-09-07T11:49:00Z", "max_date": "2023-09-07T11:49:00Z", "count_points": 1, "latitude": 46.68675, "longitude": 32.71368, "city": "Tsyurupyns\u2019k", "images": []}, {"id": 500150, "min_date": "2023-09-07T11:49:00Z", "max_date": "2023-09-07T23:14:00Z", "count_points": 9, "latitude": 47.29161, "longitude": 33.22269, "city": "Velyka Oleksandrivka", "images": []}, {"id": 500151, "min_date": "2023-09-07T11:49:00Z", "max_date": "2023-09-07T11:49:00Z", "count_points": 1, "latitude": 47.50463, "longitude": 31.42252, "city": "Voznesensk", "images": []}, {"id": 500152, "min_date": "2023-09-07T11:49:00Z", "max_date": "2023-09-07T11:49:00Z", "count_points": 1, "latitude": 47.50818, "longitude": 33.52084, "city": "Vysokopillya", "images": []}, {"id": 500153, "min_date": "2023-09-07T11:49:00Z", "max_date": "2023-09-07T11:49:00Z", "count_points": 3, "latitude": 47.76912, "longitude": 33.72481, "city": "Apostolove", "images": []}, {"id": 500154, "min_date": "2023-09-07T11:49:00Z", "max_date": "2023-09-07T11:49:00Z", "count_points": 2, "latitude": 48.36253, "longitude": 22.55748, "city": "Strabychovo", "images": []}, {"id": 500155, "min_date": "2023-09-07T11:49:00Z", "max_date": "2023-09-07T11:49:00Z", "count_points": 1, "latitude": 50.7608, "longitude": 31.04429, "city": "Semypolky", "images": []}, {"id": 500156, "min_date": "2023-09-08T00:03:00Z", "max_date": "2023-09-08T00:54:00Z", "count_points": 2, "latitude": 50.7304, "longitude": 26.10842, "city": "Orzhiv", "images": []}, {"id": 500157, "min_date": "2023-09-08T00:03:00Z", "max_date": "2023-09-07T23:14:00Z", "count_points": 2, "latitude": 48.78212, "longitude": 33.98886, "city": "Lykhivka", "images": []}, {"id": 500158, "min_date": "2023-09-08T00:03:00Z", "max_date": "2023-09-08T10:41:00Z", "count_points": 2, "latitude": 47.43613, "longitude": 33.94069, "city": "Novovorontsovka", "images": []}, {"id": 500159, "min_date": "2023-09-08T00:03:00Z", "max_date": "2023-09-07T10:58:00Z", "count_points": 2, "latitude": 47.74313, "longitude": 30.05331, "city": "Ananyiv Pershyi", "images": []}, {"id": 500160, "min_date": "2023-09-08T00:03:00Z", "max_date": "2023-09-08T00:54:00Z", "count_points": 6, "latitude": 47.27687, "longitude": 32.57754, "city": "Bashtanka", "images": []}, {"id": 500161, "min_date": "2023-09-08T00:03:00Z", "max_date": "2023-09-08T10:41:00Z", "count_points": 8, "latitude": 47.06773, "longitude": 33.65769, "city": "Hornostayivka", "images": []}, {"id": 500162, "min_date": "2023-09-08T00:03:00Z", "max_date": "2023-09-07T23:14:00Z", "count_points": 2, "latitude": 46.7864, "longitude": 34.77586, "city": "Ivanivka", "images": []}, {"id": 500163, "min_date": "2023-09-08T00:03:00Z", "max_date": "2023-09-08T10:41:00Z", "count_points": 2, "latitude": 46.81933, "longitude": 34.41328, "city": "Nyzhni Sirohozy", "images": []}, {"id": 500164, "min_date": "2023-09-08T00:03:00Z", "max_date": "2023-09-08T00:03:00Z", "count_points": 1, "latitude": 46.74269, "longitude": 34.39044, "city": "Nyzhni Sirohozy", "images": []}, {"id": 500165, "min_date": "2023-09-08T00:03:00Z", "max_date": "2023-09-08T00:54:00Z", "count_points": 2, "latitude": 46.60559, "longitude": 33.9724, "city": "Askaniya-Nova", "images": []}, {"id": 500166, "min_date": "2023-09-08T00:03:00Z", "max_date": "2023-09-08T00:03:00Z", "count_points": 1, "latitude": 46.28701, "longitude": 34.55814, "city": "Novooleksiyivka", "images": []}, {"id": 500167, "min_date": "2023-09-08T00:03:00Z", "max_date": "2023-09-07T23:14:00Z", "count_points": 3, "latitude": 46.62023, "longitude": 32.64855, "city": "Kherson", "images": []}, {"id": 500168, "min_date": "2023-09-08T00:03:00Z", "max_date": "2023-09-10T00:16:00Z", "count_points": 23, "latitude": 46.04114, "longitude": 33.49792, "city": "Suvorovo", "images": []}, {"id": 500169, "min_date": "2023-09-08T00:03:00Z", "max_date": "2023-09-08T10:41:00Z", "count_points": 10, "latitude": 46.33145, "longitude": 30.53918, "city": "Oleksandrivka", "images": []}, {"id": 500170, "min_date": "2023-09-08T00:03:00Z", "max_date": "2023-09-08T00:03:00Z", "count_points": 1, "latitude": 46.23752, "longitude": 29.88945, "city": "Kamyshevka Vtoraya", "images": []}, {"id": 500171, "min_date": "2023-09-08T09:49:00Z", "max_date": "2023-09-08T10:41:00Z", "count_points": 3, "latitude": 46.16337, "longitude": 33.47334, "city": "Kalanchak", "images": []}, {"id": 500172, "min_date": "2023-09-08T09:49:00Z", "max_date": "2023-09-08T09:49:00Z", "count_points": 2, "latitude": 46.63771, "longitude": 34.3059, "city": "Nyzhni Sirohozy", "images": []}, {"id": 500173, "min_date": "2023-09-08T09:49:00Z", "max_date": "2023-09-08T09:49:00Z", "count_points": 1, "latitude": 46.92289, "longitude": 34.22487, "city": "Nyzhni Sirohozy", "images": []}, {"id": 500174, "min_date": "2023-09-08T09:49:00Z", "max_date": "2023-09-09T10:21:00Z", "count_points": 8, "latitude": 46.9473, "longitude": 33.30228, "city": "Beryslav", "images": []}, {"id": 500175, "min_date": "2023-09-08T09:49:00Z", "max_date": "2023-09-08T10:41:00Z", "count_points": 2, "latitude": 46.72071, "longitude": 32.23065, "city": "Shevchenkove", "images": []}, {"id": 500176, "min_date": "2023-09-08T09:49:00Z", "max_date": "2023-09-08T09:49:00Z", "count_points": 4, "latitude": 46.69973, "longitude": 32.00341, "city": "Parutyne", "images": []}, {"id": 500177, "min_date": "2023-09-08T09:49:00Z", "max_date": "2023-09-08T10:41:00Z", "count_points": 7, "latitude": 47.08771, "longitude": 33.43452, "city": "Beryslav", "images": []}, {"id": 500178, "min_date": "2023-09-08T09:49:00Z", "max_date": "2023-09-08T10:41:00Z", "count_points": 5, "latitude": 47.09176, "longitude": 33.26546, "city": "Velyka Oleksandrivka", "images": []}, {"id": 500179, "min_date": "2023-09-08T09:49:00Z", "max_date": "2023-09-09T10:21:00Z", "count_points": 3, "latitude": 47.1587, "longitude": 33.32181, "city": "Velyka Oleksandrivka", "images": []}, {"id": 500180, "min_date": "2023-09-08T09:49:00Z", "max_date": "2023-09-08T10:41:00Z", "count_points": 4, "latitude": 47.39756, "longitude": 33.95988, "city": "Novovorontsovka", "images": []}, {"id": 500181, "min_date": "2023-09-08T09:49:00Z", "max_date": "2023-09-08T10:41:00Z", "count_points": 6, "latitude": 46.19423, "longitude": 29.65018, "city": "Plakhtiyivka", "images": []}, {"id": 500182, "min_date": "2023-09-08T09:49:00Z", "max_date": "2023-09-08T09:49:00Z", "count_points": 2, "latitude": 46.5117, "longitude": 30.53939, "city": "Usatove", "images": []}, {"id": 500183, "min_date": "2023-09-08T09:49:00Z", "max_date": "2023-09-08T10:41:00Z", "count_points": 2, "latitude": 47.53516, "longitude": 30.16956, "city": "Shyryayeve", "images": []}, {"id": 500184, "min_date": "2023-09-08T09:49:00Z", "max_date": "2023-09-08T09:49:00Z", "count_points": 1, "latitude": 48.23925, "longitude": 28.14935, "city": "Yampil\u2019", "images": []}, {"id": 500185, "min_date": "2023-09-08T09:49:00Z", "max_date": "2023-09-08T10:41:00Z", "count_points": 2, "latitude": 50.10651, "longitude": 33.67717, "city": "Komyshnya", "images": []}, {"id": 500186, "min_date": "2023-09-08T09:52:00Z", "max_date": "2023-09-08T09:52:00Z", "count_points": 2, "latitude": 50.3288, "longitude": 30.12034, "city": "Borova", "images": []}, {"id": 500187, "min_date": "2023-09-08T11:30:00Z", "max_date": "2023-09-08T11:30:00Z", "count_points": 1, "latitude": 45.43468, "longitude": 33.82356, "city": "Voykovo", "images": []}, {"id": 500188, "min_date": "2023-09-08T11:30:00Z", "max_date": "2023-09-08T10:41:00Z", "count_points": 2, "latitude": 45.50709, "longitude": 29.32458, "city": "Shevchenkove", "images": []}, {"id": 500189, "min_date": "2023-09-08T11:30:00Z", "max_date": "2023-09-08T11:30:00Z", "count_points": 2, "latitude": 45.67047, "longitude": 29.29576, "city": "Shevchenkove", "images": []}, {"id": 500190, "min_date": "2023-09-08T11:30:00Z", "max_date": "2023-09-08T10:41:00Z", "count_points": 4, "latitude": 46.2107, "longitude": 33.32863, "city": "Kalanchak", "images": []}, {"id": 500191, "min_date": "2023-09-08T11:30:00Z", "max_date": "2023-09-08T10:41:00Z", "count_points": 4, "latitude": 46.24703, "longitude": 32.59886, "city": "Lazurne", "images": []}, {"id": 500192, "min_date": "2023-09-08T11:30:00Z", "max_date": "2023-09-08T11:30:00Z", "count_points": 2, "latitude": 46.65226, "longitude": 34.24066, "city": "Nyzhni Sirohozy", "images": []}, {"id": 500193, "min_date": "2023-09-08T11:30:00Z", "max_date": "2023-09-10T10:02:00Z", "count_points": 4, "latitude": 46.73556, "longitude": 33.80337, "city": "Kayiry", "images": []}, {"id": 500194, "min_date": "2023-09-08T11:30:00Z", "max_date": "2023-09-08T11:30:00Z", "count_points": 2, "latitude": 46.78059, "longitude": 32.33266, "city": "Shevchenkove", "images": []}, {"id": 500195, "min_date": "2023-09-08T11:30:00Z", "max_date": "2023-09-08T11:30:00Z", "count_points": 2, "latitude": 46.76019, "longitude": 31.49704, "city": "Ochakiv", "images": []}, {"id": 500196, "min_date": "2023-09-08T11:30:00Z", "max_date": "2023-09-08T10:41:00Z", "count_points": 9, "latitude": 46.88652, "longitude": 33.17051, "city": "Dnipryany", "images": []}, {"id": 500197, "min_date": "2023-09-08T11:30:00Z", "max_date": "2023-09-08T10:41:00Z", "count_points": 3, "latitude": 46.95847, "longitude": 34.56364, "city": "Nyzhni Sirohozy", "images": []}, {"id": 500198, "min_date": "2023-09-08T11:30:00Z", "max_date": "2023-09-08T11:30:00Z", "count_points": 2, "latitude": 47.05577, "longitude": 34.53525, "city": "Nyzhni Sirohozy", "images": []}, {"id": 500199, "min_date": "2023-09-08T11:30:00Z", "max_date": "2023-09-08T10:41:00Z", "count_points": 3, "latitude": 47.036, "longitude": 32.22626, "city": "Shevchenkove", "images": []}, {"id": 500200, "min_date": "2023-09-08T11:30:00Z", "max_date": "2023-09-08T10:41:00Z", "count_points": 3, "latitude": 47.10111, "longitude": 34.11889, "city": "Velyka Lepetykha", "images": []}, {"id": 500201, "min_date": "2023-09-08T11:30:00Z", "max_date": "2023-09-09T10:21:00Z", "count_points": 11, "latitude": 47.07322, "longitude": 32.27328, "city": "Shevchenkove", "images": []}, {"id": 500202, "min_date": "2023-09-08T11:30:00Z", "max_date": "2023-09-08T11:30:00Z", "count_points": 5, "latitude": 47.16429, "longitude": 33.22236, "city": "Velyka Oleksandrivka", "images": []}, {"id": 500203, "min_date": "2023-09-08T11:30:00Z", "max_date": "2023-09-08T10:41:00Z", "count_points": 2, "latitude": 47.2439, "longitude": 34.89417, "city": "Mala Bilozerka", "images": []}, {"id": 500204, "min_date": "2023-09-08T11:30:00Z", "max_date": "2023-09-08T10:41:00Z", "count_points": 2, "latitude": 47.30362, "longitude": 34.61161, "city": "Velyka Bilozerka", "images": []}, {"id": 500205, "min_date": "2023-09-08T11:30:00Z", "max_date": "2023-09-08T11:30:00Z", "count_points": 4, "latitude": 47.22966, "longitude": 30.17624, "city": "Shyryayeve", "images": []}, {"id": 500206, "min_date": "2023-09-08T11:30:00Z", "max_date": "2023-09-07T10:58:00Z", "count_points": 3, "latitude": 47.40364, "longitude": 33.78981, "city": "Novovorontsovka", "images": []}, {"id": 500207, "min_date": "2023-09-08T11:32:00Z", "max_date": "2023-09-08T11:32:00Z", "count_points": 1, "latitude": 47.89091, "longitude": 31.12162, "city": "Kostyantynivka", "images": []}, {"id": 500208, "min_date": "2023-09-08T11:32:00Z", "max_date": "2023-09-08T10:41:00Z", "count_points": 3, "latitude": 47.96618, "longitude": 32.94822, "city": "Kazanka", "images": []}, {"id": 500209, "min_date": "2023-09-08T11:32:00Z", "max_date": "2023-09-08T11:32:00Z", "count_points": 2, "latitude": 48.18063, "longitude": 29.03027, "city": "Kodyma", "images": []}, {"id": 500210, "min_date": "2023-09-08T11:32:00Z", "max_date": "2023-09-08T11:32:00Z", "count_points": 1, "latitude": 48.54966, "longitude": 32.09475, "city": "Kropyvnytskyi", "images": []}, {"id": 500211, "min_date": "2023-09-08T11:32:00Z", "max_date": "2023-09-08T11:32:00Z", "count_points": 1, "latitude": 48.4631, "longitude": 27.23806, "city": "Sokyryany", "images": []}, {"id": 500212, "min_date": "2023-09-08T11:32:00Z", "max_date": "2023-09-08T10:41:00Z", "count_points": 3, "latitude": 48.796, "longitude": 33.10216, "city": "Pryyutivka", "images": []}, {"id": 500213, "min_date": "2023-09-08T11:32:00Z", "max_date": "2023-09-08T11:32:00Z", "count_points": 2, "latitude": 49.01206, "longitude": 34.99914, "city": "Mahdalynivka", "images": []}, {"id": 500214, "min_date": "2023-09-08T11:32:00Z", "max_date": "2023-09-08T10:41:00Z", "count_points": 4, "latitude": 49.42249, "longitude": 29.91676, "city": "Volodarka", "images": []}, {"id": 500215, "min_date": "2023-09-08T11:32:00Z", "max_date": "2023-09-08T11:32:00Z", "count_points": 3, "latitude": 49.33226, "longitude": 26.80874, "city": "Yarmolyntsi", "images": []}, {"id": 500216, "min_date": "2023-09-08T11:32:00Z", "max_date": "2023-09-08T11:32:00Z", "count_points": 2, "latitude": 49.84226, "longitude": 31.06233, "city": "Rzhyshchiv", "images": []}, {"id": 500217, "min_date": "2023-09-08T11:32:00Z", "max_date": "2023-09-08T11:32:00Z", "count_points": 1, "latitude": 50.57873, "longitude": 30.50278, "city": "Vyshhorod", "images": []}, {"id": 500218, "min_date": "2023-09-08T11:32:00Z", "max_date": "2023-09-08T11:32:00Z", "count_points": 1, "latitude": 50.48754, "longitude": 28.55161, "city": "Cherniakhiv", "images": []}, {"id": 500219, "min_date": "2023-09-08T11:32:00Z", "max_date": "2023-09-08T11:32:00Z", "count_points": 1, "latitude": 50.95319, "longitude": 30.96121, "city": "Oster", "images": []}, {"id": 500220, "min_date": "2023-09-08T23:44:00Z", "max_date": "2023-09-10T23:56:00Z", "count_points": 3, "latitude": 50.28491, "longitude": 33.87922, "city": "Hadyach", "images": []}, {"id": 500221, "min_date": "2023-09-08T23:46:00Z", "max_date": "2023-09-08T23:46:00Z", "count_points": 2, "latitude": 48.21374, "longitude": 33.56392, "city": "Zhovti Vody", "images": []}, {"id": 500222, "min_date": "2023-09-08T23:46:00Z", "max_date": "2023-09-08T23:46:00Z", "count_points": 1, "latitude": 47.9119, "longitude": 33.17712, "city": "Lozuvatka", "images": []}, {"id": 500223, "min_date": "2023-09-08T23:46:00Z", "max_date": "2023-09-09T10:21:00Z", "count_points": 2, "latitude": 47.59794, "longitude": 31.07151, "city": "Domanivka", "images": []}, {"id": 500224, "min_date": "2023-09-08T23:46:00Z", "max_date": "2023-09-09T10:21:00Z", "count_points": 3, "latitude": 46.9106, "longitude": 34.66095, "city": "Ivanivka", "images": []}, {"id": 500225, "min_date": "2023-09-08T23:46:00Z", "max_date": "2023-09-09T10:21:00Z", "count_points": 3, "latitude": 46.89604, "longitude": 32.47025, "city": "Chornobayivka", "images": []}, {"id": 500226, "min_date": "2023-09-08T23:46:00Z", "max_date": "2023-09-08T23:46:00Z", "count_points": 1, "latitude": 46.79895, "longitude": 32.79487, "city": "Oleksandrivka", "images": []}, {"id": 500227, "min_date": "2023-09-08T23:46:00Z", "max_date": "2023-09-09T00:37:00Z", "count_points": 11, "latitude": 47.10983, "longitude": 30.20523, "city": "Shyryayeve", "images": []}, {"id": 500228, "min_date": "2023-09-08T23:46:00Z", "max_date": "2023-09-08T23:46:00Z", "count_points": 1, "latitude": 46.53305, "longitude": 33.77033, "city": "Askaniya-Nova", "images": []}, {"id": 500229, "min_date": "2023-09-08T23:46:00Z", "max_date": "2023-09-09T00:37:00Z", "count_points": 3, "latitude": 46.59553, "longitude": 32.23778, "city": "Stanislav", "images": []}, {"id": 500230, "min_date": "2023-09-08T23:46:00Z", "max_date": "2023-09-10T00:16:00Z", "count_points": 16, "latitude": 46.48752, "longitude": 31.72195, "city": "Ochakiv", "images": []}, {"id": 500231, "min_date": "2023-09-08T23:46:00Z", "max_date": "2023-09-09T00:37:00Z", "count_points": 2, "latitude": 45.83872, "longitude": 34.49793, "city": "Yermakovo", "images": []}, {"id": 500232, "min_date": "2023-09-08T23:46:00Z", "max_date": "2023-09-10T23:58:00Z", "count_points": 4, "latitude": 45.12951, "longitude": 33.99871, "city": "Gvardeyskoye", "images": []}, {"id": 500233, "min_date": "2023-09-09T01:26:00Z", "max_date": "2023-09-09T01:26:00Z", "count_points": 1, "latitude": 49.46402, "longitude": 24.09412, "city": "Rozdil", "images": []}, {"id": 500234, "min_date": "2023-09-09T09:32:00Z", "max_date": "2023-09-09T10:19:00Z", "count_points": 2, "latitude": 45.55523, "longitude": 34.27963, "city": "Vol\u2019noye", "images": []}, {"id": 500235, "min_date": "2023-09-09T09:32:00Z", "max_date": "2023-09-09T09:32:00Z", "count_points": 2, "latitude": 45.36764, "longitude": 32.77724, "city": "Okunevka", "images": []}, {"id": 500236, "min_date": "2023-09-09T09:32:00Z", "max_date": "2023-09-09T10:19:00Z", "count_points": 4, "latitude": 46.11451, "longitude": 32.9991, "city": "Skadovs\u2019k", "images": []}, {"id": 500237, "min_date": "2023-09-09T09:32:00Z", "max_date": "2023-09-09T10:19:00Z", "count_points": 2, "latitude": 46.6675, "longitude": 34.41797, "city": "Ivanivka", "images": []}, {"id": 500238, "min_date": "2023-09-09T09:32:00Z", "max_date": "2023-09-09T10:19:00Z", "count_points": 2, "latitude": 46.37287, "longitude": 33.07892, "city": "Brylivka", "images": []}, {"id": 500239, "min_date": "2023-09-09T09:32:00Z", "max_date": "2023-09-10T10:02:00Z", "count_points": 6, "latitude": 47.16974, "longitude": 34.6512, "city": "Velyka Bilozerka", "images": []}, {"id": 500240, "min_date": "2023-09-09T09:32:00Z", "max_date": "2023-09-09T10:19:00Z", "count_points": 3, "latitude": 45.5678, "longitude": 29.5676, "city": "Vylkove", "images": []}, {"id": 500241, "min_date": "2023-09-09T09:32:00Z", "max_date": "2023-09-09T10:21:00Z", "count_points": 7, "latitude": 46.84822, "longitude": 32.75113, "city": "Oleksandrivka", "images": []}, {"id": 500242, "min_date": "2023-09-09T09:32:00Z", "max_date": "2023-09-09T09:32:00Z", "count_points": 1, "latitude": 47.18879, "longitude": 33.45297, "city": "Velyka Oleksandrivka", "images": []}, {"id": 500243, "min_date": "2023-09-09T09:32:00Z", "max_date": "2023-09-09T10:21:00Z", "count_points": 7, "latitude": 47.34842, "longitude": 31.96608, "city": "Nova Odesa", "images": []}, {"id": 500244, "min_date": "2023-09-09T09:32:00Z", "max_date": "2023-09-09T09:32:00Z", "count_points": 1, "latitude": 48.41518, "longitude": 33.93948, "city": "Vyshneve", "images": []}, {"id": 500245, "min_date": "2023-09-09T09:32:00Z", "max_date": "2023-09-09T09:32:00Z", "count_points": 1, "latitude": 48.86314, "longitude": 29.98863, "city": "Khrystynivka", "images": []}, {"id": 500246, "min_date": "2023-09-09T09:32:00Z", "max_date": "2023-09-09T10:21:00Z", "count_points": 4, "latitude": 48.40978, "longitude": 28.45979, "city": "Klembivka", "images": []}, {"id": 500247, "min_date": "2023-09-09T09:32:00Z", "max_date": "2023-09-09T10:21:00Z", "count_points": 2, "latitude": 51.57638, "longitude": 32.6175, "city": "Sosnytsya", "images": []}, {"id": 500248, "min_date": "2023-09-09T11:13:00Z", "max_date": "2023-09-09T11:13:00Z", "count_points": 1, "latitude": 45.20961, "longitude": 33.22169, "city": "Molochnoye", "images": []}, {"id": 500249, "min_date": "2023-09-09T11:13:00Z", "max_date": "2023-09-09T11:13:00Z", "count_points": 2, "latitude": 45.66512, "longitude": 29.56834, "city": "Tatarbunary", "images": []}, {"id": 500250, "min_date": "2023-09-09T11:13:00Z", "max_date": "2023-09-09T11:13:00Z", "count_points": 2, "latitude": 46.12935, "longitude": 32.87136, "city": "Skadovs\u2019k", "images": []}, {"id": 500251, "min_date": "2023-09-09T11:13:00Z", "max_date": "2023-09-09T11:13:00Z", "count_points": 1, "latitude": 45.73764, "longitude": 28.75082, "city": "Kalcheva", "images": []}, {"id": 500252, "min_date": "2023-09-09T11:13:00Z", "max_date": "2023-09-09T11:13:00Z", "count_points": 1, "latitude": 46.23642, "longitude": 33.44373, "city": "Kalanchak", "images": []}, {"id": 500253, "min_date": "2023-09-09T11:13:00Z", "max_date": "2023-09-09T11:13:00Z", "count_points": 1, "latitude": 46.52808, "longitude": 31.75215, "city": "Ochakiv", "images": []}, {"id": 500254, "min_date": "2023-09-09T11:13:00Z", "max_date": "2023-09-09T11:13:00Z", "count_points": 1, "latitude": 46.84113, "longitude": 34.31733, "city": "Nyzhni Sirohozy", "images": []}, {"id": 500255, "min_date": "2023-09-09T11:13:00Z", "max_date": "2023-09-09T11:13:00Z", "count_points": 1, "latitude": 46.84605, "longitude": 29.8401, "city": "Stepanivka", "images": []}, {"id": 500256, "min_date": "2023-09-09T11:10:00Z", "max_date": "2023-09-09T10:21:00Z", "count_points": 8, "latitude": 47.8518, "longitude": 33.23364, "city": "Shyroke", "images": []}, {"id": 500257, "min_date": "2023-09-09T11:10:00Z", "max_date": "2023-09-09T11:10:00Z", "count_points": 1, "latitude": 48.25448, "longitude": 33.78336, "city": "Piatykhatky", "images": []}, {"id": 500258, "min_date": "2023-09-09T11:10:00Z", "max_date": "2023-09-09T10:21:00Z", "count_points": 3, "latitude": 48.55014, "longitude": 32.8418, "city": "Nova Praha", "images": []}, {"id": 500259, "min_date": "2023-09-09T11:10:00Z", "max_date": "2023-09-09T10:21:00Z", "count_points": 2, "latitude": 48.99724, "longitude": 33.93671, "city": "Kozel\u2019shchyna", "images": []}, {"id": 500260, "min_date": "2023-09-09T11:10:00Z", "max_date": "2023-09-09T11:10:00Z", "count_points": 2, "latitude": 49.7824, "longitude": 30.0581, "city": "Bila Tserkva", "images": []}, {"id": 500261, "min_date": "2023-09-09T11:10:00Z", "max_date": "2023-09-09T11:10:00Z", "count_points": 1, "latitude": 50.35919, "longitude": 28.98311, "city": "Korostyshiv", "images": []}, {"id": 500262, "min_date": "2023-09-09T11:10:00Z", "max_date": "2023-09-09T11:10:00Z", "count_points": 1, "latitude": 50.6624, "longitude": 30.17382, "city": "Vorzel\u2019", "images": []}, {"id": 500263, "min_date": "2023-09-09T11:13:00Z", "max_date": "2023-09-09T11:13:00Z", "count_points": 1, "latitude": 51.16986, "longitude": 27.52487, "city": "Olevs\u2019k", "images": []}, {"id": 500264, "min_date": "2023-09-09T11:13:00Z", "max_date": "2023-09-09T10:21:00Z", "count_points": 2, "latitude": 51.94423, "longitude": 34.27703, "city": "Chervone", "images": []}, {"id": 500265, "min_date": "2023-09-09T23:26:00Z", "max_date": "2023-09-10T11:45:00Z", "count_points": 14, "latitude": 51.1179, "longitude": 30.4243, "city": "Kryva Hora", "images": []}, {"id": 500266, "min_date": "2023-09-09T23:26:00Z", "max_date": "2023-09-10T10:02:00Z", "count_points": 6, "latitude": 47.77035, "longitude": 32.98805, "city": "Kazanka", "images": []}, {"id": 500267, "min_date": "2023-09-09T23:26:00Z", "max_date": "2023-09-10T00:16:00Z", "count_points": 2, "latitude": 48.07939, "longitude": 28.94103, "city": "Zagnitkiv", "images": []}, {"id": 500268, "min_date": "2023-09-09T23:26:00Z", "max_date": "2023-09-10T23:58:00Z", "count_points": 15, "latitude": 47.08719, "longitude": 34.15891, "city": "Verkhniy Rohachyk", "images": []}, {"id": 500269, "min_date": "2023-09-09T23:26:00Z", "max_date": "2023-09-10T00:16:00Z", "count_points": 3, "latitude": 46.71621, "longitude": 34.65306, "city": "Ivanivka", "images": []}, {"id": 500270, "min_date": "2023-09-09T23:26:00Z", "max_date": "2023-09-09T23:26:00Z", "count_points": 1, "latitude": 46.72264, "longitude": 33.08533, "city": "Kozachi Laheri", "images": []}, {"id": 500271, "min_date": "2023-09-09T23:26:00Z", "max_date": "2023-09-10T00:16:00Z", "count_points": 4, "latitude": 46.64064, "longitude": 32.94041, "city": "Kozachi Laheri", "images": []}, {"id": 500272, "min_date": "2023-09-09T23:26:00Z", "max_date": "2023-09-09T23:26:00Z", "count_points": 1, "latitude": 46.30636, "longitude": 33.74973, "city": "Askaniya-Nova", "images": []}, {"id": 500273, "min_date": "2023-09-09T23:26:00Z", "max_date": "2023-09-09T23:26:00Z", "count_points": 1, "latitude": 46.14998, "longitude": 32.681, "city": "Krasne", "images": []}, {"id": 500274, "min_date": "2023-09-10T01:07:00Z", "max_date": "2023-09-10T00:16:00Z", "count_points": 3, "latitude": 48.0448, "longitude": 25.08568, "city": "Putyla", "images": []}, {"id": 500275, "min_date": "2023-09-10T09:13:00Z", "max_date": "2023-09-10T09:13:00Z", "count_points": 1, "latitude": 49.53085, "longitude": 33.07746, "city": "Semenivka", "images": []}, {"id": 500276, "min_date": "2023-09-10T10:51:00Z", "max_date": "2023-09-10T10:02:00Z", "count_points": 2, "latitude": 45.47889, "longitude": 29.29469, "city": "Kiliya", "images": []}, {"id": 500277, "min_date": "2023-09-10T10:51:00Z", "max_date": "2023-09-10T10:51:00Z", "count_points": 1, "latitude": 45.64039, "longitude": 29.73673, "city": "Tatarbunary", "images": []}, {"id": 500278, "min_date": "2023-09-10T10:51:00Z", "max_date": "2023-09-08T10:41:00Z", "count_points": 2, "latitude": 45.5016, "longitude": 28.28856, "city": "Reni", "images": []}, {"id": 500279, "min_date": "2023-09-10T10:51:00Z", "max_date": "2023-09-10T10:02:00Z", "count_points": 5, "latitude": 46.50998, "longitude": 34.07591, "city": "Askaniya-Nova", "images": []}, {"id": 500280, "min_date": "2023-09-10T10:51:00Z", "max_date": "2023-09-10T10:51:00Z", "count_points": 1, "latitude": 45.9561, "longitude": 29.52851, "city": "Artsyz", "images": []}, {"id": 500281, "min_date": "2023-09-10T10:51:00Z", "max_date": "2023-09-10T10:02:00Z", "count_points": 3, "latitude": 46.63762, "longitude": 34.38082, "city": "Ivanivka", "images": []}, {"id": 500282, "min_date": "2023-09-10T10:51:00Z", "max_date": "2023-09-10T23:58:00Z", "count_points": 3, "latitude": 46.528, "longitude": 33.35967, "city": "Chornyanka", "images": []}, {"id": 500283, "min_date": "2023-09-10T10:51:00Z", "max_date": "2023-09-10T11:45:00Z", "count_points": 3, "latitude": 46.41919, "longitude": 32.08365, "city": "Stanislav", "images": []}, {"id": 500284, "min_date": "2023-09-10T10:51:00Z", "max_date": "2023-09-10T10:02:00Z", "count_points": 2, "latitude": 46.84449, "longitude": 33.66944, "city": "Lyubymivka", "images": []}, {"id": 500285, "min_date": "2023-09-10T10:51:00Z", "max_date": "2023-09-10T10:51:00Z", "count_points": 1, "latitude": 46.38887, "longitude": 30.06141, "city": "Starokozache", "images": []}, {"id": 500286, "min_date": "2023-09-10T10:51:00Z", "max_date": "2023-09-10T11:45:00Z", "count_points": 6, "latitude": 46.96952, "longitude": 34.63102, "city": "Ivanivka", "images": []}, {"id": 500287, "min_date": "2023-09-10T10:51:00Z", "max_date": "2023-09-10T10:02:00Z", "count_points": 4, "latitude": 46.71203, "longitude": 32.18361, "city": "Stanislav", "images": []}, {"id": 500288, "min_date": "2023-09-10T10:51:00Z", "max_date": "2023-09-10T10:51:00Z", "count_points": 1, "latitude": 46.64188, "longitude": 31.09813, "city": "Yuzhne", "images": []}, {"id": 500289, "min_date": "2023-09-10T10:51:00Z", "max_date": "2023-09-10T10:51:00Z", "count_points": 1, "latitude": 46.94596, "longitude": 31.49977, "city": "Berezanka", "images": []}, {"id": 500290, "min_date": "2023-09-10T10:51:00Z", "max_date": "2023-09-10T10:51:00Z", "count_points": 1, "latitude": 47.202, "longitude": 30.53871, "city": "Ivanivka", "images": []}, {"id": 500291, "min_date": "2023-09-10T10:51:00Z", "max_date": "2023-09-10T10:51:00Z", "count_points": 1, "latitude": 47.82014, "longitude": 34.76128, "city": "Tomakivka", "images": []}, {"id": 500292, "min_date": "2023-09-10T10:51:00Z", "max_date": "2023-09-10T11:45:00Z", "count_points": 4, "latitude": 47.66155, "longitude": 30.19493, "city": "Lyubashivka", "images": []}, {"id": 500293, "min_date": "2023-09-10T10:51:00Z", "max_date": "2023-09-10T10:51:00Z", "count_points": 1, "latitude": 48.24929, "longitude": 32.95324, "city": "Dolyns'ka", "images": []}, {"id": 500294, "min_date": "2023-09-10T10:53:00Z", "max_date": "2023-09-10T10:53:00Z", "count_points": 1, "latitude": 47.9638, "longitude": 29.72533, "city": "Balta", "images": []}, {"id": 500295, "min_date": "2023-09-10T10:53:00Z", "max_date": "2023-09-10T11:45:00Z", "count_points": 4, "latitude": 48.61934, "longitude": 34.20046, "city": "Verkhn\u2019odniprovs\u2019k", "images": []}, {"id": 500296, "min_date": "2023-09-10T10:53:00Z", "max_date": "2023-09-10T10:53:00Z", "count_points": 1, "latitude": 48.04422, "longitude": 28.92432, "city": "Zagnitkiv", "images": []}, {"id": 500297, "min_date": "2023-09-10T10:53:00Z", "max_date": "2023-09-10T10:53:00Z", "count_points": 1, "latitude": 48.31797, "longitude": 29.95022, "city": "Hayvoron", "images": []}, {"id": 500298, "min_date": "2023-09-10T10:53:00Z", "max_date": "2023-09-10T10:53:00Z", "count_points": 1, "latitude": 48.75072, "longitude": 30.88679, "city": "Novoarkhanhel\u2019s\u2019k", "images": []}, {"id": 500299, "min_date": "2023-09-10T10:53:00Z", "max_date": "2023-09-10T10:53:00Z", "count_points": 4, "latitude": 48.51855, "longitude": 28.92281, "city": "Kryzhopil\u2019", "images": []}, {"id": 500300, "min_date": "2023-09-10T10:53:00Z", "max_date": "2023-09-10T10:53:00Z", "count_points": 2, "latitude": 48.90734, "longitude": 31.70803, "city": "Kapitanivka", "images": []}, {"id": 500301, "min_date": "2023-09-10T10:53:00Z", "max_date": "2023-09-10T10:02:00Z", "count_points": 3, "latitude": 49.15594, "longitude": 33.5737, "city": "Horishni Plavni", "images": []}, {"id": 500302, "min_date": "2023-09-10T10:53:00Z", "max_date": "2023-09-10T10:53:00Z", "count_points": 1, "latitude": 49.53564, "longitude": 30.82699, "city": "Bohuslav", "images": []}, {"id": 500303, "min_date": "2023-09-10T10:53:00Z", "max_date": "2023-09-10T11:45:00Z", "count_points": 4, "latitude": 49.30675, "longitude": 28.85386, "city": "Turbiv", "images": []}, {"id": 500304, "min_date": "2023-09-10T10:53:00Z", "max_date": "2023-09-10T10:53:00Z", "count_points": 1, "latitude": 49.57761, "longitude": 28.84072, "city": "Kozyatyn", "images": []}, {"id": 500305, "min_date": "2023-09-10T10:53:00Z", "max_date": "2023-09-10T11:45:00Z", "count_points": 6, "latitude": 49.89202, "longitude": 29.33879, "city": "Popil'nya", "images": []}, {"id": 500306, "min_date": "2023-09-10T10:53:00Z", "max_date": "2023-09-10T10:53:00Z", "count_points": 1, "latitude": 50.14288, "longitude": 29.62461, "city": "Kornyn", "images": []}, {"id": 500307, "min_date": "2023-09-10T10:53:00Z", "max_date": "2023-09-10T10:53:00Z", "count_points": 1, "latitude": 49.98558, "longitude": 28.32501, "city": "Chudniv", "images": []}, {"id": 500308, "min_date": "2023-09-10T10:53:00Z", "max_date": "2023-09-10T10:53:00Z", "count_points": 1, "latitude": 50.00738, "longitude": 27.86987, "city": "Liubar", "images": []}, {"id": 500309, "min_date": "2023-09-10T10:53:00Z", "max_date": "2023-09-10T10:53:00Z", "count_points": 1, "latitude": 50.26829, "longitude": 28.77483, "city": "Zhytomyr", "images": []}, {"id": 500310, "min_date": "2023-09-10T10:53:00Z", "max_date": "2023-09-10T10:04:00Z", "count_points": 3, "latitude": 50.29262, "longitude": 28.84993, "city": "Ozerne", "images": []}, {"id": 500311, "min_date": "2023-09-10T10:53:00Z", "max_date": "2023-09-10T10:53:00Z", "count_points": 1, "latitude": 49.98064, "longitude": 23.56837, "city": "Starychi", "images": []}, {"id": 500312, "min_date": "2023-09-10T10:53:00Z", "max_date": "2023-09-10T10:53:00Z", "count_points": 1, "latitude": 51.29477, "longitude": 25.02233, "city": "Ho\u0142oby", "images": []}, {"id": 500313, "min_date": "2023-09-10T10:53:00Z", "max_date": "2023-09-10T10:53:00Z", "count_points": 1, "latitude": 51.6828, "longitude": 26.14228, "city": "Zarichne", "images": []}, {"id": 500314, "min_date": "2023-09-10T23:07:00Z", "max_date": "2023-09-10T23:58:00Z", "count_points": 5, "latitude": 47.12991, "longitude": 33.77794, "city": "Dudchany", "images": []}, {"id": 500315, "min_date": "2023-09-10T23:07:00Z", "max_date": "2023-09-10T23:07:00Z", "count_points": 1, "latitude": 46.85725, "longitude": 31.20666, "city": "Berezanka", "images": []}, {"id": 500316, "min_date": "2023-09-10T23:07:00Z", "max_date": "2023-09-10T23:58:00Z", "count_points": 3, "latitude": 46.60121, "longitude": 33.60184, "city": "Lyubymivka", "images": []}, {"id": 500317, "min_date": "2023-09-10T23:07:00Z", "max_date": "2023-09-10T23:58:00Z", "count_points": 3, "latitude": 46.59002, "longitude": 32.58089, "city": "Kherson", "images": []}, {"id": 500318, "min_date": "2023-09-07T09:17:00Z", "max_date": "2023-09-07T09:17:00Z", "count_points": 1, "latitude": 47.23445, "longitude": 34.36828, "city": "Verkhniy Rohachyk", "images": []}, {"id": 500319, "min_date": "2023-09-07T10:58:00Z", "max_date": "2023-09-07T10:58:00Z", "count_points": 1, "latitude": 45.41708, "longitude": 33.62288, "city": "Vinogradovo", "images": []}, {"id": 500320, "min_date": "2023-09-07T10:58:00Z", "max_date": "2023-09-07T10:58:00Z", "count_points": 2, "latitude": 45.39021, "longitude": 32.50303, "city": "Olenevka", "images": []}, {"id": 500321, "min_date": "2023-09-07T10:58:00Z", "max_date": "2023-09-07T10:58:00Z", "count_points": 1, "latitude": 45.50326, "longitude": 32.66456, "city": "Chernomorskoye", "images": []}, {"id": 500322, "min_date": "2023-09-07T10:58:00Z", "max_date": "2023-09-07T10:58:00Z", "count_points": 1, "latitude": 45.78073, "longitude": 34.31097, "city": "Maslovo", "images": []}, {"id": 500323, "min_date": "2023-09-07T10:58:00Z", "max_date": "2023-09-07T10:58:00Z", "count_points": 2, "latitude": 46.86023, "longitude": 33.12517, "city": "Dnipryany", "images": []}, {"id": 500324, "min_date": "2023-09-07T10:58:00Z", "max_date": "2023-09-07T10:58:00Z", "count_points": 1, "latitude": 46.7984, "longitude": 32.25404, "city": "Shevchenkove", "images": []}, {"id": 500325, "min_date": "2023-09-07T10:58:00Z", "max_date": "2023-09-07T10:58:00Z", "count_points": 2, "latitude": 47.01899, "longitude": 32.64601, "city": "Snihurivka", "images": []}, {"id": 500326, "min_date": "2023-09-07T10:58:00Z", "max_date": "2023-09-07T10:58:00Z", "count_points": 1, "latitude": 47.34098, "longitude": 33.27319, "city": "Velyka Oleksandrivka", "images": []}, {"id": 500327, "min_date": "2023-09-07T11:00:00Z", "max_date": "2023-09-07T11:00:00Z", "count_points": 2, "latitude": 48.89603, "longitude": 34.04099, "city": "Lykhivka", "images": []}, {"id": 500328, "min_date": "2023-09-07T11:00:00Z", "max_date": "2023-09-07T11:00:00Z", "count_points": 2, "latitude": 49.25307, "longitude": 32.0862, "city": "Chervona Sloboda", "images": []}, {"id": 500329, "min_date": "2023-09-07T11:00:00Z", "max_date": "2023-09-07T11:00:00Z", "count_points": 1, "latitude": 48.23014, "longitude": 22.69329, "city": "Muzhiyevo", "images": []}, {"id": 500331, "min_date": "2023-09-07T11:00:00Z", "max_date": "2023-09-07T11:00:00Z", "count_points": 1, "latitude": 49.80919, "longitude": 31.07081, "city": "Rzhyshchiv", "images": []}, {"id": 500332, "min_date": "2023-09-07T11:00:00Z", "max_date": "2023-09-07T11:00:00Z", "count_points": 1, "latitude": 49.57078, "longitude": 28.75073, "city": "Kozyatyn", "images": []}, {"id": 500333, "min_date": "2023-09-07T11:00:00Z", "max_date": "2023-09-07T11:00:00Z", "count_points": 3, "latitude": 50.60537, "longitude": 31.01976, "city": "Velyka Dymerka", "images": []}, {"id": 500334, "min_date": "2023-09-07T11:00:00Z", "max_date": "2023-09-07T11:00:00Z", "count_points": 1, "latitude": 50.41513, "longitude": 29.00016, "city": "Korostyshiv", "images": []}, {"id": 500335, "min_date": "2023-09-07T11:00:00Z", "max_date": "2023-09-07T11:00:00Z", "count_points": 1, "latitude": 50.88661, "longitude": 32.81566, "city": "Sribne", "images": []}, {"id": 500336, "min_date": "2023-09-07T11:00:00Z", "max_date": "2023-09-07T11:00:00Z", "count_points": 1, "latitude": 50.84285, "longitude": 31.01119, "city": "Kozelets\u2019", "images": []}, {"id": 500337, "min_date": "2023-09-07T11:00:00Z", "max_date": "2023-09-07T11:00:00Z", "count_points": 1, "latitude": 51.88297, "longitude": 31.61945, "city": "Horodnya", "images": []}, {"id": 500338, "min_date": "2023-09-07T23:14:00Z", "max_date": "2023-09-07T23:14:00Z", "count_points": 2, "latitude": 47.2242, "longitude": 31.65149, "city": "Ol'shanskoye", "images": []}, {"id": 500339, "min_date": "2023-09-07T23:14:00Z", "max_date": "2023-09-07T23:14:00Z", "count_points": 1, "latitude": 46.79655, "longitude": 34.29658, "city": "Nyzhni Sirohozy", "images": []}, {"id": 500340, "min_date": "2023-09-07T23:14:00Z", "max_date": "2023-09-07T23:14:00Z", "count_points": 1, "latitude": 46.64719, "longitude": 34.94757, "city": "Yakymivka", "images": []}, {"id": 500341, "min_date": "2023-09-07T23:14:00Z", "max_date": "2023-09-07T23:14:00Z", "count_points": 1, "latitude": 46.35346, "longitude": 33.78646, "city": "Askaniya-Nova", "images": []}, {"id": 500342, "min_date": "2023-09-08T00:54:00Z", "max_date": "2023-09-08T00:54:00Z", "count_points": 1, "latitude": 46.41065, "longitude": 33.08742, "city": "Brylivka", "images": []}, {"id": 500343, "min_date": "2023-09-08T10:41:00Z", "max_date": "2023-09-08T10:41:00Z", "count_points": 1, "latitude": 45.32169, "longitude": 34.08392, "city": "Oktyabr\u2019skoye", "images": []}, {"id": 500344, "min_date": "2023-09-08T10:41:00Z", "max_date": "2023-09-08T10:41:00Z", "count_points": 1, "latitude": 45.57113, "longitude": 34.36349, "city": "Roshchino", "images": []}, {"id": 500345, "min_date": "2023-09-08T10:41:00Z", "max_date": "2023-09-08T22:57:00Z", "count_points": 2, "latitude": 46.42755, "longitude": 34.3354, "city": "Novotroyits\u2019ke", "images": []}, {"id": 500346, "min_date": "2023-09-08T10:41:00Z", "max_date": "2023-09-08T10:41:00Z", "count_points": 2, "latitude": 45.71302, "longitude": 29.68686, "city": "Tatarbunary", "images": []}, {"id": 500347, "min_date": "2023-09-08T10:41:00Z", "max_date": "2023-09-08T10:41:00Z", "count_points": 1, "latitude": 46.31485, "longitude": 33.2647, "city": "Kalanchak", "images": []}, {"id": 500348, "min_date": "2023-09-08T10:41:00Z", "max_date": "2023-09-08T10:41:00Z", "count_points": 1, "latitude": 45.73668, "longitude": 29.57072, "city": "Tatarbunary", "images": []}, {"id": 500349, "min_date": "2023-09-08T10:41:00Z", "max_date": "2023-09-08T10:41:00Z", "count_points": 2, "latitude": 46.6009, "longitude": 30.90416, "city": "Fontanka", "images": []}, {"id": 500350, "min_date": "2023-09-08T10:41:00Z", "max_date": "2023-09-08T10:41:00Z", "count_points": 1, "latitude": 47.1104, "longitude": 33.32463, "city": "Velyka Oleksandrivka", "images": []}, {"id": 500351, "min_date": "2023-09-08T10:41:00Z", "max_date": "2023-09-08T10:41:00Z", "count_points": 2, "latitude": 46.92371, "longitude": 32.03423, "city": "Mykolayiv", "images": []}, {"id": 500352, "min_date": "2023-09-08T10:41:00Z", "max_date": "2023-09-08T10:41:00Z", "count_points": 1, "latitude": 47.12821, "longitude": 33.25537, "city": "Velyka Oleksandrivka", "images": []}, {"id": 500353, "min_date": "2023-09-08T10:41:00Z", "max_date": "2023-09-08T10:41:00Z", "count_points": 1, "latitude": 47.32348, "longitude": 33.62886, "city": "Dudchany", "images": []}, {"id": 500354, "min_date": "2023-09-08T10:41:00Z", "max_date": "2023-09-08T10:41:00Z", "count_points": 1, "latitude": 47.67379, "longitude": 30.54123, "city": "Vradiyivka", "images": []}, {"id": 500355, "min_date": "2023-09-08T10:41:00Z", "max_date": "2023-09-08T10:41:00Z", "count_points": 2, "latitude": 48.42786, "longitude": 33.74958, "city": "Piatykhatky", "images": []}, {"id": 500356, "min_date": "2023-09-08T10:41:00Z", "max_date": "2023-09-08T10:41:00Z", "count_points": 2, "latitude": 48.50233, "longitude": 29.24342, "city": "Trostyanets\u2019", "images": []}, {"id": 500357, "min_date": "2023-09-08T10:41:00Z", "max_date": "2023-09-08T10:41:00Z", "count_points": 1, "latitude": 48.67421, "longitude": 28.26114, "city": "Sharhorod", "images": []}, {"id": 500358, "min_date": "2023-09-08T10:41:00Z", "max_date": "2023-09-08T10:41:00Z", "count_points": 1, "latitude": 49.21579, "longitude": 30.10719, "city": "Zhashkiv", "images": []}, {"id": 500359, "min_date": "2023-09-08T10:41:00Z", "max_date": "2023-09-08T10:41:00Z", "count_points": 4, "latitude": 49.91756, "longitude": 28.65814, "city": "Hryshkivtsi", "images": []}, {"id": 500360, "min_date": "2023-09-08T10:41:00Z", "max_date": "2023-09-08T10:41:00Z", "count_points": 1, "latitude": 49.64496, "longitude": 25.46855, "city": "Ozerna", "images": []}, {"id": 500361, "min_date": "2023-09-08T10:41:00Z", "max_date": "2023-09-08T10:41:00Z", "count_points": 1, "latitude": 50.30179, "longitude": 28.53291, "city": "Zhytomyr", "images": []}, {"id": 500362, "min_date": "2023-09-08T10:43:00Z", "max_date": "2023-09-08T10:43:00Z", "count_points": 1, "latitude": 49.53532, "longitude": 23.16399, "city": "Sambir", "images": []}, {"id": 500363, "min_date": "2023-09-08T10:43:00Z", "max_date": "2023-09-08T10:43:00Z", "count_points": 1, "latitude": 52.27581, "longitude": 33.33641, "city": "Novhorod-Sivers\u2019kyy", "images": []}, {"id": 500364, "min_date": "2023-09-08T22:54:00Z", "max_date": "2023-09-08T22:54:00Z", "count_points": 1, "latitude": 47.03561, "longitude": 33.85732, "city": "Hornostayivka", "images": []}, {"id": 500365, "min_date": "2023-09-09T00:37:00Z", "max_date": "2023-09-09T00:37:00Z", "count_points": 1, "latitude": 46.43171, "longitude": 34.27204, "city": "Novotroyits\u2019ke", "images": []}, {"id": 500366, "min_date": "2023-09-09T10:19:00Z", "max_date": "2023-09-09T10:19:00Z", "count_points": 1, "latitude": 45.77645, "longitude": 33.87873, "city": "Pravda", "images": []}, {"id": 500367, "min_date": "2023-09-09T10:19:00Z", "max_date": "2023-09-09T10:19:00Z", "count_points": 1, "latitude": 46.39856, "longitude": 34.72908, "city": "Partyzany", "images": []}, {"id": 500368, "min_date": "2023-09-09T10:19:00Z", "max_date": "2023-09-09T10:19:00Z", "count_points": 1, "latitude": 46.35171, "longitude": 34.01963, "city": "Askaniya-Nova", "images": []}, {"id": 500369, "min_date": "2023-09-09T10:19:00Z", "max_date": "2023-09-09T10:19:00Z", "count_points": 1, "latitude": 46.5343, "longitude": 34.44442, "city": "Novotroyits\u2019ke", "images": []}, {"id": 500370, "min_date": "2023-09-09T10:19:00Z", "max_date": "2023-09-09T10:19:00Z", "count_points": 1, "latitude": 46.34818, "longitude": 33.04631, "city": "Vynohradove", "images": []}, {"id": 500371, "min_date": "2023-09-09T10:21:00Z", "max_date": "2023-09-09T10:21:00Z", "count_points": 1, "latitude": 46.66615, "longitude": 33.66668, "city": "Lyubymivka", "images": []}, {"id": 500372, "min_date": "2023-09-09T10:21:00Z", "max_date": "2023-09-09T10:21:00Z", "count_points": 2, "latitude": 45.79219, "longitude": 28.8102, "city": "Kalcheva", "images": []}, {"id": 500373, "min_date": "2023-09-09T10:21:00Z", "max_date": "2023-09-09T10:21:00Z", "count_points": 1, "latitude": 46.95125, "longitude": 34.41044, "city": "Nyzhni Sirohozy", "images": []}, {"id": 500374, "min_date": "2023-09-09T10:21:00Z", "max_date": "2023-09-09T10:21:00Z", "count_points": 1, "latitude": 46.27226, "longitude": 30.51908, "city": "Ovidiopol", "images": []}, {"id": 500375, "min_date": "2023-09-09T10:21:00Z", "max_date": "2023-09-09T10:21:00Z", "count_points": 1, "latitude": 47.19872, "longitude": 33.80971, "city": "Dudchany", "images": []}, {"id": 500376, "min_date": "2023-09-09T10:21:00Z", "max_date": "2023-09-09T10:21:00Z", "count_points": 1, "latitude": 47.48714, "longitude": 33.58794, "city": "Vysokopillya", "images": []}, {"id": 500377, "min_date": "2023-09-09T10:21:00Z", "max_date": "2023-09-09T10:21:00Z", "count_points": 1, "latitude": 47.06737, "longitude": 30.98155, "city": "Kurisove", "images": []}, {"id": 500378, "min_date": "2023-09-09T10:21:00Z", "max_date": "2023-09-09T10:21:00Z", "count_points": 1, "latitude": 46.95499, "longitude": 29.738, "city": "Velykoploske", "images": []}, {"id": 500379, "min_date": "2023-09-09T10:21:00Z", "max_date": "2023-09-09T10:21:00Z", "count_points": 3, "latitude": 47.58192, "longitude": 32.40237, "city": "Novyy Buh", "images": []}, {"id": 500380, "min_date": "2023-09-09T10:21:00Z", "max_date": "2023-09-09T10:21:00Z", "count_points": 1, "latitude": 48.15651, "longitude": 33.88379, "city": "Sofiyivka", "images": []}, {"id": 500381, "min_date": "2023-09-09T10:21:00Z", "max_date": "2023-09-09T10:21:00Z", "count_points": 2, "latitude": 47.84589, "longitude": 29.87647, "city": "Ananyiv Pershyi", "images": []}, {"id": 500382, "min_date": "2023-09-09T10:21:00Z", "max_date": "2023-09-09T10:21:00Z", "count_points": 2, "latitude": 48.30607, "longitude": 28.25426, "city": "Yampil\u2019", "images": []}, {"id": 500383, "min_date": "2023-09-09T10:21:00Z", "max_date": "2023-09-09T10:21:00Z", "count_points": 1, "latitude": 51.25033, "longitude": 30.84288, "city": "Slavutych", "images": []}, {"id": 500384, "min_date": "2023-09-09T12:04:00Z", "max_date": "2023-09-09T12:04:00Z", "count_points": 1, "latitude": 51.80228, "longitude": 30.68805, "city": "Lyubech", "images": []}, {"id": 500385, "min_date": "2023-09-09T22:35:00Z", "max_date": "2023-09-09T22:35:00Z", "count_points": 2, "latitude": 46.38037, "longitude": 34.92018, "city": "Partyzany", "images": []}, {"id": 500386, "min_date": "2023-09-10T00:16:00Z", "max_date": "2023-09-10T00:16:00Z", "count_points": 1, "latitude": 51.1431, "longitude": 30.38489, "city": "Kryva Hora", "images": []}, {"id": 500387, "min_date": "2023-09-10T00:16:00Z", "max_date": "2023-09-10T00:16:00Z", "count_points": 1, "latitude": 46.81288, "longitude": 33.89468, "city": "Kayiry", "images": []}, {"id": 500388, "min_date": "2023-09-10T00:16:00Z", "max_date": "2023-09-10T00:16:00Z", "count_points": 1, "latitude": 47.52898, "longitude": 30.37318, "city": "Shyryayeve", "images": []}, {"id": 500389, "min_date": "2023-09-10T00:16:00Z", "max_date": "2023-09-10T00:16:00Z", "count_points": 1, "latitude": 45.34977, "longitude": 32.52425, "city": "Olenevka", "images": []}, {"id": 500406, "min_date": "2023-09-10T23:58:00Z", "max_date": "2023-09-10T23:58:00Z", "count_points": 2, "latitude": 48.47382, "longitude": 33.94079, "city": "Vyshneve", "images": []}, {"id": 500407, "min_date": "2023-09-10T23:58:00Z", "max_date": "2023-09-10T23:58:00Z", "count_points": 1, "latitude": 47.03366, "longitude": 33.7845, "city": "Hornostayivka", "images": []}, {"id": 500408, "min_date": "2023-09-10T23:58:00Z", "max_date": "2023-09-10T23:58:00Z", "count_points": 1, "latitude": 47.32912, "longitude": 29.83037, "city": "Zatyshshya", "images": []}, {"id": 500409, "min_date": "2023-09-10T23:58:00Z", "max_date": "2023-09-10T23:58:00Z", "count_points": 1, "latitude": 47.06236, "longitude": 29.85616, "city": "Velyka Mykhaylivka", "images": []}, {"id": 500390, "min_date": "2023-09-10T10:02:00Z", "max_date": "2023-09-10T10:02:00Z", "count_points": 1, "latitude": 46.22057, "longitude": 34.06518, "city": "Krasnoarmeyskoye", "images": []}, {"id": 500391, "min_date": "2023-09-10T10:02:00Z", "max_date": "2023-09-10T10:02:00Z", "count_points": 1, "latitude": 46.75937, "longitude": 33.94148, "city": "Kayiry", "images": []}, {"id": 500392, "min_date": "2023-09-10T10:02:00Z", "max_date": "2023-09-10T10:02:00Z", "count_points": 1, "latitude": 47.25896, "longitude": 33.2613, "city": "Velyka Oleksandrivka", "images": []}, {"id": 500393, "min_date": "2023-09-10T10:02:00Z", "max_date": "2023-09-10T10:02:00Z", "count_points": 1, "latitude": 47.42638, "longitude": 30.6863, "city": "Mykolayivka", "images": []}, {"id": 500394, "min_date": "2023-09-10T10:02:00Z", "max_date": "2023-09-10T10:02:00Z", "count_points": 1, "latitude": 47.55441, "longitude": 30.23911, "city": "Shyryayeve", "images": []}, {"id": 500395, "min_date": "2023-09-10T10:02:00Z", "max_date": "2023-09-10T10:02:00Z", "count_points": 1, "latitude": 47.8325, "longitude": 30.8608, "city": "Pervomays\u2019k", "images": []}, {"id": 500396, "min_date": "2023-09-10T10:02:00Z", "max_date": "2023-09-10T10:02:00Z", "count_points": 1, "latitude": 49.23822, "longitude": 33.13096, "city": "Hradyz\u2019k", "images": []}, {"id": 500397, "min_date": "2023-09-10T10:04:00Z", "max_date": "2023-09-10T10:04:00Z", "count_points": 2, "latitude": 49.2681, "longitude": 27.81792, "city": "Letychiv", "images": []}, {"id": 500398, "min_date": "2023-09-10T10:04:00Z", "max_date": "2023-09-10T10:04:00Z", "count_points": 1, "latitude": 49.73197, "longitude": 27.87621, "city": "Khmilnyk", "images": []}, {"id": 500399, "min_date": "2023-09-10T10:04:00Z", "max_date": "2023-09-10T10:04:00Z", "count_points": 1, "latitude": 50.41758, "longitude": 28.14246, "city": "Pulyny", "images": []}, {"id": 500400, "min_date": "2023-09-10T10:04:00Z", "max_date": "2023-09-10T10:04:00Z", "count_points": 1, "latitude": 51.60532, "longitude": 31.56341, "city": "Sedniv", "images": []}, {"id": 500401, "min_date": "2023-09-10T11:45:00Z", "max_date": "2023-09-10T11:45:00Z", "count_points": 1, "latitude": 46.78612, "longitude": 29.97083, "city": "Stepanivka", "images": []}, {"id": 500402, "min_date": "2023-09-10T11:45:00Z", "max_date": "2023-09-10T11:45:00Z", "count_points": 1, "latitude": 48.3931, "longitude": 22.55029, "city": "Strabychovo", "images": []}, {"id": 500403, "min_date": "2023-09-10T11:45:00Z", "max_date": "2023-09-10T11:45:00Z", "count_points": 2, "latitude": 49.16521, "longitude": 33.29068, "city": "Svitlovods\u2019k", "images": []}, {"id": 500404, "min_date": "2023-09-10T11:45:00Z", "max_date": "2023-09-10T11:45:00Z", "count_points": 1, "latitude": 49.19863, "longitude": 30.00945, "city": "Zhashkiv", "images": []}, {"id": 500405, "min_date": "2023-09-10T11:45:00Z", "max_date": "2023-09-10T11:45:00Z", "count_points": 1, "latitude": 50.53714, "longitude": 30.19863, "city": "Bucha", "images": []}]